%time,field.header.seq,field.header.stamp,field.header.frame_id,field.point.x,field.point.y,field.point.z
1555407141280943455,1,1555407141280404445,,-2.60889267921,-1.28969800472,1.70349125895
1555407141291251526,2,1555407141290800736,,-2.6077682972,-1.29048228264,1.60915296019
1555407141300660837,3,1555407141300168172,,-2.60578775406,-1.29131376743,1.50037868925
1555407141310991846,4,1555407141310524892,,-2.60488510132,-1.29145431519,1.40717044812
1555407141311189025,5,1555407141310560545,,-2.603515625,-1.29207980633,1.32142704794
1555407141320285444,6,1555407141319772585,,-2.6019616127,-1.29219245911,1.21592406133
1555407141330623124,7,1555407141330138760,,-2.60066342354,-1.29308271408,1.11375916632
1555407141340942180,8,1555407141340494284,,-2.59904074669,-1.29323244095,1.01850943276
1555407141350243162,9,1555407141349749145,,-2.5973072052,-1.29378473759,0.926736170318
1555407141360477423,10,1555407141360058549,,-2.59581041336,-1.29326462746,0.82078849198
1555407141370879902,11,1555407141370389161,,-2.59337353706,-1.29401838779,0.715138706313
1555407141371044936,12,1555407141370420576,,-2.59238886833,-1.29388403893,0.608373656311
1555407141381198483,13,1555407141380761806,,-2.59094071388,-1.29440104961,0.508962091302
1555407141390581462,14,1555407141390120966,,-2.58853840828,-1.29448914528,0.422870804173
1555407141400977882,15,1555407141400488100,,-2.58663272858,-1.2946562767,0.325030872802
1555407141401145310,16,1555407141400552532,,-2.58407473564,-1.29494476318,0.227761966596
1555407141410057500,17,1555407141409759032,,-2.58205866814,-1.29528915882,0.132949033453
1555407141420554997,18,1555407141420097827,,-2.58019757271,-1.29527807236,0.0285408809565
1555407141430900175,19,1555407141430451943,,-2.57743310928,-1.29587113857,-0.0676616072189
1555407141440176855,20,1555407141439693298,,-2.5750670433,-1.29591345787,-0.161806262931
1555407141450477885,21,1555407141450013912,,-2.57320618629,-1.29664599895,-0.253416512766
1555407141460726171,22,1555407141460309830,,-2.57004237175,-1.29787480831,-0.351593781321
1555407141460870354,23,1555407141460341568,,-2.56799149513,-1.29850006104,-0.43739029631
1555407141471017385,24,1555407141470554700,,-2.56543636322,-1.29975104332,-0.517818266546
1555407141480347993,25,1555407141479887646,,-2.56281685829,-1.3008698225,-0.59742612229
1555407141490734414,26,1555407141490276466,,-2.55981612206,-1.30186724663,-0.69852267374
1555407141501079226,27,1555407141500620658,,-2.5571410656,-1.30384480953,-0.76700024704
1555407141501230315,28,1555407141500656032,,-2.55442976952,-1.30531573296,-0.849023719509
1555407141510068858,29,1555407141509847288,,-2.55295538902,-1.30643904209,-0.914359746292
1555407141520671703,30,1555407141520151787,,-2.54971957207,-1.30844688416,-0.99009068029
1555407141530973127,31,1555407141530515919,,-2.546905756,-1.31069028378,-1.05246531418
1555407141540230777,32,1555407141539760423,,-2.5439786911,-1.31272304058,-1.12728793301
1555407141550560884,33,1555407141550103034,,-2.54189729691,-1.31432759762,-1.19418754046
1555407141560845263,34,1555407141560389715,,-2.53870511055,-1.31653857231,-1.26158496902
1555407141561008365,35,1555407141560421173,,-2.53647041321,-1.31872904301,-1.32540265285
1555407141571186775,36,1555407141570708772,,-2.53381085396,-1.32122528553,-1.38895228743
1555407141580551381,37,1555407141580070723,,-2.53161501884,-1.32346796989,-1.44498951667
1555407141590894782,38,1555407141590433508,,-2.52909970284,-1.3260217905,-1.50007579152
1555407141600158037,39,1555407141599686187,,-2.52674889565,-1.32899224758,-1.55843868737
1555407141610465804,40,1555407141609990827,,-2.52434873581,-1.33171069622,-1.61119130517
1555407141610614364,41,1555407141610026351,,-2.52211618423,-1.33471286297,-1.66649833255
1555407141620549852,42,1555407141620258964,,-2.52005505562,-1.33768260479,-1.71671572245
1555407141631016008,43,1555407141630537085,,-2.5174574852,-1.34143817425,-1.76602712888
1555407141640268102,44,1555407141639787683,,-2.51556229591,-1.34389805794,-1.81360776698
1555407141650593924,45,1555407141650128913,,-2.51368379593,-1.34761059284,-1.8623203955
1555407141660818667,46,1555407141660415358,,-2.51199126244,-1.35121309757,-1.92802102815
1555407141671206182,47,1555407141670733431,,-2.50998854637,-1.35488343239,-1.97761475563
1555407141671377216,48,1555407141670766619,,-2.50737428665,-1.35834157467,-2.03327702487
1555407141680529676,49,1555407141680064910,,-2.5069038868,-1.3618619442,-2.08262314105
1555407141690922998,50,1555407141690440141,,-2.50547838211,-1.36622071266,-2.1240554445
1555407141700165445,51,1555407141699695322,,-2.5035469532,-1.37014758587,-2.18948558243
1555407141710611236,52,1555407141710115860,,-2.50312590599,-1.37381863594,-2.22920888034
1555407141710769403,53,1555407141710151253,,-2.50227332115,-1.37853872776,-2.28688093086
1555407141720652500,54,1555407141720339410,,-2.5017375946,-1.38189482689,-2.32618624862
1555407141731143063,55,1555407141730660111,,-2.50122952461,-1.3865070343,-2.37027462375
1555407141740501033,56,1555407141740031832,,-2.50004863739,-1.39062595367,-2.42649710868
1555407141750787033,57,1555407141750317300,,-2.50019407272,-1.39471971989,-2.46528604072
1555407141771973387,58,1555407141770029250,,-2.49948096275,-1.39912998676,-2.5136812084
1555407141771979540,59,1555407141770074816,,-2.49941086769,-1.40824651718,-2.59921835699
1555407141780818601,60,1555407141780329684,,-2.49926614761,-1.4122467041,-2.63837732883
1555407141791150020,61,1555407141790707932,,-2.499532938,-1.41555583477,-2.65948020907
1555407141800232189,62,1555407141799967148,,-2.49986124039,-1.42072057724,-2.70478426547
1555407141810466565,63,1555407141810157048,,-2.50019288063,-1.42463982105,-2.74207722074
1555407141810623185,64,1555407141810173183,,-2.50069975853,-1.42931115627,-2.78045908404
1555407141820584021,65,1555407141820353274,,-2.5012242794,-1.43299841881,-2.81636355566
1555407141830873024,66,1555407141830547337,,-2.50243449211,-1.43724679947,-2.8446529534
1555407141840250041,67,1555407141839788843,,-2.50318002701,-1.44109272957,-2.87775279647
1555407141850601814,68,1555407141850120983,,-2.50337290764,-1.44539403915,-2.91049976451
1555407141871208903,69,1555407141870717298,,-2.50486397743,-1.44925475121,-2.94566910832
1555407141871379253,70,1555407141870752724,,-2.50569534302,-1.45311319828,-2.97127088153
1555407141880555936,71,1555407141880050319,,-2.50649285316,-1.45688867569,-2.99431552727
1555407141880689905,72,1555407141880086365,,-2.50776767731,-1.46089613438,-3.02480779011
1555407141890556220,73,1555407141890279243,,-2.5089840889,-1.46445131302,-3.06601977538
1555407141901025592,74,1555407141900564669,,-2.50893616676,-1.46880400181,-3.08789839229
1555407141901202735,75,1555407141900598280,,-2.50951147079,-1.47260963917,-3.12598419728
1555407141910024098,76,1555407141909768119,,-2.51085329056,-1.47585678101,3.14114242902
1555407141920210956,77,1555407141919963512,,-2.51225924492,-1.4794242382,3.10178608734
1555407141930374372,78,1555407141930159851,,-2.51312685013,-1.48342454433,3.07340834107
1555407141940592809,79,1555407141940316102,,-2.5146214962,-1.48706746101,3.05314616766
1555407141951064284,80,1555407141950617953,,-2.51573324203,-1.49079453945,3.01781523874
1555407141980856241,81,1555407141980373923,,-2.5179066658,-1.49436903,2.98147989339
1555407141981026837,82,1555407141980425925,,-2.52184820175,-1.50542867184,2.86685648021
1555407141991194614,83,1555407141990772828,,-2.52355527878,-1.50903952122,2.81258801207
1555407142000275618,84,1555407142000013500,,-2.52479743958,-1.51203250885,2.76203921316
1555407142010498475,85,1555407142010224159,,-2.52686405182,-1.51539433002,2.71798570359
1555407142010674687,86,1555407142010254584,,-2.52925872803,-1.51857244968,2.67919788383
1555407142020912949,87,1555407142020661739,,-2.53148460388,-1.52227795124,2.63058187028
1555407142030534063,88,1555407142030041017,,-2.53354716301,-1.52561295033,2.58515488509
1555407142040822111,89,1555407142040383913,,-2.53582072258,-1.52877962589,2.5368486643
1555407142051207190,90,1555407142050728723,,-2.53751015663,-1.53206837177,2.48816511667
1555407142051372899,91,1555407142050786907,,-2.53976416588,-1.53530406952,2.43392363262
1555407142070478495,92,1555407142070000038,,-2.54239606857,-1.53807032108,2.37850357316
1555407142070627675,93,1555407142070039169,,-2.54344153404,-1.54070055485,2.35569986815
1555407142080589318,94,1555407142080289613,,-2.54687428474,-1.54391503334,2.28108226366
1555407142091114456,95,1555407142090668076,,-2.54861569405,-1.54724931717,2.22930579184
1555407142100509554,96,1555407142100061547,,-2.55067777634,-1.54978644848,2.17701406135
1555407142110920022,97,1555407142110439737,,-2.55321884155,-1.55254149437,2.12807927315
1555407142111080603,98,1555407142110479363,,-2.55525875092,-1.55515611172,2.08344861141
1555407142120919338,99,1555407142120664869,,-2.55726194382,-1.55883336067,2.01833619492
1555407142130507940,100,1555407142130017812,,-2.55945396423,-1.56113219261,1.97040569384
1555407142140879633,101,1555407142140422804,,-2.56126189232,-1.56368720531,1.93460952804
1555407142150154500,102,1555407142149688955,,-2.56394577026,-1.56622493267,1.87718753843
1555407142160476402,103,1555407142160054434,,-2.56624436378,-1.56946313381,1.81404272011
1555407142181143073,104,1555407142180687570,,-2.56811547279,-1.57168495655,1.77069660428
1555407142181350108,105,1555407142180730034,,-2.57018852234,-1.57445406914,1.71643691242
1555407142181444226,106,1555407142180759055,,-2.57288908958,-1.57745862007,1.66339534753
1555407142190147082,107,1555407142189934120,,-2.57484102249,-1.57975423336,1.61828962979
1555407142280950875,108,1555407142280475355,,-2.59239149094,-1.60143065453,1.14089786213
1555407142281115077,109,1555407142280515474,,-2.59434938431,-1.60312879086,1.08890304888
1555407142281258462,110,1555407142280547017,,-2.59610652924,-1.6045037508,1.04097463404
1555407142290379541,111,1555407142289911729,,-2.59762573242,-1.6072101593,1.00408824111
1555407142300780676,112,1555407142300314512,,-2.59882235527,-1.6081520319,0.965832929257
1555407142311182925,113,1555407142310711230,,-2.59957671165,-1.60968327522,0.914834361592
1555407142311394557,114,1555407142310747546,,-2.60069704056,-1.61040914059,0.8508133015
1555407142341177944,115,1555407142340709931,,-2.603328228,-1.61312460899,0.715750467006
1555407142360706300,116,1555407142360309859,,-2.60478281975,-1.61484670639,0.61901369678
1555407142371071500,117,1555407142370627679,,-2.60593676567,-1.61554658413,0.562211727565
1555407142380445941,118,1555407142379964930,,-2.60615682602,-1.61694228649,0.530265066949
1555407142380608638,119,1555407142380001670,,-2.60725355148,-1.61819589138,0.489869778776
1555407142390399812,120,1555407142390155281,,-2.60667729378,-1.61870408058,0.446530086217
1555407142400597092,121,1555407142400311539,,-2.60744047165,-1.6190161705,0.396609851042
1555407142411093196,122,1555407142410654990,,-2.60708260536,-1.61905992031,0.348377983657
1555407142411282614,123,1555407142410689221,,-2.6078107357,-1.62143933773,0.303390772376
1555407142420148028,124,1555407142419902047,,-2.60811948776,-1.62175524235,0.268690743385
1555407142430371534,125,1555407142430111564,,-2.60864853859,-1.62247538567,0.232400866506
1555407142440594938,126,1555407142440304625,,-2.60826897621,-1.62374770641,0.185310419566
1555407142451066907,127,1555407142450610159,,-2.60853886604,-1.62395751476,0.128109208944
1555407142451222071,128,1555407142450644971,,-2.60819911957,-1.62485742569,0.0806079363583
1555407142470572457,129,1555407142470129816,,-2.6079249382,-1.62509441376,0.0160622178911
1555407142480866508,130,1555407142480397542,,-2.6078441143,-1.62597370148,-0.0261426286742
1555407142481041988,131,1555407142480434475,,-2.60733819008,-1.62647640705,-0.0890704968914
1555407142490887369,132,1555407142490585795,,-2.60732078552,-1.62748873234,-0.139032732697
1555407142500382022,133,1555407142499923521,,-2.60669708252,-1.62820351124,-0.19282968739
1555407142510710989,134,1555407142510235598,,-2.60666441917,-1.62876546383,-0.260125131284
1555407142510883099,135,1555407142510269640,,-2.60568976402,-1.62992966175,-0.312614379317
1555407142520707006,136,1555407142520460532,,-2.60459804535,-1.63106238842,-0.364601453165
1555407142530938747,137,1555407142530668259,,-2.60370445251,-1.63150882721,-0.431685446901
1555407142540442894,138,1555407142539991400,,-2.60314536095,-1.63250172138,-0.485215541664
1555407142550881185,139,1555407142550365848,,-2.60184431076,-1.63298201561,-0.551924978961
1555407142561174884,140,1555407142560698153,,-2.60203480721,-1.63548636436,-0.591776928117
1555407142570216153,141,1555407142569941974,,-2.60133552551,-1.6366969347,-0.646533219598
1555407142591001733,142,1555407142590549448,,-2.60077095032,-1.63817715645,-0.698342051138
1555407142591169752,143,1555407142590593740,,-2.59871768951,-1.63911354542,-0.834474439311
1555407142600418917,144,1555407142599952241,,-2.59768748283,-1.6408842802,-0.906286319153
1555407142610778532,145,1555407142610290402,,-2.59692192078,-1.64256465435,-0.943500173152
1555407142610973490,146,1555407142610327307,,-2.59602832794,-1.64350163937,-0.989014134983
1555407142621125434,147,1555407142620679527,,-2.59469151497,-1.644744277,-1.06586184228
1555407142630458932,148,1555407142629994602,,-2.59363293648,-1.64580261707,-1.11767989616
1555407142640828645,149,1555407142640355343,,-2.59398269653,-1.64879870415,-1.15731562321
1555407142651136278,150,1555407142650693103,,-2.5933368206,-1.65024185181,-1.21770192409
1555407142660389983,151,1555407142659990682,,-2.59184908867,-1.6513671875,-1.27928024286
1555407142660589959,152,1555407142660026120,,-2.59040665627,-1.65315055847,-1.33021267899
1555407142690340239,153,1555407142689740368,,-2.59058094025,-1.65580534935,-1.34079457335
1555407142690458567,154,1555407142689782036,,-2.59166932106,-1.65784561634,-1.40990862637
1555407142690623436,155,1555407142689811763,,-2.59066224098,-1.65977275372,-1.44416287342
1555407142700250217,156,1555407142700017995,,-2.59039092064,-1.66200780869,-1.48513570415
1555407142710828291,157,1555407142710375517,,-2.59019827843,-1.66433191299,-1.52188677657
1555407142711048446,158,1555407142710415862,,-2.58970141411,-1.66684448719,-1.55622558709
1555407142720187282,159,1555407142719684072,,-2.58960556984,-1.66941142082,-1.5990753071
1555407142730578681,160,1555407142730082828,,-2.58846330643,-1.6724101305,-1.63328188394
1555407142740942046,161,1555407142740497964,,-2.5876698494,-1.67475128174,-1.65628849541
1555407142750176413,162,1555407142749746999,,-2.58726334572,-1.67804920673,-1.70012542984
1555407142760278670,163,1555407142759976730,,-2.58781647682,-1.68095958233,-1.72777374455
1555407142760435268,164,1555407142760008504,,-2.5862429142,-1.68445420265,-1.76870443253
1555407142771005098,165,1555407142770554975,,-2.58552765846,-1.68743813038,-1.81085556874
1555407142780433083,166,1555407142779955715,,-2.58596158028,-1.69109034538,-1.84808290564
1555407142790828518,167,1555407142790351489,,-2.58804774284,-1.69516479969,-1.87515580896
1555407142801178430,168,1555407142800732023,,-2.58633565903,-1.69828665257,-1.91208789624
1555407142801346908,169,1555407142800786859,,-2.58644080162,-1.70259463787,-1.94209383464
1555407142810500808,170,1555407142810079078,,-2.58666920662,-1.70719754696,-1.98727334081
1555407142820888492,171,1555407142820444866,,-2.58653092384,-1.71078491211,-2.02098314452
1555407142830220328,172,1555407142829723870,,-2.58752274513,-1.71550297737,-2.04371295954
1555407142840531785,173,1555407142840104787,,-2.58723950386,-1.71938145161,-2.08912574714
1555407142850929787,174,1555407142850483528,,-2.58759117126,-1.7241063118,-2.13185005719
1555407142851126990,175,1555407142850540311,,-2.58969306946,-1.72890627384,-2.15040208402
1555407142870529578,176,1555407142870054236,,-2.59064531326,-1.73309373856,-2.18142182044
1555407142870688396,177,1555407142870093810,,-2.591755867,-1.73833060265,-2.20715593654
1555407142880976782,178,1555407142880485105,,-2.59269785881,-1.74272966385,-2.25796773128
1555407142890169918,179,1555407142889737174,,-2.59386372566,-1.74751651287,-2.28879041645
1555407142900549900,180,1555407142900123537,,-2.59481072426,-1.7534236908,-2.32782431291
1555407142911085379,181,1555407142910504553,,-2.59662222862,-1.75828778744,-2.35963477175
1555407142911118930,182,1555407142910562049,,-2.59802985191,-1.76341784,-2.40253675564
1555407142920363303,183,1555407142919897127,,-2.59997439384,-1.7690705061,-2.43878169414
1555407142930808969,184,1555407142930317337,,-2.60106825829,-1.77400910854,-2.47927999252
1555407142941132650,185,1555407142940717650,,-2.60330986977,-1.77971291542,-2.51584329709
1555407142950475438,186,1555407142950021754,,-2.60561227798,-1.78594088554,-2.54928081863
1555407142960637559,187,1555407142960276866,,-2.6085100174,-1.79034554958,-2.58461154898
1555407142971124784,188,1555407142970641862,,-2.61095929146,-1.79663336277,-2.63286413098
1555407142971303816,189,1555407142970680058,,-2.61347484589,-1.80207049847,-2.68040222421
1555407142980218753,190,1555407142979941172,,-2.61557269096,-1.80683040619,-2.71094636826
1555407142990738771,191,1555407142990269024,,-2.61852407455,-1.81258285046,-2.7534208777
1555407143001059983,192,1555407143000619549,,-2.62126708031,-1.81847286224,-2.7900621762
1555407143001210156,193,1555407143000657495,,-2.62448048592,-1.82409393787,-2.82598146672
1555407143010465531,194,1555407143010040779,,-2.62855386734,-1.82956588268,-2.86705761435
1555407143020896835,195,1555407143020438849,,-2.6322259903,-1.83504867554,-2.91150064393
1555407143030175345,196,1555407143029709908,,-2.63546562195,-1.84063541889,-2.95999953554
1555407143040564484,197,1555407143040098788,,-2.63933324814,-1.84629702568,-3.00805386097
1555407143050919257,198,1555407143050475508,,-2.64283752441,-1.85170817375,-3.05913974165
1555407143051087759,199,1555407143050531548,,-2.64692187309,-1.85704255104,-3.1146198802
1555407143060220040,200,1555407143059774644,,-2.64996242523,-1.86226189137,3.10349790413
1555407143070808485,201,1555407143070380675,,-2.6555018425,-1.86931061745,3.05266389707
1555407143081137862,202,1555407143080678412,,-2.65902853012,-1.87310087681,3.00553258936
1555407143090393671,203,1555407143089979327,,-2.66420817375,-1.87840211391,2.96172759076
1555407143100862338,204,1555407143100403032,,-2.66664719582,-1.88325679302,2.91246839747
1555407143101013387,205,1555407143100443333,,-2.6723048687,-1.88972806931,2.83877058747
1555407143110898188,206,1555407143110645827,,-2.67785906792,-1.8937766552,2.75531048993
1555407143120400112,207,1555407143119973478,,-2.682035923,-1.89953124523,2.72669514999
1555407143130761531,208,1555407143130313045,,-2.6876103878,-1.90414810181,2.66083210772
1555407143141120686,209,1555407143140677868,,-2.69071960449,-1.90893816948,2.60144992086
1555407143150439871,210,1555407143150012140,,-2.69703412056,-1.91340100765,2.5272793504
1555407143160521748,211,1555407143160222075,,-2.70271253586,-1.91796338558,2.46310524174
1555407143160676920,212,1555407143160253445,,-2.70658063889,-1.92224657536,2.39314289924
1555407143170745921,213,1555407143170436546,,-2.71277928352,-1.92633855343,2.32905998935
1555407143181235540,214,1555407143180750701,,-2.7182495594,-1.92977118492,2.27181674587
1555407143190607112,215,1555407143190101302,,-2.72397398949,-1.93430018425,2.19603354484
1555407143200980288,216,1555407143200466232,,-2.7285490036,-1.93712341785,2.1303166045
1555407143201233668,217,1555407143200501533,,-2.73430156708,-1.94017219543,2.07382104136
1555407143210173284,218,1555407143209698241,,-2.73970842361,-1.9427844286,2.00994615358
1555407143220558570,219,1555407143220048914,,-2.74516224861,-1.94577741623,1.94494024778
1555407143230940973,220,1555407143230414016,,-2.7495367527,-1.94880580902,1.88444582096
1555407143241214312,221,1555407143240749969,,-2.75522470474,-1.95166063309,1.8179082832
1555407143250544086,222,1555407143250050520,,-2.76048088074,-1.95336592197,1.77200930158
1555407143260737221,223,1555407143260317398,,-2.76647543907,-1.95829355717,1.67116791756
1555407143271145221,224,1555407143270637469,,-2.77106666565,-1.95942866802,1.63391748324
1555407143271286139,225,1555407143270671824,,-2.77658820152,-1.96249520779,1.5633458302
1555407143280084551,226,1555407143279852484,,-2.78183746338,-1.96611917019,1.47351536245
1555407143290615096,227,1555407143290134426,,-2.78656220436,-1.96982777119,1.39300927067
1555407143301086430,228,1555407143300519321,,-2.79169273376,-1.97145879269,1.33336213703
1555407143301098458,229,1555407143300555186,,-2.79675531387,-1.97447836399,1.26802040152
1555407143309976211,230,1555407143309702354,,-2.80211830139,-1.97749519348,1.19950702987
1555407143320285904,231,1555407143319960580,,-2.80700111389,-1.97962331772,1.1299560629
1555407143330729286,232,1555407143330261642,,-2.81162118912,-1.9804700613,1.07606291563
1555407143340822349,233,1555407143340473087,,-2.81573796272,-1.98353266716,0.999619917116
1555407143360253013,234,1555407143359835864,,-2.82058954239,-1.98537147045,0.907813152646
1555407143360421480,235,1555407143359875749,,-2.82941699028,-1.9891821146,0.748848401326
1555407143370678430,236,1555407143370225475,,-2.83473181725,-1.99155640602,0.673599993401
1555407143381041960,237,1555407143380558514,,-2.83676338196,-1.99282062054,0.595484494113
1555407143390049794,238,1555407143389786026,,-2.84160208702,-1.99480974674,0.525048829751
1555407143400613748,239,1555407143400103588,,-2.84613180161,-1.99695622921,0.441398796926
1555407143410898580,240,1555407143410407857,,-2.84893393517,-1.99827849865,0.371821739768
1555407143411040930,241,1555407143410443080,,-2.85266542435,-1.99921488762,0.270977810418
1555407143420875739,242,1555407143420634602,,-2.85617375374,-2.00036621094,0.176056349522
1555407143430055295,243,1555407143429831440,,-2.86016225815,-2.00397348404,0.138558281939
1555407143440623624,244,1555407143440148558,,-2.86348223686,-2.0058465004,0.0610993991227
1555407143451022802,245,1555407143450560020,,-2.86663603783,-2.00734448433,-0.0215768078006
1555407143451179473,246,1555407143450590817,,-2.86969900131,-2.00902891159,-0.0961057248394
1555407143470367753,247,1555407143469985440,,-2.87245416641,-2.01160788536,-0.168786433184
1555407143470556538,248,1555407143470016630,,-2.87574934959,-2.01361441612,-0.240734669598
1555407143480795286,249,1555407143480309400,,-2.87876462936,-2.01528644562,-0.313342352183
1555407143491109010,250,1555407143490638951,,-2.88152742386,-2.01824855804,-0.38471232024
1555407143500217916,251,1555407143499888363,,-2.88358616829,-2.02049088478,-0.446040794714
1555407143510670450,252,1555407143510206424,,-2.88609552383,-2.02295207977,-0.514598835637
1555407143510850065,253,1555407143510244314,,-2.88821864128,-2.02490115166,-0.576682370061
1555407143521038414,254,1555407143520563124,,-2.89171266556,-2.02843904495,-0.645813741362
1555407143530460310,255,1555407143529953984,,-2.89407944679,-2.03076052666,-0.693019983113
1555407143540796180,256,1555407143540327155,,-2.89647865295,-2.03384041786,-0.751725760417
1555407143551154657,257,1555407143550689102,,-2.89973855019,-2.03708720207,-0.815748168297
1555407143551326186,258,1555407143550725345,,-2.90178632736,-2.04025840759,-0.873957355791
1555407143560561602,259,1555407143560038030,,-2.90359282494,-2.04357481003,-0.908226380727
1555407143570856857,260,1555407143570424161,,-2.90633583069,-2.04681038857,-0.963335107273
1555407143580195887,261,1555407143579696689,,-2.90788531303,-2.05013036728,-1.00948280763
1555407143590523380,262,1555407143590079232,,-2.91036272049,-2.05348610878,-1.0498018791
1555407143600975065,263,1555407143600507615,,-2.91364741325,-2.05725121498,-1.08624885548
1555407143601124486,264,1555407143600541034,,-2.91637587547,-2.06058454514,-1.14274650858
1555407143609892795,265,1555407143609659227,,-2.91828513145,-2.06454920769,-1.19115693058
1555407143620181233,266,1555407143619884514,,-2.92116570473,-2.06813716888,-1.22813546225
1555407143630692878,267,1555407143630222907,,-2.92343616486,-2.0715842247,-1.27233725703
1555407143641051918,268,1555407143640601410,,-2.92467498779,-2.07534146309,-1.32449157835
1555407143690216489,269,1555407143689780633,,-2.94066214561,-2.09837198257,-1.55049528438
1555407143710937868,270,1555407143710450863,,-2.94358301163,-2.10226011276,-1.58486550543
1555407143711116349,271,1555407143710495145,,-2.94855070114,-2.11040902138,-1.66682120459
1555407143720880959,272,1555407143720668731,,-2.9511680603,-2.11415481567,-1.69941405966
1555407143730074037,273,1555407143729844091,,-2.95314073563,-2.1176404953,-1.75546372848
1555407143850643082,274,1555407143850220031,,-2.99345111847,-2.17969155312,-2.39724113213
1555407143861018112,275,1555407143860566984,,-2.99613690376,-2.18394374847,-2.44496361615
1555407143861191783,276,1555407143860608045,,-2.99924898148,-2.18802046776,-2.48838040388
1555407143870024889,277,1555407143869803486,,-3.00209856033,-2.19294786453,-2.54632944018
1555407143880565923,278,1555407143880087299,,-3.00719857216,-2.19817137718,-2.56902951635
1555407143890865652,279,1555407143890415168,,-3.01131749153,-2.20117664337,-2.5996362
1555407143900906264,280,1555407143900643309,,-3.01405596733,-2.20759773254,-2.64341924427
1555407143920551346,281,1555407143920007911,,-3.01901674271,-2.21240019798,-2.68213370235
1555407143920561010,282,1555407143920043851,,-3.02153635025,-2.21626329422,-2.7292047928
1555407143920574515,283,1555407143920056624,,-3.02484869957,-2.22137451172,-2.77226618384
1555407143930480738,284,1555407143930244806,,-3.02935004234,-2.22597336769,-2.8040388552
1555407143940672039,285,1555407143940444703,,-3.03305840492,-2.23105812073,-2.81816297038
1555407143950987832,286,1555407143950618692,,-3.03793859482,-2.23564434052,-2.86735883533
1555407143950996758,287,1555407143950651469,,-3.04149460793,-2.24035978317,-2.894935121
1555407143960133822,288,1555407143959853362,,-3.04514575005,-2.24461388588,-2.93805014072
1555407143970317393,289,1555407143970049873,,-3.04930281639,-2.24834918976,-2.95639400858
1555407143980514793,290,1555407143980242039,,-3.05426502228,-2.25291728973,-3.00858555746
1555407143990785930,291,1555407143990486445,,-3.05730772018,-2.25755572319,-3.03710336745
1555407144000975739,292,1555407144000683996,,-3.06338119507,-2.26128387451,-3.06528574986
1555407144020321466,293,1555407144020029228,,-3.06639456749,-2.26620578766,-3.1089731643
1555407144020478667,294,1555407144020054487,,-3.07563710213,-2.27504396439,3.10306380942
1555407144030465514,295,1555407144030203251,,-3.07945585251,-2.27933764458,3.07939910571
1555407144040946660,296,1555407144040514196,,-3.08353805542,-2.28362250328,3.04504978736
1555407144050199479,297,1555407144049751421,,-3.08757615089,-2.2876355648,3.01060406591
1555407144060219231,298,1555407144059936403,,-3.09281182289,-2.29263591766,2.98773025316
1555407144060384803,299,1555407144059953666,,-3.09622859955,-2.29611587524,2.95176981363
1555407144070459369,300,1555407144070232894,,-3.09983229637,-2.30017328262,2.9211982927
1555407144080880701,301,1555407144080446630,,-3.1044588089,-2.30375361443,2.89836467583
1555407144090116599,302,1555407144089685156,,-3.10944581032,-2.3082113266,2.84684864057
1555407144100518940,303,1555407144100064568,,-3.11212229729,-2.31205964088,2.80239730118
1555407144121370295,304,1555407144120754833,,-3.11757206917,-2.31590366364,2.80025433774
1555407144121379603,305,1555407144120799044,,-3.12641310692,-2.32358598709,2.74806231177
1555407144130235716,306,1555407144129994153,,-3.13105416298,-2.32762742043,2.70484501524
1555407144140810592,307,1555407144140347952,,-3.13537096977,-2.33136224747,2.66635908023
1555407144151146741,308,1555407144150705571,,-3.14051818848,-2.33500695229,2.64283032532
1555407144151271278,309,1555407144150739313,,-3.14395594597,-2.33748912811,2.63653057985
1555407144160141454,310,1555407144159894677,,-3.14912104607,-2.34113287926,2.60375247296
1555407144170717797,311,1555407144170211629,,-3.15409708023,-2.34415626526,2.58660247268
1555407144180967481,312,1555407144180521711,,-3.15893411636,-2.34775543213,2.55809906016
1555407144190233954,313,1555407144189794593,,-3.1637570858,-2.35077047348,2.53299241848
1555407144200622276,314,1555407144200160133,,-3.16753363609,-2.35316419601,2.5299994132
1555407144211010137,315,1555407144210525017,,-3.17271399498,-2.35641670227,2.50269717425
1555407144230772310,316,1555407144230138268,,-3.17747068405,-2.3587949276,2.48707902409
1555407144230778483,317,1555407144230179414,,-3.18291497231,-2.36165332794,2.47787115218
1555407144230931025,318,1555407144230213480,,-3.18809604645,-2.36488723755,2.44303565426
1555407144240758341,319,1555407144240478378,,-3.19202589989,-2.36721920967,2.44469791669
1555407144250153305,320,1555407144249677727,,-3.1959733963,-2.3695166111,2.43550647125
1555407144260340795,321,1555407144259944729,,-3.20103597641,-2.37167596817,2.4273412937
1555407144260350406,322,1555407144259962447,,-3.20717859268,-2.37472677231,2.3920363169
1555407144270499882,323,1555407144270179974,,-3.21075129509,-2.37619376183,2.39990070002
1555407144280983901,324,1555407144280469951,,-3.21542239189,-2.37888836861,2.38014748399
1555407144290193298,325,1555407144289712989,,-3.2209444046,-2.3815741539,2.3675834148
1555407144300592288,326,1555407144300091685,,-3.22489786148,-2.38373684883,2.35035663438
1555407144310906413,327,1555407144310418594,,-3.22927260399,-2.38595938683,2.34695678016
1555407144330574183,328,1555407144330078242,,-3.23419594765,-2.38811063766,2.33719230286
1555407144330716482,329,1555407144330116963,,-3.23985433578,-2.39002394676,2.32924138307
1555407144351168379,330,1555407144350719316,,-3.25372624397,-2.39627075195,2.2657276739
1555407144351360818,331,1555407144350753568,,-3.25883197784,-2.39764213562,2.25740732878
1555407144360164940,332,1555407144359905850,,-3.26462721825,-2.40127325058,2.20205730176
1555407144370384138,333,1555407144370069894,,-3.26842737198,-2.40137410164,2.20608854749
1555407144410842394,334,1555407144410332556,,-3.288667202,-2.40721201897,2.09341983832
1555407144430602453,335,1555407144429964605,,-3.29378652573,-2.40885448456,2.05406061456
1555407144430614165,336,1555407144430011097,,-3.29924821854,-2.40924191475,2.02832154081
1555407144431018505,337,1555407144430038601,,-3.30391645432,-2.41041827202,1.96884464521
1555407144440828092,338,1555407144440398666,,-3.31032562256,-2.41181731224,1.93409400948
1555407144450906657,339,1555407144450634993,,-3.31466817856,-2.41117691994,1.92351323302
1555407144451055958,340,1555407144450666402,,-3.31954026222,-2.4120388031,1.87307939647
1555407144470304124,341,1555407144470042338,,-3.32507157326,-2.41332697868,1.80793986258
1555407144470461723,342,1555407144470081716,,-3.32995128632,-2.41298103333,1.78122099106
1555407144480795586,343,1555407144480358662,,-3.33492040634,-2.4133708477,1.73376070433
1555407144490824245,344,1555407144490576606,,-3.34132528305,-2.41371583939,1.67230345347
1555407144500003631,345,1555407144499772031,,-3.34560418129,-2.41343688965,1.63368063298
1555407144510530607,346,1555407144510059526,,-3.35180354118,-2.41477537155,1.52853648039
1555407144510702350,347,1555407144510096589,,-3.35630488396,-2.41430401802,1.49860970653
1555407144531220477,348,1555407144530712153,,-3.36131811142,-2.41301012039,1.44442438883
1555407144531364853,349,1555407144530751265,,-3.36597537994,-2.41411924362,1.36862481114
1555407144540184485,350,1555407144539945422,,-3.37158250809,-2.41337037086,1.29966975069
1555407144550683275,351,1555407144550234454,,-3.37626719475,-2.41320180893,1.23127851595
1555407144560866529,352,1555407144560481152,,-3.37984633446,-2.41239404678,1.17499826048
1555407144561041057,353,1555407144560515228,,-3.38607597351,-2.41174006462,1.0754360388
1555407144569988034,354,1555407144569665954,,-3.38992905617,-2.41049623489,1.02497177378
1555407144580402534,355,1555407144579947175,,-3.39484119415,-2.40932750702,0.944674011363
1555407144590731942,356,1555407144590288108,,-3.3992626667,-2.40857076645,0.85188937649
1555407144601163316,357,1555407144600679795,,-3.40347361565,-2.40737700462,0.782709145266
1555407144601341742,358,1555407144600714143,,-3.40802621841,-2.40643644333,0.706207331712
1555407144610168048,359,1555407144609910051,,-3.41112041473,-2.40504741669,0.631769771844
1555407144631076182,360,1555407144630580711,,-3.41484642029,-2.40382027626,0.561794437396
1555407144631250703,361,1555407144630618764,,-3.41863846779,-2.4024617672,0.490549210414
1555407144640411371,362,1555407144639967978,,-3.42293691635,-2.40195298195,0.407621668752
1555407144650802083,363,1555407144650280700,,-3.42645287514,-2.40014886856,0.3319847986
1555407144650959299,364,1555407144650316018,,-3.42859196663,-2.39879083633,0.24720818664
1555407144660694222,365,1555407144660474363,,-3.43255352974,-2.39845013618,0.197001168342
1555407144670893800,366,1555407144670650013,,-3.43481230736,-2.39758944511,0.115053859558
1555407144680407563,367,1555407144679900232,,-3.43776035309,-2.39622426033,0.040752409741
1555407144690704548,368,1555407144690210128,,-3.44077086449,-2.3954064846,-0.0167519367464
1555407144701034167,369,1555407144700567131,,-3.44329309464,-2.39454817772,-0.0922045384444
1555407144701260454,370,1555407144700602570,,-3.44596004486,-2.39357709885,-0.153313967734
1555407144710002521,371,1555407144709774117,,-3.44884967804,-2.39303445816,-0.213402549472
1555407144741312786,372,1555407144740791328,,-3.45153641701,-2.39255857468,-0.268154466066
1555407144741480898,373,1555407144740835817,,-3.45611953735,-2.39146399498,-0.395418912664
1555407144750247454,374,1555407144750006865,,-3.4579641819,-2.39103841782,-0.458085225705
1555407144760591386,375,1555407144760213490,,-3.4604818821,-2.3905620575,-0.512375372077
1555407144760750658,376,1555407144760244653,,-3.46286058426,-2.39060783386,-0.579801195446
1555407144770643060,377,1555407144770416543,,-3.46500062943,-2.39038062096,-0.64275381354
1555407144780873567,378,1555407144780625646,,-3.46671390533,-2.38977217674,-0.706653860353
1555407144790074082,379,1555407144789822514,,-3.46907639503,-2.38959097862,-0.765848651219
1555407144800318534,380,1555407144800019923,,-3.47197270393,-2.38985657692,-0.816816981213
1555407144810751797,381,1555407144810309401,,-3.47447872162,-2.38932132721,-0.86567471013
1555407144810934740,382,1555407144810342611,,-3.47646975517,-2.38976049423,-0.934713764004
1555407144840493892,383,1555407144840050567,,-3.47813129425,-2.38965964317,-0.986265124543
1555407144861114728,384,1555407144860639950,,-3.4880490303,-2.3915309906,-1.24326788067
1555407144870361459,385,1555407144869898922,,-3.49141097069,-2.39250516891,-1.27388006283
1555407144880640610,386,1555407144880171188,,-3.49360847473,-2.39343857765,-1.31945235627
1555407144890956172,387,1555407144890485518,,-3.49505400658,-2.39408183098,-1.36457317302
1555407144900231247,388,1555407144899738579,,-3.49690294266,-2.39479351044,-1.40066199454
1555407144910571299,389,1555407144909961462,,-3.49877214432,-2.39679121971,-1.4635879406
1555407144910726392,390,1555407144909988239,,-3.50164580345,-2.39700889587,-1.46945857423
1555407144920557886,391,1555407144920274631,,-3.50393772125,-2.39793419838,-1.50097994854
1555407144940279473,392,1555407144939781889,,-3.50629353523,-2.39952492714,-1.53176659922
1555407144940441921,393,1555407144939820038,,-3.50952386856,-2.40118694305,-1.55883880426
1555407144950278661,394,1555407144950007031,,-3.51166820526,-2.4023566246,-1.58636064015
1555407144960705425,395,1555407144960293233,,-3.51337337494,-2.40376734734,-1.61290656449
1555407144960928278,396,1555407144960324805,,-3.51542854309,-2.40551519394,-1.63531404546
1555407144970783285,397,1555407144970526372,,-3.51708006859,-2.40747523308,-1.67845345935
1555407144979938214,398,1555407144979662825,,-3.51933240891,-2.40918326378,-1.70113244303
1555407144990475215,399,1555407144990013293,,-3.52172994614,-2.41097140312,-1.71792871294
1555407145000952431,400,1555407145000355467,,-3.52357029915,-2.41285228729,-1.73688832284
1555407145000993727,401,1555407145000395506,,-3.52702116966,-2.41470861435,-1.74889215058
1555407145010846298,402,1555407145010607298,,-3.53080964088,-2.41637134552,-1.74348509454
1555407145020053273,403,1555407145019785078,,-3.5325858593,-2.41805291176,-1.76738303367
1555407145040689506,404,1555407145040219372,,-3.53547906876,-2.42046093941,-1.78313838994
1555407145040849176,405,1555407145040259828,,-3.5391933918,-2.42309355736,-1.78321730819
1555407145051195884,406,1555407145050632618,,-3.54178500175,-2.42524313927,-1.80296000738
1555407145051331292,407,1555407145050665926,,-3.54393625259,-2.42784357071,-1.81862196152
1555407145060119805,408,1555407145059866132,,-3.5465400219,-2.43017625809,-1.82916897778
1555407145070836800,409,1555407145070344095,,-3.54926514626,-2.43324804306,-1.84074114817
1555407145081006023,410,1555407145080583715,,-3.55109190941,-2.43641519547,-1.8669590122
1555407145090405362,411,1555407145089916373,,-3.55423426628,-2.43931174278,-1.87272534955
1555407145100741466,412,1555407145100255593,,-3.55705094337,-2.44228696823,-1.87870752983
1555407145100909510,413,1555407145100290502,,-3.56026005745,-2.44549107552,-1.89440297259
1555407145110666256,414,1555407145110442677,,-3.56322240829,-2.44892644882,-1.90391955547
1555407145120931890,415,1555407145120664654,,-3.56667804718,-2.4526848793,-1.9169667434
1555407145150976261,416,1555407145150495077,,-3.56920719147,-2.45618391037,-1.93516781149
1555407145151123726,417,1555407145150546628,,-3.57791209221,-2.46757698059,-1.9740187271
1555407145159960562,418,1555407145159697675,,-3.58096170425,-2.47139787674,-1.97916687799
1555407145170493928,419,1555407145170011702,,-3.58405017853,-2.47603416443,-2.00016710512
1555407145180821632,420,1555407145180337126,,-3.58789610863,-2.48030781746,-2.00940105365
1555407145191154794,421,1555407145190704259,,-3.59043359756,-2.4847240448,-2.03138132989
1555407145200556034,422,1555407145200054009,,-3.59397029877,-2.48896503448,-2.03933637812
1555407145210951800,423,1555407145210489323,,-3.59738445282,-2.4934194088,-2.05423853414
1555407145270640278,424,1555407145270223157,,-3.6262819767,-2.53218245506,-2.17310628018
1555407145281008893,425,1555407145280559207,,-3.63100504875,-2.53672170639,-2.16821559584
1555407145290276269,426,1555407145289801213,,-3.63335895538,-2.54162025452,-2.19159242987
1555407145300633672,427,1555407145300166991,,-3.63761544228,-2.54637813568,-2.20353811861
1555407145310903633,428,1555407145310418028,,-3.64150428772,-2.55214190483,-2.2052856467
1555407145311130970,429,1555407145310448032,,-3.64573502541,-2.55609726906,-2.22392525375
1555407145320926193,430,1555407145320648843,,-3.64883852005,-2.56107068062,-2.23947310012
1555407145330483838,431,1555407145329957080,,-3.65254235268,-2.56544160843,-2.24632371143
1555407145351017946,432,1555407145350539357,,-3.65669822693,-2.57017183304,-2.26395062659
1555407145351165592,433,1555407145350582621,,-3.66414165497,-2.58030748367,-2.29129780305
1555407145360060016,434,1555407145359738664,,-3.66738653183,-2.58498311043,-2.30183236723
1555407145370557126,435,1555407145370093227,,-3.67184615135,-2.59024190903,-2.31327933713
1555407145380889305,436,1555407145380420886,,-3.67514753342,-2.59463882446,-2.33222037273
1555407145390164003,437,1555407145389675710,,-3.67906332016,-2.59985208511,-2.3442538462
1555407145400572269,438,1555407145400060749,,-3.68272995949,-2.60484576225,-2.35126559123
1555407145410868981,439,1555407145410395987,,-3.68707036972,-2.60947704315,-2.36844242346
1555407145411025103,440,1555407145410437540,,-3.69090723991,-2.61420512199,-2.37811326383
1555407145480728445,441,1555407145480238021,,-3.72353601456,-2.65559029579,-2.54131643043
1555407145491061289,442,1555407145490616836,,-3.72805309296,-2.66014719009,-2.55714488057
1555407145500498870,443,1555407145499997124,,-3.73254370689,-2.66644597054,-2.5943475487
1555407145530553033,444,1555407145530040261,,-3.75040221214,-2.68764472008,-2.70355724426
1555407145560433029,445,1555407145559943037,,-3.75567126274,-2.69242763519,-2.72676942231
1555407145560587147,446,1555407145559988498,,-3.76557946205,-2.7041451931,-2.78019119451
1555407145610883417,447,1555407145610386109,,-3.80243492126,-2.74042248726,-2.92225010657
1555407145621155694,448,1555407145620691895,,-3.80854701996,-2.74510383606,-2.93051613995
1555407145630201447,449,1555407145629904325,,-3.81431531906,-2.7504401207,-2.95661415626
1555407145680665778,450,1555407145680178942,,-3.85239338875,-2.78093385696,-3.0673389559
1555407145691007387,451,1555407145690514230,,-3.85986185074,-2.78625512123,-3.09633208111
1555407145700266589,452,1555407145699776056,,-3.86670207977,-2.79088950157,-3.11505628921
1555407145710265131,453,1555407145709960590,,-3.87389612198,-2.79542565346,-3.13486506978
1555407145710396095,454,1555407145709976954,,-3.88076877594,-2.80043649673,3.13614493255
1555407145720378896,455,1555407145720129112,,-3.88766431808,-2.80494737625,3.11234051841
1555407145730528537,456,1555407145730286042,,-3.89506030083,-2.81040716171,3.09315511695
1555407145740693043,457,1555407145740441894,,-3.90267276764,-2.8149459362,3.06312857987
1555407145760343055,458,1555407145759908356,,-3.91018748283,-2.81979203224,3.03328187362
1555407145760573390,459,1555407145759948268,,-3.91790676117,-2.82456469536,3.01216731349
1555407145760593659,460,1555407145759974943,,-3.92549681664,-2.82864785194,2.97363912789
1555407145770493221,461,1555407145770207365,,-3.93355035782,-2.83325242996,2.94487266322
1555407145780967242,462,1555407145780507590,,-3.94153761864,-2.83807229996,2.90324079653
1555407145790254981,463,1555407145789766878,,-3.94915366173,-2.8426015377,2.87807845126
1555407145800619928,464,1555407145800157812,,-3.95726013184,-2.84691119194,2.84306582371
1555407145800798790,465,1555407145800193454,,-3.96527576447,-2.85128259659,2.80798783087
1555407145810636279,466,1555407145810379611,,-3.97352004051,-2.8556189537,2.76331079599
1555407145820901178,467,1555407145820617005,,-3.98141002655,-2.85950803757,2.73325035476
1555407145830417234,468,1555407145829959438,,-3.9898724556,-2.86419820786,2.68727814628
1555407145890504741,469,1555407145890020029,,-4.04678201675,-2.89262151718,2.39944624404
1555407145971142531,470,1555407145970686572,,-4.12551355362,-2.92616558075,2.05439488507
1555407146700765069,471,1555407146700329718,,-4.49743175507,-2.82570075989,0.65523713182
1555407147160357108,472,1555407147159956996,,-4.3303694725,-2.63121414185,0.525499399635
1555407147170770429,473,1555407147170296486,,-4.32539701462,-2.62781882286,0.533074698621
1555407147600923083,474,1555407147600461513,,-3.96897244453,-2.37696433067,0.204889329517
1555407147610197123,475,1555407147609716145,,-3.96098518372,-2.37139225006,0.16278219149
1555407147620550419,476,1555407147620064908,,-3.95306062698,-2.36607885361,0.136172109318
1555407147630874702,477,1555407147630407472,,-3.94430732727,-2.36010694504,0.10694174687
1555407147640156798,478,1555407147639681694,,-3.93515443802,-2.35434007645,0.0687390429412
1555407147650639190,479,1555407147650072693,,-3.92677593231,-2.34830117226,0.0267304929199
1555407147650650840,480,1555407147650111810,,-3.91813707352,-2.34259700775,-0.00621700465001
1555407147660778331,481,1555407147660381348,,-3.90928268433,-2.33668017387,-0.0444425395728
1555407147671166749,482,1555407147670718224,,-3.89958381653,-2.33094024658,-0.0895563994479
1555407147680510265,483,1555407147680027726,,-3.89185500145,-2.32546281815,-0.119523106852
1555407147690804388,484,1555407147690380197,,-3.88287854195,-2.3198928833,-0.159605484076
1555407147701300713,485,1555407147700733721,,-3.87396740913,-2.31448554993,-0.203276263888
1555407147701308298,486,1555407147700771525,,-3.86546754837,-2.30859255791,-0.235727471218
1555407147710231725,487,1555407147709985267,,-3.85637378693,-2.30315232277,-0.27710225179
1555407147720799848,488,1555407147720350895,,-3.84694647789,-2.29803204536,-0.329958730959
1555407147730786448,489,1555407147730569333,,-3.83841347694,-2.29284095764,-0.358225236973
1555407147739900756,490,1555407147739691257,,-3.82916164398,-2.2867577076,-0.39294561922
1555407147750504245,491,1555407147750021669,,-3.8202984333,-2.28176927567,-0.437720373564
1555407147760747136,492,1555407147760280071,,-3.81017208099,-2.27724695206,-0.492900873694
1555407147760824829,493,1555407147760313668,,-3.80107975006,-2.27193498611,-0.516798350367
1555407147770776168,494,1555407147770481248,,-3.79081487656,-2.26735782623,-0.571475034328
1555407147780273529,495,1555407147779690517,,-3.78218507767,-2.26290178299,-0.603934425553
1555407147790546128,496,1555407147790068500,,-3.771941185,-2.25822949409,-0.655249634315
1555407147810322783,497,1555407147809682286,,-3.76251745224,-2.25435447693,-0.711825761715
1555407147810513757,498,1555407147809724820,,-3.75311946869,-2.24971675873,-0.745576675489
1555407147810647220,499,1555407147809757423,,-3.74338722229,-2.24603676796,-0.799161420963
1555407147820239173,500,1555407147819958699,,-3.73391771317,-2.24213194847,-0.829355404672
1555407147830780103,501,1555407147830307083,,-3.724132061,-2.23805952072,-0.887626135939
1555407147841169930,502,1555407147840707450,,-3.7149002552,-2.23426485062,-0.917370687949
1555407147850628453,503,1555407147850160876,,-3.7042016983,-2.22995400429,-0.971412275755
1555407147850794505,504,1555407147850200089,,-3.69565725327,-2.22679281235,-1.01184057802
1555407147860707534,505,1555407147860474319,,-3.68557286263,-2.22285151482,-1.06105826532
1555407147870169130,506,1555407147869691164,,-3.67579603195,-2.2189822197,-1.11392033395
1555407147880458952,507,1555407147879973692,,-3.6662709713,-2.21560883522,-1.14691649239
1555407147890851995,508,1555407147890402295,,-3.65743589401,-2.21254873276,-1.18297609982
1555407147910663105,509,1555407147910146468,,-3.6480948925,-2.20885539055,-1.23991019317
1555407147910816749,510,1555407147910184656,,-3.63892507553,-2.20594024658,-1.2804524122
1555407147910953106,511,1555407147910215234,,-3.62848687172,-2.20225381851,-1.33307583428
1555407147920677257,512,1555407147920430705,,-3.61897373199,-2.19892978668,-1.37438332291
1555407147930898063,513,1555407147930606555,,-3.61034250259,-2.1969640255,-1.43551242185
1555407147940443958,514,1555407147939964875,,-3.60207343102,-2.19338274002,-1.44893831331
1555407147950834707,515,1555407147950330291,,-3.59291410446,-2.19023752213,-1.47638456
1555407147950979028,516,1555407147950366500,,-3.58377051353,-2.18761205673,-1.53313676239
1555407147961077940,517,1555407147960631340,,-3.57488822937,-2.18470454216,-1.5570454775
1555407147970462743,518,1555407147969954995,,-3.56578373909,-2.18208527565,-1.59076136552
1555407147980747529,519,1555407147980254443,,-3.55736327171,-2.17983269691,-1.62055221438
1555407147991097711,520,1555407147990629236,,-3.54938578606,-2.17733216286,-1.65380383632
1555407148010819397,521,1555407148010352864,,-3.54126119614,-2.17515707016,-1.68425382864
1555407148010971950,522,1555407148010397312,,-3.52409315109,-2.17026352882,-1.74263391169
1555407148020883067,523,1555407148020581001,,-3.51539540291,-2.1684627533,-1.77175581386
1555407148030434554,524,1555407148029930847,,-3.50714445114,-2.16639351845,-1.81613357908
1555407148040717911,525,1555407148040248206,,-3.49823021889,-2.16392850876,-1.82805683193
1555407148051085696,526,1555407148050602799,,-3.49168539047,-2.16186594963,-1.85561992173
1555407148051247288,527,1555407148050639518,,-3.48252296448,-2.15970826149,-1.88692141108
1555407148060129378,528,1555407148059841372,,-3.47603964806,-2.1582274437,-1.91228575927
1555407148070491355,529,1555407148070207744,,-3.46834301949,-2.15597248077,-1.93998801985
1555407148080897203,530,1555407148080413748,,-3.4593732357,-2.15373945236,-1.98645153159
1555407148091223764,531,1555407148090761530,,-3.45093178749,-2.15146589279,-2.00133483094
1555407148100534410,532,1555407148100038506,,-3.44402837753,-2.14919233322,-2.0129670669
1555407148121140253,533,1555407148120663792,,-3.4358484745,-2.14701581001,-2.03773641659
1555407148121296319,534,1555407148120706981,,-3.41954994202,-2.1433339119,-2.10922526642
1555407148130492957,535,1555407148129980745,,-3.41215491295,-2.1411190033,-2.127837988
1555407148140821780,536,1555407148140314418,,-3.40435194969,-2.13898062706,-2.15667082565
1555407148151108678,537,1555407148150649814,,-3.39675211906,-2.13682389259,-2.18116419559
1555407148151254814,538,1555407148150684427,,-3.38946843147,-2.13484406471,-2.21453771516
1555407148170707813,539,1555407148170202337,,-3.38175749779,-2.13242506981,-2.21494925575
1555407148170890633,540,1555407148170237461,,-3.37357783318,-2.12995481491,-2.26430974448
1555407148180661214,541,1555407148180402666,,-3.36602187157,-2.12694406509,-2.3054412456
1555407148191223431,542,1555407148190771903,,-3.35857486725,-2.1252849102,-2.32487390317
1555407148200617798,543,1555407148200159572,,-3.35126328468,-2.12375402451,-2.35172656451
1555407148220243899,544,1555407148219724590,,-3.34444355965,-2.1217610836,-2.38101118693
1555407148220411397,545,1555407148219769687,,-3.32939124107,-2.11711454391,-2.43754583688
1555407148230277360,546,1555407148230000432,,-3.3213968277,-2.11526656151,-2.46083553906
1555407148240805311,547,1555407148240338601,,-3.31455469131,-2.11245369911,-2.4924118812
1555407148251109241,548,1555407148250663453,,-3.3071372509,-2.11081290245,-2.51609258979
1555407148251348708,549,1555407148250703053,,-3.2982711792,-2.10778546333,-2.55035261768
1555407148260581101,550,1555407148260131137,,-3.2918241024,-2.10556864738,-2.591173792
1555407148270646541,551,1555407148270365570,,-3.28533697128,-2.10308933258,-2.61953272213
1555407148281168513,552,1555407148280696041,,-3.27671527863,-2.10019493103,-2.65194373257
1555407148290506920,553,1555407148290037804,,-3.2701716423,-2.09877157211,-2.68781461421
1555407148300874273,554,1555407148300414169,,-3.26326942444,-2.09628844261,-2.71268427991
1555407148320443606,555,1555407148319951313,,-3.25603914261,-2.09319543839,-2.7398673769
1555407148320599551,556,1555407148319998582,,-3.24117994308,-2.08900713921,-2.79877359067
1555407148330772284,557,1555407148330302820,,-3.23420071602,-2.08637595177,-2.82605768343
1555407148341106253,558,1555407148340681487,,-3.22601532936,-2.08384776115,-2.86104292646
1555407148350501512,559,1555407148350025053,,-3.2201924324,-2.08134126663,-2.89416711608
1555407148360716783,560,1555407148360275125,,-3.21241116524,-2.07858037949,-2.91411667234
1555407148360867254,561,1555407148360305334,,-3.20423340797,-2.07630491257,-2.94532571058
1555407148370695777,562,1555407148370470646,,-3.19790196419,-2.07398509979,-2.98070473595
1555407148380187876,563,1555407148379694637,,-3.19167089462,-2.07114553452,-3.01163084088
1555407148390559834,564,1555407148390065876,,-3.18422484398,-2.06920337677,-3.04613458609
1555407148400848251,565,1555407148400376119,,-3.17773199081,-2.06662344933,-3.07678885739
1555407148401007855,566,1555407148400418107,,-3.17122244835,-2.06366753578,-3.11155355383
1555407148420441168,567,1555407148419973280,,-3.16419363022,-2.06076264381,-3.13814386075
1555407148420649545,568,1555407148420011073,,-3.1559381485,-2.05877351761,3.13040778449
1555407148430818706,569,1555407148430329865,,-3.1497323513,-2.05556058884,3.09081249932
1555407148441160395,570,1555407148440707742,,-3.14341616631,-2.05312514305,3.05848154862
1555407148490836454,571,1555407148490370551,,-3.10627317429,-2.03688335419,2.91216696362
1555407148501214925,572,1555407148500741589,,-3.09844923019,-2.03385233879,2.92268119577
1555407148501387081,573,1555407148500778661,,-3.09244394302,-2.0303812027,2.91609278618
1555407148520929615,574,1555407148520455855,,-3.08775448799,-2.02762365341,2.88040555238
1555407148521105203,575,1555407148520495251,,-3.08088779449,-2.02496051788,2.88719533607
1555407148530217587,576,1555407148529745676,,-3.07609438896,-2.02226209641,2.86329461323
1555407148540587284,577,1555407148540150318,,-3.06959676743,-2.01824116707,2.85750841834
1555407148550976550,578,1555407148550534033,,-3.06410527229,-2.01523828506,2.84964635661
1555407148551131977,579,1555407148550588743,,-3.05864310265,-2.01267743111,2.84447816392
1555407148560298027,580,1555407148559864005,,-3.05405449867,-2.00951933861,2.83077625041
1555407148570660009,581,1555407148570198332,,-3.05056858063,-2.00620388985,2.80150028761
1555407148581001308,582,1555407148580525850,,-3.04476356506,-2.00283169746,2.80473031917
1555407148590235685,583,1555407148589755317,,-3.04044818878,-1.99957513809,2.77678359867
1555407148600681820,584,1555407148600181594,,-3.03569960594,-1.99611842632,2.78834436639
1555407148600823579,585,1555407148600220687,,-3.03189992905,-1.99237442017,2.77478119054
1555407148630628320,586,1555407148630121166,,-3.02784395218,-1.98959636688,2.76716565818
1555407148630822898,587,1555407148630170200,,-3.01841974258,-1.98249006271,2.76193032465
1555407148640939430,588,1555407148640463631,,-3.01564502716,-1.97916173935,2.71917710541
1555407148650253987,589,1555407148649703584,,-3.01117014885,-1.97559046745,2.73134120574
1555407148660519953,590,1555407148659967599,,-3.00708150864,-1.97278726101,2.72806519779
1555407148660530011,591,1555407148659997369,,-3.00394773483,-1.96906495094,2.721490106
1555407148670453050,592,1555407148670180386,,-2.99967432022,-1.96563231945,2.69688439511
1555407148680938084,593,1555407148680453351,,-2.99552154541,-1.96208882332,2.70199327264
1555407148690185912,594,1555407148689702235,,-2.99282503128,-1.95890879631,2.67780354833
1555407148700517482,595,1555407148700080302,,-2.9888753891,-1.95597410202,2.68423800408
1555407148710962400,596,1555407148710509829,,-2.98380160332,-1.95203244686,2.6772228579
1555407148730527783,597,1555407148730038624,,-2.98196697235,-1.94850695133,2.66347948316
1555407148730670778,598,1555407148730085920,,-2.97614336014,-1.94180107117,2.6510348216
1555407148740919135,599,1555407148740436295,,-2.97113442421,-1.93776345253,2.64569260754
1555407148750166443,600,1555407148749682926,,-2.96937203407,-1.9338722229,2.64087972971
1555407148760490548,601,1555407148760022614,,-2.96607542038,-1.930590868,2.63030518292
1555407148760605969,602,1555407148760059424,,-2.96434402466,-1.92676961422,2.61636346905
1555407148770498696,603,1555407148770254125,,-2.96077179909,-1.92253470421,2.61709085515
1555407148780998475,604,1555407148780522366,,-2.95941233635,-1.91896677017,2.59841773654
1555407148790244843,605,1555407148789772097,,-2.95729398727,-1.91509950161,2.58530629786
1555407148800671982,606,1555407148800198758,,-2.95549988747,-1.91157901287,2.5774001479
1555407148800789618,607,1555407148800234530,,-2.95379734039,-1.90755784512,2.5777119927
1555407148810595913,608,1555407148810392055,,-2.95155239105,-1.90238821507,2.57774931137
1555407148829924811,609,1555407148829673058,,-2.95076942444,-1.8986903429,2.57085326562
1555407148830080169,610,1555407148829707062,,-2.94926357269,-1.89492690563,2.54704176622
1555407148840190292,611,1555407148839915482,,-2.94877648354,-1.89015805721,2.53746644196
1555407148850839967,612,1555407148850353439,,-2.9470512867,-1.88574028015,2.53783988904
1555407148850999978,613,1555407148850386675,,-2.9468691349,-1.88228654861,2.5220630134
1555407148860991358,614,1555407148860602364,,-2.94524002075,-1.87678873539,2.53557581076
1555407148890973529,615,1555407148890521239,,-2.94558000565,-1.87303555012,2.52949405256
1555407148891151223,616,1555407148890566043,,-2.94449853897,-1.86310756207,2.50707887914
1555407148900255643,617,1555407148899779791,,-2.94421672821,-1.85839056969,2.50074106831
1555407148940530819,618,1555407148940046391,,-2.94314861298,-1.83475506306,2.49332382642
1555407148950902060,619,1555407148950445498,,-2.9440267086,-1.82968831062,2.46444991853
1555407148951042469,620,1555407148950480103,,-2.94455623627,-1.82469916344,2.46330487367
1555407148961133207,621,1555407148960706270,,-2.94453954697,-1.82038223743,2.45683775195
1555407148970468449,622,1555407148969994264,,-2.94480013847,-1.81485235691,2.45722194623
1555407148980794073,623,1555407148980323635,,-2.94495463371,-1.80971038342,2.45710627227
1555407148991169393,624,1555407148990665872,,-2.94499158859,-1.80508625507,2.45218139786
1555407149000567521,625,1555407149000066087,,-2.94622302055,-1.8003911972,2.4279922382
1555407149011005127,626,1555407149010513757,,-2.94672942162,-1.79512548447,2.42734945307
1555407149011161238,627,1555407149010549397,,-2.9462287426,-1.79014718533,2.43081180662
1555407149040368657,628,1555407149040026364,,-2.9473361969,-1.78482317924,2.42382486364
1555407149040378335,629,1555407149040050544,,-2.94837546349,-1.77451312542,2.40939183554
1555407149050471129,630,1555407149050200405,,-2.94990181923,-1.76911473274,2.39774766401
1555407149050625938,631,1555407149050216105,,-2.9506008625,-1.76411294937,2.40191059759
1555407149060633417,632,1555407149060372712,,-2.95172142982,-1.75774848461,2.39079373772
1555407149070259023,633,1555407149069750383,,-2.95257544518,-1.75251996517,2.38623897846
1555407149080519629,634,1555407149080054023,,-2.95443248749,-1.74725556374,2.37965386215
1555407149090945041,635,1555407149090434937,,-2.95573043823,-1.74165320396,2.38555684438
1555407149100165365,636,1555407149099674340,,-2.95712065697,-1.73612499237,2.35267982772
1555407149110528006,637,1555407149110050898,,-2.95916509628,-1.72999465466,2.34897223434
1555407149110697947,638,1555407149110086762,,-2.961186409,-1.72448277473,2.34810423283
1555407149120836987,639,1555407149120357104,,-2.96289396286,-1.71846389771,2.3423827811
1555407149140424399,640,1555407149139901910,,-2.96380901337,-1.7125916481,2.33780236733
1555407149140609855,641,1555407149139952009,,-2.9653403759,-1.70661056042,2.33324614653
1555407149150736823,642,1555407149150257940,,-2.9669418335,-1.70051550865,2.3264536726
1555407149160719065,643,1555407149160454256,,-2.96844291687,-1.6953150034,2.30515195915
1555407149160877996,644,1555407149160471454,,-2.97069001198,-1.68908572197,2.31325926865
1555407149170919336,645,1555407149170622163,,-2.97360038757,-1.68261027336,2.29825764083
1555407149180454173,646,1555407149179957781,,-2.97419953346,-1.67611896992,2.3008817322
1555407149190795299,647,1555407149190289831,,-2.97706103325,-1.67118370533,2.27738428893
1555407149201077421,648,1555407149200623780,,-2.97802662849,-1.66474938393,2.29161015906
1555407149201231448,649,1555407149200657966,,-2.98058056831,-1.65874087811,2.26204218902
1555407149210146200,650,1555407149209877567,,-2.98233437538,-1.65233063698,2.27144441752
1555407149220333114,651,1555407149220037900,,-2.98367857933,-1.64555215836,2.28605637883
1555407149241152892,652,1555407149240613268,,-2.98605799675,-1.64103055,2.25381906932
1555407149241373992,653,1555407149240648111,,-2.98781776428,-1.6344769001,2.26006138163
1555407149250112684,654,1555407149249841240,,-2.98996829987,-1.62773382664,2.25226799417
1555407149260481933,655,1555407149260064099,,-2.99191355705,-1.62237465382,2.24101430822
1555407149260619379,656,1555407149260094775,,-2.99366736412,-1.61655020714,2.23904446733
1555407149270464006,657,1555407149270248917,,-2.99561953545,-1.61059248447,2.22092723267
1555407149281036996,658,1555407149280534365,,-2.99854564667,-1.60441231728,2.20321906715
1555407149290203537,659,1555407149289728727,,-2.99957823753,-1.59847009182,2.21231247524
1555407149300528648,660,1555407149300065215,,-3.00211644173,-1.59271323681,2.21967489404
1555407149300697683,661,1555407149300102162,,-3.00285482407,-1.58669495583,2.20317924735
1555407149310882130,662,1555407149310406717,,-3.00644087791,-1.58060646057,2.19471880986
1555407149321261462,663,1555407149320742253,,-3.00819563866,-1.57412993908,2.19296988102
1555407149360264007,664,1555407149359846414,,-3.02003002167,-1.54319179058,2.1245655712
1555407149370578009,665,1555407149370090694,,-3.0210943222,-1.53576385975,2.14338705369
1555407149380750837,666,1555407149380358021,,-3.02425050735,-1.52954685688,2.11043418615
1555407149391199148,667,1555407149390735640,,-3.02634739876,-1.52252721786,2.10063165603
1555407149400557146,668,1555407149400124703,,-3.03000020981,-1.51669478416,2.06143446535
1555407149410980370,669,1555407149410499330,,-3.03219032288,-1.50988030434,2.04613079928
1555407149411158544,670,1555407149410535779,,-3.03518438339,-1.50355756283,2.03048981498
1555407149420177116,671,1555407149419697387,,-3.03825521469,-1.49692809582,2.0003920594
