%time,field.header.seq,field.header.stamp,field.header.frame_id,field.point.x,field.point.y,field.point.z
1555406918045016892,1,1555406918044574681,,-2.57279825211,-1.28650295734,2.11773739772
1555406918055069286,2,1555406918054827843,,-2.56944680214,-1.28851425648,2.00730291071
1555406918065671873,3,1555406918065201158,,-2.5675983429,-1.29000854492,1.91252520998
1555406918065765203,4,1555406918065233971,,-2.56600904465,-1.29023981094,1.82118094044
1555406918075689818,5,1555406918075419614,,-2.56388258934,-1.29132068157,1.72535538607
1555406918085061910,6,1555406918084594169,,-2.56213760376,-1.29188942909,1.626873405
1555406918095375031,7,1555406918094909176,,-2.56027245522,-1.292709589,1.52251133279
1555406918105624838,8,1555406918105182934,,-2.55859899521,-1.29245448112,1.42020721919
1555406918115895302,9,1555406918115445170,,-2.55689549446,-1.292730093,1.31639293249
1555406918116031442,10,1555406918115477989,,-2.55469059944,-1.29285228252,1.21842594472
1555406918125215165,11,1555406918124745356,,-2.55278849602,-1.29382109642,1.11321893522
1555406918135558976,12,1555406918135079093,,-2.55087971687,-1.29328429699,1.01053574709
1555406918145934267,13,1555406918145431974,,-2.54820251465,-1.29313075542,0.906751158687
1555406918155260305,14,1555406918154819073,,-2.54598402977,-1.29300510883,0.795477408911
1555406918165646701,15,1555406918165192793,,-2.54453396797,-1.29360675812,0.693835697179
1555406918165816095,16,1555406918165232650,,-2.54188752174,-1.293217659,0.584227398323
1555406918175893574,17,1555406918175464651,,-2.53991150856,-1.29236388206,0.476978393687
1555406918185243064,18,1555406918184815584,,-2.53704214096,-1.29261863232,0.381026421659
1555406918195658523,19,1555406918195181127,,-2.53434586525,-1.29274213314,0.281814702081
1555406918206022381,20,1555406918205555457,,-2.53191256523,-1.2923387289,0.173141493995
1555406918215422248,21,1555406918214939524,,-2.52978372574,-1.29216623306,0.0680441088834
1555406918225753888,22,1555406918225301330,,-2.52661633492,-1.29262852669,-0.0328724182271
1555406918225865584,23,1555406918225336956,,-2.52402806282,-1.29223263264,-0.144865459513
1555406918235798358,24,1555406918235543461,,-2.52170586586,-1.29146552086,-0.254246124201
1555406918245387936,25,1555406918244916443,,-2.51866006851,-1.2924516201,-0.349787039958
1555406918255804199,26,1555406918255353309,,-2.51622867584,-1.29324746132,-0.457381909159
1555406918266239531,27,1555406918265671840,,-2.51322293282,-1.29393744469,-0.546249895104
1555406918266258672,28,1555406918265705650,,-2.51069283485,-1.29454898834,-0.645211343964
1555406918275128060,29,1555406918274896447,,-2.50738072395,-1.29547512531,-0.743645989592
1555406918285702876,30,1555406918285250909,,-2.50505065918,-1.29646241665,-0.831858118778
1555406918296125031,31,1555406918295636997,,-2.50229930878,-1.2972599268,-0.932114177443
1555406918305437981,32,1555406918304985843,,-2.49827170372,-1.29859960079,-1.02932966728
1555406918315801695,33,1555406918315365212,,-2.49617791176,-1.30051743984,-1.10547335268
1555406918325181535,34,1555406918324622303,,-2.49321532249,-1.30157804489,-1.19310084755
1555406918325197667,35,1555406918324660043,,-2.49047636986,-1.30314993858,-1.27448413721
1555406918335077321,36,1555406918334848934,,-2.48725795746,-1.30510902405,-1.35674997284
1555406918345652650,37,1555406918345189895,,-2.48484134674,-1.3069704771,-1.43533398866
1555406918355976796,38,1555406918355515831,,-2.4831225872,-1.30913853645,-1.50365012128
1555406918365389250,39,1555406918364928651,,-2.48045516014,-1.31117904186,-1.58222157551
1555406918365566331,40,1555406918364965374,,-2.47742295265,-1.31306612492,-1.66917142022
1555406918385781137,41,1555406918385402828,,-2.47556781769,-1.31557500362,-1.71845359225
1555406918385931090,42,1555406918385435479,,-2.47344946861,-1.31821656227,-1.78795753539
1555406918394840167,43,1555406918394563620,,-2.47129297256,-1.32079172134,-1.85638223518
1555406918405383085,44,1555406918404923449,,-2.46869897842,-1.32376551628,-1.92240519729
1555406918415744400,45,1555406918415293681,,-2.46718406677,-1.32587456703,-1.98551239706
1555406918415884724,46,1555406918415336170,,-2.4646961689,-1.32874560356,-2.05786060379
1555406918425042623,47,1555406918424593440,,-2.46344876289,-1.33169841766,-2.11325196015
1555406918435462089,48,1555406918434975005,,-2.46181607246,-1.3348338604,-2.18073002414
1555406918445852682,49,1555406918445382779,,-2.46127462387,-1.33715987206,-2.22090327901
1555406918455093456,50,1555406918454646529,,-2.45906615257,-1.34101510048,-2.29291078041
1555406918465439027,51,1555406918465000370,,-2.45820450783,-1.34349393845,-2.33606709694
1555406918465576644,52,1555406918465035846,,-2.45745015144,-1.34642851353,-2.39564897563
1555406918475468127,53,1555406918475235725,,-2.45615077019,-1.35008609295,-2.46004008621
1555406918486047473,54,1555406918485595633,,-2.45538115501,-1.35435414314,-2.53307759873
1555406918495457614,55,1555406918494998357,,-2.45538806915,-1.35671281815,-2.5780803223
1555406918505828823,56,1555406918505363983,,-2.45485186577,-1.36015534401,-2.63313446287
1555406918515087197,57,1555406918514627079,,-2.45541644096,-1.36357247829,-2.69660378285
1555406918525468831,58,1555406918525019662,,-2.45497488976,-1.36688637733,-2.75309454835
1555406918525635306,59,1555406918525057905,,-2.45573806763,-1.3700813055,-2.79909166146
1555406918535461125,60,1555406918535246750,,-2.45602917671,-1.37359583378,-2.86396826824
1555406918546069954,61,1555406918545574132,,-2.45648026466,-1.37673711777,-2.90656406303
1555406918555355793,62,1555406918554907874,,-2.45754766464,-1.38011300564,-2.9550267916
1555406918565738986,63,1555406918565276364,,-2.45773410797,-1.38345563412,-3.0165926418
1555406918565930263,64,1555406918565313638,,-2.4588303566,-1.38651943207,-3.06353068822
1555406918575973568,65,1555406918575566575,,-2.46023368835,-1.38896942139,-3.10355720383
1555406918585394519,66,1555406918584933091,,-2.46078228951,-1.39219355583,3.13085177689
1555406918595783259,67,1555406918595303251,,-2.46238851547,-1.39523899555,3.0724406413
1555406918606127711,68,1555406918605643550,,-2.46337461472,-1.39863240719,3.0359200067
1555406918615467349,69,1555406918615011173,,-2.46467900276,-1.40099537373,3.00058444003
1555406918615596778,70,1555406918615047797,,-2.46635746956,-1.40356957912,2.95049886449
1555406918635093826,71,1555406918634637415,,-2.46714925766,-1.40620660782,2.9070227164
1555406918635279792,72,1555406918634674047,,-2.46921944618,-1.4086214304,2.87564154321
1555406918645525224,73,1555406918645047610,,-2.47069478035,-1.41047048569,2.82979856355
1555406918655889136,74,1555406918655433595,,-2.47138905525,-1.41330754757,2.7903018718
1555406918665125554,75,1555406918664683342,,-2.47294282913,-1.41606330872,2.75430089598
1555406918675427406,76,1555406918675040862,,-2.4742000103,-1.4178185463,2.72985458381
1555406918675573109,77,1555406918675088410,,-2.4766292572,-1.42016136646,2.66792679321
1555406918685861542,78,1555406918685410531,,-2.47814750671,-1.42223119736,2.64679166075
1555406918694922990,79,1555406918694620882,,-2.4795217514,-1.42471039295,2.60839241815
1555406918705417403,80,1555406918704976491,,-2.48122811317,-1.42652332783,2.56828759964
1555406918715799074,81,1555406918715351056,,-2.48222970963,-1.42879736423,2.5358988548
1555406918715951847,82,1555406918715387196,,-2.48328518867,-1.43098175526,2.50314889055
1555406918726161813,83,1555406918725686572,,-2.48583483696,-1.43268096447,2.46543463374
1555406918745868605,84,1555406918745413816,,-2.48746061325,-1.43500161171,2.42564851466
1555406918746010600,85,1555406918745453009,,-2.48923945427,-1.43695032597,2.38536194991
1555406918754838311,86,1555406918754586086,,-2.49114179611,-1.4386433363,2.34787514516
1555406918765358225,87,1555406918764916326,,-2.49285244942,-1.44047689438,2.30307636137
1555406918765486321,88,1555406918764953012,,-2.49517917633,-1.44225990772,2.25761941443
1555406918775546118,89,1555406918775195435,,-2.49697470665,-1.44395160675,2.21893508592
1555406918785641979,90,1555406918785387227,,-2.4992210865,-1.44542884827,2.17901785199
1555406918795062907,91,1555406918794611343,,-2.50145363808,-1.44661140442,2.11837310212
1555406918805438597,92,1555406918804991446,,-2.50358963013,-1.44802498817,2.06527224276
1555406918815770556,93,1555406918815339185,,-2.50568175316,-1.44907701015,2.01769695283
1555406918815909920,94,1555406918815376499,,-2.50826430321,-1.44955992699,1.95701032034
1555406918825853787,95,1555406918825613981,,-2.51002287865,-1.45168399811,1.88652940482
1555406918845795966,96,1555406918845332152,,-2.51230454445,-1.45228719711,1.84653026564
1555406918845914479,97,1555406918845370904,,-2.51437735558,-1.45296275616,1.78810216151
1555406918855038155,98,1555406918854609637,,-2.51630592346,-1.454164505,1.73429597127
1555406918865460164,99,1555406918864866537,,-2.51836681366,-1.45471203327,1.68085276954
1555406918875554375,100,1555406918875171191,,-2.52152729034,-1.45550811291,1.62114051896
1555406918875691814,101,1555406918875199397,,-2.52317285538,-1.45582926273,1.56258598087
1555406918885578650,102,1555406918885367700,,-2.5252020359,-1.4572455883,1.49834888663
1555406918895072103,103,1555406918894590100,,-2.52718949318,-1.45801627636,1.44528025829
1555406918905192332,104,1555406918904825063,,-2.52849459648,-1.45917534828,1.38455285222
1555406918915608287,105,1555406918915207322,,-2.53127503395,-1.45982313156,1.3305313786
1555406918915708007,106,1555406918915237779,,-2.53357100487,-1.46027600765,1.26127771568
1555406918926091046,107,1555406918925601174,,-2.53540730476,-1.46040582657,1.21660188745
1555406918945733579,108,1555406918945271744,,-2.53747200966,-1.46161484718,1.15694627071
1555406918945875887,109,1555406918945309258,,-2.53979992867,-1.46126699448,1.08889101453
1555406918955716070,110,1555406918955493343,,-2.54147934914,-1.46227002144,1.02320374133
1555406918965279092,111,1555406918964837867,,-2.5425992012,-1.46285283566,0.99007695499
1555406918965445298,112,1555406918964872133,,-2.54583692551,-1.46233594418,0.900729318043
1555406918975291914,113,1555406918975068017,,-2.54699230194,-1.46427667141,0.863173908137
1555406918985596820,114,1555406918985327291,,-2.54854655266,-1.46557831764,0.813837019006
1555406918995013176,115,1555406918994570922,,-2.54970574379,-1.46660089493,0.761512527774
1555406919055989456,116,1555406919055481549,,-2.55847978592,-1.4693005085,0.466613701321
1555406919056179853,117,1555406919055536057,,-2.55993294716,-1.46896278858,0.406804126934
1555406919056327588,118,1555406919055551901,,-2.56082439423,-1.46854197979,0.355599352473
1555406919064986851,119,1555406919064725352,,-2.56148910522,-1.47018277645,0.309485919561
1555406919075173375,120,1555406919074906032,,-2.56247758865,-1.46941781044,0.243235631669
1555406919075307244,121,1555406919074938934,,-2.56335473061,-1.4705080986,0.19947952771
1555406919085466886,122,1555406919085198967,,-2.5637242794,-1.47130703926,0.157820700922
1555406919095990183,123,1555406919095523065,,-2.56462621689,-1.47158336639,0.100093229809
1555406919105354596,124,1555406919104911346,,-2.56461834908,-1.4710944891,0.0334074148147
1555406919115718934,125,1555406919115236426,,-2.56382083893,-1.4718221426,-0.0149833059906
1555406919115872858,126,1555406919115273776,,-2.56405949593,-1.47171926498,-0.0692091708064
1555406919125721448,127,1555406919125476187,,-2.56441807747,-1.47235095501,-0.11274995379
1555406919134910297,128,1555406919134687079,,-2.56432747841,-1.47253704071,-0.175901141688
1555406919155683278,129,1555406919155231313,,-2.5642888546,-1.47339141369,-0.219951323078
1555406919155814143,130,1555406919155266561,,-2.56383371353,-1.4743989706,-0.276170679142
1555406919165727410,131,1555406919165468343,,-2.5636844635,-1.47506129742,-0.310189514318
1555406919165905242,132,1555406919165497754,,-2.56296443939,-1.4745105505,-0.380373072196
1555406919175038682,133,1555406919174779318,,-2.56357336044,-1.47612023354,-0.42522005762
1555406919185258418,134,1555406919184989617,,-2.56293964386,-1.47659361362,-0.487048945882
1555406919195471204,135,1555406919195202716,,-2.56197977066,-1.47747182846,-0.523634892381
1555406919205633259,136,1555406919205403771,,-2.56175732613,-1.47883045673,-0.571475549581
1555406919215074591,137,1555406919214628648,,-2.56161856651,-1.47851073742,-0.630800438152
1555406919225467582,138,1555406919224996080,,-2.56075382233,-1.47966229916,-0.699445665568
1555406919225634221,139,1555406919225035512,,-2.5611038208,-1.48110413551,-0.718377204709
1555406919235498999,140,1555406919235256405,,-2.56072306633,-1.48226106167,-0.783661884346
1555406919254832534,141,1555406919254548335,,-2.55987071991,-1.48243117332,-0.842058945851
1555406919254981985,142,1555406919254579540,,-2.55928993225,-1.4841247797,-0.89322583434
1555406919265103987,143,1555406919264859588,,-2.55744075775,-1.48522758484,-0.944255699595
1555406919275619932,144,1555406919275129079,,-2.55689334869,-1.48677587509,-0.985394305444
1555406919275752372,145,1555406919275161026,,-2.55668592453,-1.48838734627,-1.05854300204
1555406919285708634,146,1555406919285397778,,-2.55406880379,-1.49007606506,-1.10512891999
1555406919295886866,147,1555406919295596055,,-2.55524015427,-1.49145698547,-1.17684210282
1555406919305091886,148,1555406919304808325,,-2.5548684597,-1.49288904667,-1.25023777756
1555406919315551907,149,1555406919315057964,,-2.5538687706,-1.49499559402,-1.32063122078
1555406919315722899,150,1555406919315091943,,-2.55287480354,-1.49657225609,-1.38307875285
1555406919325871709,151,1555406919325396104,,-2.55218315125,-1.49901914597,-1.43632909465
1555406919335228839,152,1555406919334800970,,-2.55078864098,-1.50107085705,-1.53436873744
1555406919365201056,153,1555406919364695249,,-2.54933667183,-1.50290834904,-1.58495290071
1555406919365353944,154,1555406919364734723,,-2.54965782166,-1.50484907627,-1.63655563899
1555406919365512999,155,1555406919364764750,,-2.54874777794,-1.5069950819,-1.70514562168
1555406919375311004,156,1555406919374991406,,-2.54769730568,-1.5089443922,-1.78442837905
1555406919375445344,157,1555406919375022640,,-2.54720425606,-1.51110863686,-1.84906726223
1555406919385488091,158,1555406919385214333,,-2.54633450508,-1.51359403133,-1.91693860251
1555406919396061076,159,1555406919395556787,,-2.54519224167,-1.51585638523,-1.99010787487
1555406919405422885,160,1555406919404935028,,-2.54503250122,-1.51794266701,-2.05240252163
1555406919415752835,161,1555406919415241000,,-2.54470705986,-1.5207862854,-2.12544777364
1555406919415917502,162,1555406919415280368,,-2.54457879066,-1.522965312,-2.19291284976
1555406919426154538,163,1555406919425684959,,-2.54422473907,-1.52519178391,-2.25491550179
1555406919435491905,164,1555406919435035981,,-2.54437112808,-1.527125597,-2.31495344385
1555406919445932453,165,1555406919445424895,,-2.54464125633,-1.52916145325,-2.3760836829
1555406919465736694,166,1555406919465022611,,-2.54383611679,-1.53217577934,-2.44893105266
1555406919465743414,167,1555406919465067287,,-2.54306936264,-1.53503763676,-2.51409010532
1555406919465914411,168,1555406919465099520,,-2.54347729683,-1.53716552258,-2.58144238592
1555406919475838593,169,1555406919475448342,,-2.54473304749,-1.53869903088,-2.62028118161
1555406919485132891,170,1555406919484683758,,-2.54487800598,-1.54152500629,-2.68584216306
1555406919495524342,171,1555406919495048299,,-2.54567790031,-1.54362535477,-2.73607760778
1555406919505879065,172,1555406919505383524,,-2.54621291161,-1.54615306854,-2.78990554815
1555406919515071184,173,1555406919514590647,,-2.5460922718,-1.54775893688,-2.8400708943
1555406919525524839,174,1555406919524927870,,-2.54751110077,-1.55045950413,-2.8917705997
1555406919525532886,175,1555406919524967130,,-2.54930305481,-1.55229878426,-2.95032917654
1555406919535441074,176,1555406919535121323,,-2.54939699173,-1.55486667156,-2.98111512535
1555406919545958899,177,1555406919545443389,,-2.55152535439,-1.55653297901,-3.03396425785
1555406919565600610,178,1555406919565083276,,-2.5530102253,-1.55893480778,-3.06438953303
1555406919565776435,179,1555406919565130000,,-2.55623722076,-1.56321871281,3.12100472528
1555406919575821507,180,1555406919575391424,,-2.55929160118,-1.56497144699,3.07265351314
1555406919585086075,181,1555406919584634763,,-2.56077122688,-1.56644773483,3.02234016803
1555406919595501314,182,1555406919594998702,,-2.56307220459,-1.56912052631,2.99090629601
1555406919605826149,183,1555406919605346577,,-2.56464743614,-1.57103180885,2.91125195967
1555406919615108905,184,1555406919614604935,,-2.56705117226,-1.57210862637,2.87644515288
1555406919625459984,185,1555406919625000627,,-2.57090735435,-1.57440829277,2.84621673659
1555406919625677066,186,1555406919625036317,,-2.57317972183,-1.57584369183,2.78800329224
1555406919635454919,187,1555406919635208506,,-2.57523179054,-1.57653105259,2.74570761405
1555406919645636410,188,1555406919645383594,,-2.57862901688,-1.57865929604,2.68860126844
1555406919665471168,189,1555406919664985487,,-2.58900284767,-1.58328747749,2.55839746938
1555406919675643307,190,1555406919675254122,,-2.59323167801,-1.58437252045,2.51597672626
1555406919686115337,191,1555406919685577347,,-2.59697365761,-1.58469450474,2.45550048776
1555406919695373999,192,1555406919694879730,,-2.60021233559,-1.58506894112,2.40522428416
1555406919705742659,193,1555406919705216449,,-2.60453033447,-1.58552324772,2.35741032747
1555406919716057671,194,1555406919715588508,,-2.60843849182,-1.58588194847,2.31200359824
1555406919716273325,195,1555406919715627960,,-2.61247777939,-1.58641421795,2.25765674625
1555406919725059011,196,1555406919724822007,,-2.61637878418,-1.58684670925,2.20926064013
1555406919735596881,197,1555406919735118753,,-2.62057638168,-1.58595120907,2.16147365113
1555406919745986051,198,1555406919745489941,,-2.62485218048,-1.58636569977,2.1182429243
1555406919775873206,199,1555406919775424133,,-2.62888097763,-1.58520615101,2.06754080187
1555406919776099185,200,1555406919775463485,,-2.63712501526,-1.58527266979,1.9532024045
1555406919846102159,201,1555406919845617086,,-2.67494034767,-1.57109463215,1.46632992654
1555406919876163047,202,1555406919875631873,,-2.68284273148,-1.56650817394,1.34761128216
1555406919876318544,203,1555406919875676571,,-2.69150066376,-1.56173717976,1.21287674391
1555406919885216866,204,1555406919884918675,,-2.69487524033,-1.55989789963,1.14971976966
1555406919895683702,205,1555406919895213647,,-2.69872546196,-1.55766308308,1.09230643697
1555406919905846110,206,1555406919905421508,,-2.70223045349,-1.55443572998,1.02929889997
1555406919915274920,207,1555406919914780305,,-2.70573019981,-1.54903364182,0.919829752581
1555406919915464309,208,1555406919914814397,,-2.70847392082,-1.547757864,0.88474658438
1555406919925616911,209,1555406919925123960,,-2.71197342873,-1.54447042942,0.784317422602
1555406919935995241,210,1555406919935450857,,-2.71486783028,-1.54183065891,0.735715025276
1555406919945264109,211,1555406919944779715,,-2.71762347221,-1.53891277313,0.663047585057
1555406919955549097,212,1555406919955083680,,-2.72036910057,-1.53503096104,0.570294238265
1555406919976032565,213,1555406919975571882,,-2.72258472443,-1.53182637691,0.521731608985
1555406919976301945,214,1555406919975603969,,-2.72488474846,-1.52843415737,0.427940463273
1555406919976310257,215,1555406919975632095,,-2.72648048401,-1.5253893137,0.365298985843
1555406919985042751,216,1555406919984797590,,-2.72790288925,-1.52044844627,0.26757159992
1555406919995249302,217,1555406919994984910,,-2.7304918766,-1.51877391338,0.227220524586
1555406920005802612,218,1555406920005317631,,-2.73185563087,-1.51542162895,0.142486558163
1555406920015034565,219,1555406920014581788,,-2.73311018944,-1.51215326786,0.0740774905654
1555406920025429002,220,1555406920024959687,,-2.73341941833,-1.50864386559,-0.00919379162723
1555406920035793520,221,1555406920035321978,,-2.73489880562,-1.50559914112,-0.0786038028061
1555406920035949533,222,1555406920035361358,,-2.73589706421,-1.50323235989,-0.152243954414
1555406920045089779,223,1555406920044625487,,-2.7368414402,-1.49972486496,-0.232443355122
1555406920055474648,224,1555406920055005098,,-2.7373418808,-1.4970126152,-0.309396424163
1555406920076010124,225,1555406920075581014,,-2.73818969727,-1.49445438385,-0.367788267114
1555406920076166901,226,1555406920075617953,,-2.73889327049,-1.4915664196,-0.44795942885
1555406920076315751,227,1555406920075650929,,-2.73951101303,-1.48873758316,-0.534688339544
1555406920085500498,228,1555406920085057208,,-2.74108672142,-1.48761105537,-0.581304283222
1555406920095924203,229,1555406920095444512,,-2.74222779274,-1.48622429371,-0.625258615951
1555406920105280808,230,1555406920104817343,,-2.74213933945,-1.48213160038,-0.746605921763
1555406920115648211,231,1555406920115190960,,-2.74329829216,-1.47967505455,-0.802226234005
1555406920115820076,232,1555406920115229274,,-2.74411177635,-1.47880637646,-0.859022235506
1555406920126101891,233,1555406920125600691,,-2.74518251419,-1.4754486084,-0.960131885117
1555406920135403680,234,1555406920134952083,,-2.74567937851,-1.47432518005,-1.01061681804
1555406920188118229,235,1555406920185132639,,-2.74913954735,-1.46698904037,-1.33556517623
1555406920188122330,236,1555406920185184684,,-2.7493789196,-1.46607601643,-1.40908778956
1555406920188126552,237,1555406920185200608,,-2.74961996078,-1.46456360817,-1.48838650997
1555406920196069871,238,1555406920195560955,,-2.74861741066,-1.46403753757,-1.60919433885
1555406920205425943,239,1555406920204955128,,-2.75156021118,-1.4624478817,-1.65490728392
1555406920215793354,240,1555406920215310232,,-2.75230789185,-1.46135985851,-1.73334918544
1555406920215965770,241,1555406920215348221,,-2.75274014473,-1.46058392525,-1.81346225879
1555406920225903165,242,1555406920225579208,,-2.75335121155,-1.45935297012,-1.91651640207
1555406920235351739,243,1555406920234933153,,-2.75460028648,-1.45872557163,-1.99133943318
1555406920245786916,244,1555406920245317088,,-2.75624990463,-1.45791637897,-2.0743477332
1555406920255025737,245,1555406920254587202,,-2.75655126572,-1.45756030083,-2.1750605324
1555406920265358265,246,1555406920264912293,,-2.75853824615,-1.45713233948,-2.24549641889
1555406920285574342,247,1555406920285269717,,-2.7598733902,-1.45648789406,-2.32762728708
1555406920285717758,248,1555406920285295034,,-2.763027668,-1.45705699921,-2.49845382158
1555406920295720871,249,1555406920295445367,,-2.76544618607,-1.45580923557,-2.5554847525
1555406920304839279,250,1555406920304548087,,-2.76685333252,-1.45538973808,-2.63426370908
1555406920315021898,251,1555406920314719407,,-2.7687087059,-1.45540821552,-2.7129516701
1555406920315172711,252,1555406920314735891,,-2.77107954025,-1.45543622971,-2.7704911281
1555406920325351446,253,1555406920324980406,,-2.77435326576,-1.45430541039,-2.83445499797
1555406920335816607,254,1555406920335318418,,-2.77589917183,-1.45422899723,-2.90456902002
1555406920345079605,255,1555406920344556500,,-2.77846837044,-1.45406746864,-2.97010322739
1555406920355373830,256,1555406920354882868,,-2.7811691761,-1.45382165909,-3.03618845407
1555406920365624360,257,1555406920365143231,,-2.78452086449,-1.45258247852,-3.10165907265
1555406920386189055,258,1555406920385678835,,-2.78737735748,-1.45276629925,3.1324773244
1555406920386342264,259,1555406920385724723,,-2.79315757751,-1.45042705536,3.01464777093
1555406920395213627,260,1555406920394919508,,-2.79758119583,-1.45052111149,2.99419512049
1555406920405658213,261,1555406920405178502,,-2.79999303818,-1.44852006435,2.927514964
1555406920415924961,262,1555406920415462025,,-2.80446004868,-1.44833648205,2.89269619052
1555406920416126523,263,1555406920415496750,,-2.80651831627,-1.44679963589,2.82830745893
1555406920424881015,264,1555406920424650074,,-2.8098590374,-1.44631373882,2.78080967428
1555406920435038297,265,1555406920434809681,,-2.81290149689,-1.44518446922,2.76020092956
1555406920445283468,266,1555406920444967441,,-2.81693339348,-1.44369721413,2.70144177968
1555406920455753277,267,1555406920455282608,,-2.81927323341,-1.44358634949,2.65524401622
1555406920466135549,268,1555406920465620128,,-2.8228597641,-1.44214165211,2.62109113038
1555406920485578403,269,1555406920485102250,,-2.82666683197,-1.44131612778,2.56185732065
1555406920485749047,270,1555406920485145202,,-2.83307170868,-1.43810653687,2.4704301766
1555406920495940397,271,1555406920495456392,,-2.83740854263,-1.43804860115,2.44677815034
1555406920504965114,272,1555406920504645818,,-2.84095454216,-1.43645358086,2.40039647196
1555406920515448407,273,1555406920514947715,,-2.84404373169,-1.43504869938,2.37337262802
1555406920515607394,274,1555406920514982587,,-2.8475689888,-1.43345057964,2.32443842045
1555406920525799911,275,1555406920525321576,,-2.85140180588,-1.43253338337,2.2861725439
1555406920535040133,276,1555406920534563235,,-2.85500645638,-1.43161988258,2.24674481488
1555406920545394514,277,1555406920544901330,,-2.85851764679,-1.42956733704,2.2007162362
1555406920555723999,278,1555406920555235708,,-2.86198735237,-1.42776620388,2.15824485638
1555406920566037466,279,1555406920565549054,,-2.86485171318,-1.42749345303,2.10326200826
1555406920566206187,280,1555406920565585842,,-2.86983180046,-1.42511534691,2.06637956671
1555406920595971526,281,1555406920595470977,,-2.87296056747,-1.42371892929,2.03173863805
1555406920596164088,282,1555406920595516429,,-2.88081455231,-1.41965329647,1.9228692453
1555406920605302486,283,1555406920604823335,,-2.88400030136,-1.41775810719,1.8728385508
1555406920615639836,284,1555406920615151134,,-2.88914465904,-1.41599547863,1.81067937331
1555406920615790228,285,1555406920615185523,,-2.89159917831,-1.41306984425,1.78155392579
1555406920625982467,286,1555406920625533106,,-2.89558291435,-1.40957927704,1.73495907715
1555406920635146407,287,1555406920634847856,,-2.89978146553,-1.40858530998,1.65352742866
1555406920645695049,288,1555406920645215298,,-2.90302586555,-1.4068145752,1.60469345342
1555406920656061086,289,1555406920655582229,,-2.90717935562,-1.40473282337,1.53892063373
1555406920665062032,290,1555406920664794661,,-2.9105360508,-1.40159845352,1.4873610909
1555406920665287373,291,1555406920664826621,,-2.91329693794,-1.39757716656,1.44838153605
1555406920695157332,292,1555406920694683593,,-2.91747903824,-1.39623951912,1.37849811363
1555406920695328069,293,1555406920694727577,,-2.92446637154,-1.39044713974,1.26924197029
1555406920705541882,294,1555406920705085015,,-2.92846941948,-1.38648462296,1.23347912477
1555406920715949108,295,1555406920715440821,,-2.93153786659,-1.38380074501,1.17663395716
1555406920716093035,296,1555406920715477954,,-2.93329668045,-1.38134169579,1.1422933933
1555406920724907188,297,1555406920724650761,,-2.93655872345,-1.37685191631,1.09692472742
1555406920735156987,298,1555406920734853110,,-2.9397957325,-1.37492358685,1.04754850429
1555406920745625329,299,1555406920745148041,,-2.94169211388,-1.37140011787,1.00271509314
1555406920755658170,300,1555406920755382316,,-2.94549059868,-1.36883759499,0.963838051308
1555406920765145136,301,1555406920764658932,,-2.94800043106,-1.36546230316,0.9257803761
1555406920765306250,302,1555406920764697416,,-2.94978952408,-1.36116290092,0.883528126776
1555406920795989558,303,1555406920795484916,,-2.95260024071,-1.35825526714,0.849527247482
1555406920815644726,304,1555406920815169837,,-2.96335124969,-1.34500622749,0.673311051401
1555406920815806734,305,1555406920815205760,,-2.96436047554,-1.34121549129,0.653713145597
1555406920825686151,306,1555406920825409442,,-2.96699213982,-1.33823859692,0.617426787046
1555406920835104259,307,1555406920834633100,,-2.96868467331,-1.33472883701,0.572636116852
1555406920845476481,308,1555406920844996058,,-2.97151494026,-1.33195900917,0.545957209222
1555406920855726383,309,1555406920855275953,,-2.9737033844,-1.32848775387,0.504350071464
1555406920866084391,310,1555406920865610582,,-2.97618842125,-1.32500493526,0.45806125908
1555406920866225005,311,1555406920865648519,,-2.978525877,-1.32120680809,0.419951098373
1555406920875040729,312,1555406920874822573,,-2.98092985153,-1.3185532093,0.383807000906
1555406920895980492,313,1555406920895479845,,-2.98259282112,-1.31539201736,0.356374266429
1555406920896121348,314,1555406920895518827,,-2.9852540493,-1.31237566471,0.319045051735
1555406920905009495,315,1555406920904719240,,-2.9868979454,-1.30891108513,0.283851077888
1555406920915788918,316,1555406920915334910,,-2.98920941353,-1.30572140217,0.237858813236
1555406920915997444,317,1555406920915368894,,-2.99148082733,-1.30275905132,0.209893774071
1555406920925066892,318,1555406920924587329,,-2.99360918999,-1.29945075512,0.184656944177
1555406920935419023,319,1555406920934909024,,-2.99558949471,-1.29603791237,0.146202893253
1555406920945737376,320,1555406920945241138,,-2.99728345871,-1.29322361946,0.109901380817
1555406920956059009,321,1555406920955576197,,-2.99916100502,-1.2904291153,0.0830380572929
1555406920965372914,322,1555406920964900225,,-3.00084471703,-1.2871363163,0.0444706692798
1555406920965512285,323,1555406920964934357,,-3.00267410278,-1.28387081623,0.00932000478068
1555406920975597426,324,1555406920975171347,,-3.00363087654,-1.28089272976,-0.0162354981223
1555406921005309916,325,1555406921004860438,,-3.00586175919,-1.27820420265,-0.0431765542691
1555406921005527451,326,1555406921004901090,,-3.00884985924,-1.27357327938,-0.0774780537853
1555406921015389368,327,1555406921015080884,,-3.01027417183,-1.27111792564,-0.100333423748
1555406921025854577,328,1555406921025348932,,-3.0114569664,-1.26820254326,-0.120316810091
1555406921026025468,329,1555406921025384545,,-3.01266741753,-1.26559197903,-0.147897836904
1555406921035077523,330,1555406921034597452,,-3.0137963295,-1.26330852509,-0.1606568924
1555406921045441560,331,1555406921044967843,,-3.01503372192,-1.2608628273,-0.175167583866
1555406921055748372,332,1555406921055273012,,-3.01661944389,-1.25863409042,-0.185510857826
1555406921066135317,333,1555406921065656395,,-3.01773285866,-1.25679707527,-0.193142613599
1555406921066366038,334,1555406921065692512,,-3.01815962791,-1.25338709354,-0.223044630478
1555406921075393584,335,1555406921074950292,,-3.01950001717,-1.25146079063,-0.240758898287
1555406921106122168,336,1555406921105597424,,-3.02063179016,-1.24898517132,-0.256223638204
1555406921106284880,337,1555406921105640191,,-3.02267408371,-1.24489307404,-0.270510820589
1555406921115500451,338,1555406921114938283,,-3.02416300774,-1.24269354343,-0.285089702424
1555406921115535990,339,1555406921114973631,,-3.02476453781,-1.23919594288,-0.318283604251
1555406921125460495,340,1555406921125164669,,-3.02604055405,-1.23768317699,-0.319128287664
1555406921135944471,341,1555406921135446690,,-3.02631878853,-1.23528587818,-0.336918858215
1555406921145280479,342,1555406921144782432,,-3.02752375603,-1.23377561569,-0.349089563196
1555406921155636116,343,1555406921155154636,,-3.02797651291,-1.23058080673,-0.368856410995
1555406921166040139,344,1555406921165492741,,-3.02889609337,-1.22861552238,-0.388795566477
1555406921166222534,345,1555406921165526827,,-3.02943253517,-1.2273298502,-0.399475793923
1555406921175233675,346,1555406921174785631,,-3.0302939415,-1.22528588772,-0.413467720933
1555406921206152273,347,1555406921205657630,,-3.03081393242,-1.22352266312,-0.44665871772
1555406921206322981,348,1555406921205701350,,-3.03140830994,-1.21885538101,-0.501103201726
1555406921215461530,349,1555406921214961754,,-3.03167176247,-1.21737861633,-0.528729603731
1555406921215611035,350,1555406921214996526,,-3.0318338871,-1.21577751637,-0.552628751163
1555406921225572900,351,1555406921225223377,,-3.03167390823,-1.21408998966,-0.586556199355
1555406921235986884,352,1555406921235508492,,-3.03175973892,-1.21187376976,-0.624401367423
1555406921245077353,353,1555406921244806554,,-3.03171086311,-1.21072053909,-0.653282161151
1555406921255665221,354,1555406921255168475,,-3.03149628639,-1.20935297012,-0.691902947712
1555406921266089841,355,1555406921265553837,,-3.03093338013,-1.20783603191,-0.722244597781
1555406921266262660,356,1555406921265594894,,-3.03037405014,-1.20666360855,-0.769559677773
1555406921275297157,357,1555406921274867137,,-3.02967453003,-1.2053501606,-0.797171801522
1555406921285701028,358,1555406921285202959,,-3.02985787392,-1.20401751995,-0.858848596176
1555406921305425273,359,1555406921304930857,,-3.029109478,-1.20308196545,-0.903862694404
1555406921305594016,360,1555406921304966945,,-3.02736163139,-1.20234000683,-0.961499888681
1555406921315694858,361,1555406921315235165,,-3.02683925629,-1.20107877254,-1.00972419634
1555406921315843265,362,1555406921315270588,,-3.02609610558,-1.20063710213,-1.06101876168
1555406921325707432,363,1555406921325459767,,-3.02508640289,-1.19949889183,-1.11708069975
1555406921335171303,364,1555406921334673387,,-3.02400159836,-1.19925165176,-1.16915832295
1555406921345525900,365,1555406921345046879,,-3.02347660065,-1.19862127304,-1.22973560697
1555406921355871524,366,1555406921355414852,,-3.02294683456,-1.19840991497,-1.28231424544
1555406921365112743,367,1555406921364632492,,-3.02156925201,-1.19848978519,-1.34515308746
1555406921375401560,368,1555406921374991938,,-3.02058815956,-1.19763326645,-1.42190688674
1555406921375519894,369,1555406921375023224,,-3.01915645599,-1.19774544239,-1.48036865288
1555406921385459309,370,1555406921385178194,,-3.01857995987,-1.1982960701,-1.53574365687
1555406921405356164,371,1555406921404865703,,-3.01714038849,-1.19833862782,-1.61203851667
1555406921405570697,372,1555406921404900923,,-3.01590752602,-1.19880223274,-1.68594771684
1555406921415725427,373,1555406921415218223,,-3.01434469223,-1.19905304909,-1.75825046532
1555406921415861111,374,1555406921415260500,,-3.0136988163,-1.20003569126,-1.81973523017
1555406921426066702,375,1555406921425575847,,-3.01350498199,-1.19995033741,-1.88395812818
1555406921435321832,376,1555406921434858994,,-3.01235532761,-1.20059549809,-1.96622068927
1555406921445666135,377,1555406921445192616,,-3.0120100975,-1.2021009922,-2.03596323244
1555406921455971492,378,1555406921455529954,,-3.01103305817,-1.20296013355,-2.10607951458
1555406921465397339,379,1555406921464903856,,-3.01114606857,-1.20394349098,-2.17583170747
1555406921465562711,380,1555406921464937068,,-3.01021170616,-1.2046943903,-2.24436430571
1555406921475385842,381,1555406921475130433,,-3.01008486748,-1.20612466335,-2.3162324773
1555406921485853078,382,1555406921485399615,,-3.01020240784,-1.20639765263,-2.36977346359
1555406921515769026,383,1555406921515227274,,-3.01085948944,-1.20752203465,-2.42833397299
1555406921515936799,384,1555406921515278262,,-3.01115918159,-1.21092605591,-2.60552164941
1555406921526068651,385,1555406921525597885,,-3.01200532913,-1.2114289999,-2.65964695405
1555406921535449632,386,1555406921534966375,,-3.01226735115,-1.21317565441,-2.71804985329
1555406921545805228,387,1555406921545305610,,-3.01348185539,-1.21382570267,-2.77369642761
1555406921556118138,388,1555406921555642523,,-3.01386618614,-1.21487545967,-2.8240362328
1555406921565426074,389,1555406921564971750,,-3.01476430893,-1.2157034874,-2.87774691993
1555406921565563362,390,1555406921565004624,,-3.01605415344,-1.21661150455,-2.92694872363
1555406921575505655,391,1555406921575256363,,-3.01688671112,-1.21709620953,-2.97764573219
1555406921585998587,392,1555406921585519950,,-3.01807069778,-1.2179889679,-3.02362909621
1555406921595339177,393,1555406921594838123,,-3.01838779449,-1.21920871735,-3.08921095126
1555406921615927072,394,1555406921615414961,,-3.0194683075,-1.21995806694,-3.1315575238
1555406921616137779,395,1555406921615457055,,-3.02147674561,-1.22077393532,3.04174652278
1555406921625099566,396,1555406921624626824,,-3.02220392227,-1.22165179253,2.99784877743
1555406921635445245,397,1555406921634960808,,-3.02377009392,-1.22132277489,2.94873853087
1555406921645778196,398,1555406921645305166,,-3.02498936653,-1.22234129906,2.91140959937
1555406921655010396,399,1555406921654575474,,-3.02641010284,-1.22248780727,2.85933318869
1555406921665481746,400,1555406921664944880,,-3.02766799927,-1.2230578661,2.82210536467
1555406921675671599,401,1555406921675239436,,-3.02911758423,-1.22303056717,2.77818484114
1555406921675841366,402,1555406921675270719,,-3.03031778336,-1.22359991074,2.74192781149
1555406921686039488,403,1555406921685559056,,-3.03194713593,-1.22358620167,2.7025727902
1555406921695397246,404,1555406921694931162,,-3.03346037865,-1.22343945503,2.66630890424
1555406921716159461,405,1555406921715623731,,-3.03480672836,-1.22386324406,2.627674962
1555406921716332126,406,1555406921715668673,,-3.03847098351,-1.22300577164,2.56139058596
1555406921725448728,407,1555406921725005577,,-3.04006314278,-1.22295320034,2.53581981856
1555406921735897593,408,1555406921735383714,,-3.04219865799,-1.22258985043,2.51041036731
1555406921745093279,409,1555406921744637602,,-3.04382348061,-1.22161960602,2.47975167075
1555406921755473428,410,1555406921755005414,,-3.04539299011,-1.22080945969,2.45235033408
1555406921765774104,411,1555406921765305467,,-3.04774403572,-1.21999597549,2.44138506559
1555406921765944566,412,1555406921765340062,,-3.04968476295,-1.21940755844,2.42474673594
1555406921775831306,413,1555406921775496878,,-3.05202412605,-1.21849834919,2.4053939943
1555406921785161223,414,1555406921784733330,,-3.05409097672,-1.21723079681,2.38782312291
1555406921795258600,415,1555406921794946094,,-3.05602526665,-1.21630394459,2.3653204773
1555406921815890130,416,1555406921815432508,,-3.05817008018,-1.21557188034,2.350886482
1555406921816101664,417,1555406921815476393,,-3.0624153614,-1.21272706985,2.33892576996
1555406921835336842,418,1555406921834873877,,-3.06518363953,-1.21078133583,2.32556813902
1555406921835493065,419,1555406921834909405,,-3.06720495224,-1.20923638344,2.32447740086
1555406921845281916,420,1555406921845063030,,-3.06954622269,-1.20762610435,2.30453419994
1555406921855448861,421,1555406921855218799,,-3.07194542885,-1.20568215847,2.29607752762
1555406921866048031,422,1555406921865536012,,-3.07467484474,-1.20403778553,2.29581194696
1555406921866199509,423,1555406921865574043,,-3.07771873474,-1.20249211788,2.30436030292
1555406921875219947,424,1555406921874828285,,-3.08011841774,-1.19911527634,2.28640608508
1555406921885267564,425,1555406921885017594,,-3.08291721344,-1.19735562801,2.28438259868
1555406921895812716,426,1555406921895358601,,-3.08609724045,-1.19542312622,2.27621234946
1555406921925709298,427,1555406921925219497,,-3.08853912354,-1.19254243374,2.26510413248
1555406921925889889,428,1555406921925272666,,-3.09847426414,-1.18392169476,2.24254909143
1555406921936196928,429,1555406921935661396,,-3.1020154953,-1.18027806282,2.23055260537
1555406921945472092,430,1555406921944998785,,-3.10499930382,-1.17768037319,2.21708315924
1555406921955453095,431,1555406921955182660,,-3.10896348953,-1.17446029186,2.21536423011
1555406921965962777,432,1555406921965485824,,-3.11266684532,-1.17053389549,2.19633719399
1555406921966113777,433,1555406921965519670,,-3.11610293388,-1.16719353199,2.19185429402
1555406921974949928,434,1555406921974703650,,-3.12006568909,-1.16348099709,2.18185501967
1555406921985487384,435,1555406921985021666,,-3.12424778938,-1.159044981,2.17003692765
1555406921995823871,436,1555406921995364267,,-3.12793064117,-1.15497851372,2.15163146215
1555406922004878005,437,1555406922004595749,,-3.13155889511,-1.15189659595,2.15424659889
1555406922025719891,438,1555406922025247450,,-3.13521790504,-1.14767122269,2.12147294823
1555406922025906386,439,1555406922025286166,,-3.14019656181,-1.14243209362,2.12122563128
1555406922026084299,440,1555406922025318322,,-3.14461898804,-1.13753116131,2.11122799584
1555406922035749235,441,1555406922035506373,,-3.14818930626,-1.13434863091,2.09461704935
1555406922045328643,442,1555406922044852576,,-3.15268468857,-1.12918376923,2.08314731018
1555406922055693913,443,1555406922055210095,,-3.15695285797,-1.1245149374,2.06430626362
1555406922066073819,444,1555406922065609381,,-3.16117858887,-1.1194331646,2.07178067955
1555406922066277450,445,1555406922065645683,,-3.16549992561,-1.1161314249,2.03897967654
1555406922075435096,446,1555406922074969780,,-3.16983222961,-1.11014294624,2.0527310741
1555406922085752817,447,1555406922085302512,,-3.17424368858,-1.10627543926,2.01571136665
1555406922095754504,448,1555406922095482667,,-3.17893958092,-1.10078012943,2.01297866241
1555406922105264959,449,1555406922104751480,,-3.18308901787,-1.09576928616,2.0129405074
1555406922125777807,450,1555406922125299991,,-3.18709540367,-1.09094810486,2.00546773316
1555406922125950847,451,1555406922125341768,,-3.1958463192,-1.08207154274,1.97467705085
1555406922136092354,452,1555406922135570560,,-3.20016527176,-1.07746720314,1.95687669359
1555406922145405962,453,1555406922144912915,,-3.20482993126,-1.0715419054,1.95529763976
1555406922155720683,454,1555406922155238237,,-3.20905947685,-1.06711602211,1.93184031722
1555406922166062454,455,1555406922165579656,,-3.21300053596,-1.06174254417,1.93009156857
1555406922166236187,456,1555406922165638409,,-3.21797990799,-1.0561811924,1.93365380505
1555406922175347290,457,1555406922174953453,,-3.22156310081,-1.05193090439,1.91427738976
1555406922185732952,458,1555406922185314985,,-3.22652101517,-1.04670929909,1.90813499527
1555406922195803603,459,1555406922195551332,,-3.2303917408,-1.0424118042,1.89079962023
1555406922205356634,460,1555406922204904517,,-3.23437070847,-1.03726935387,1.88743225755
1555406922226135744,461,1555406922225653551,,-3.2387406826,-1.0333609581,1.86919280423
1555406922226300353,462,1555406922225693754,,-3.24340963364,-1.02802681923,1.85027126493
1555406922226437341,463,1555406922225727171,,-3.24736833572,-1.02354121208,1.85455177807
1555406922235239781,464,1555406922234938215,,-3.25162148476,-1.01875722408,1.82202684144
1555406922245768928,465,1555406922245296556,,-3.2561109066,-1.01309156418,1.82214681417
1555406922256117260,466,1555406922255646293,,-3.26064777374,-1.00741374493,1.81110536662
1555406922265457276,467,1555406922265020292,,-3.26475930214,-1.0022521019,1.7819148657
1555406922265642080,468,1555406922265058583,,-3.26917719841,-0.998077750206,1.77483735841
1555406922275487785,469,1555406922275271169,,-3.27360773087,-0.992403686047,1.74462163883
1555406922285686176,470,1555406922285465309,,-3.27819728851,-0.98608481884,1.73542498329
1555406922294907172,471,1555406922294632073,,-3.28242182732,-0.98003590107,1.70412397914
1555406922305456402,472,1555406922304978536,,-3.28710365295,-0.974916100502,1.67333039086
1555406922315880177,473,1555406922315356190,,-3.29153800011,-0.96898329258,1.64523159806
1555406922335359153,474,1555406922334858532,,-3.29564785957,-0.963206529617,1.61779351634
1555406922335528461,475,1555406922334901964,,-3.30425000191,-0.951530635357,1.56318755073
1555406922345713574,476,1555406922345212891,,-3.30832982063,-0.944471299648,1.54121334399
1555406922356058011,477,1555406922355551286,,-3.31258058548,-0.939204990864,1.49496995132
1555406922365323843,478,1555406922364884843,,-3.31723022461,-0.933389127254,1.45819191892
1555406922365443073,479,1555406922364921968,,-3.32053995132,-0.926095187664,1.44915910693
1555406922375360076,480,1555406922375114180,,-3.32487845421,-0.920373678207,1.41377861211
1555406922385550977,481,1555406922385326465,,-3.32947683334,-0.911944568157,1.40494683145
1555406922395760667,482,1555406922395538408,,-3.33282184601,-0.908081889153,1.36849167332
1555406922404959357,483,1555406922404742102,,-3.3368473053,-0.902448058128,1.33693608738
1555406922415573016,484,1555406922415160512,,-3.34027242661,-0.893224060535,1.34095138805
1555406922435315278,485,1555406922434813576,,-3.34365391731,-0.887556314468,1.29739279618
1555406922435483212,486,1555406922434852800,,-3.3475651741,-0.880750954151,1.27603182599
1555406922435636474,487,1555406922434884684,,-3.35104799271,-0.874095439911,1.26652225464
1555406922445281681,488,1555406922445059303,,-3.35483837128,-0.865181207657,1.2535772871
1555406922455473274,489,1555406922455244794,,-3.35778450966,-0.858733057976,1.23314933057
1555406922465756381,490,1555406922465513856,,-3.36078429222,-0.852479457855,1.1976004743
1555406922465917317,491,1555406922465542237,,-3.36499714851,-0.844681918621,1.17452561701
1555406922475188495,492,1555406922474811952,,-3.36721515656,-0.837460100651,1.15871913196
1555406922485606023,493,1555406922485181017,,-3.3700299263,-0.828963458538,1.14038526837
1555406922496067100,494,1555406922495570913,,-3.37301087379,-0.821227610111,1.11073470974
1555406922505374043,495,1555406922504870936,,-3.37600016594,-0.813275337219,1.09104938959
1555406922515626616,496,1555406922515194723,,-3.3785545826,-0.805772840977,1.06161656558
1555406922535111848,497,1555406922534650765,,-3.38164424896,-0.798065006733,1.03281232737
1555406922535316399,498,1555406922534695185,,-3.38600277901,-0.780622243881,0.99175953872
1555406922545484211,499,1555406922545016897,,-3.38786435127,-0.771618962288,0.957013980756
1555406922555814183,500,1555406922555389363,,-3.39018940926,-0.763557612896,0.92302353815
1555406922565169870,501,1555406922564679438,,-3.39185667038,-0.754595935345,0.890370171794
1555406922565312888,502,1555406922564714252,,-3.39435148239,-0.746322393417,0.872619434996
1555406922575347377,503,1555406922574981737,,-3.3960647583,-0.737448215485,0.82210011529
1555406922585835100,504,1555406922585345294,,-3.39792299271,-0.728218793869,0.784030173782
1555406922595035731,505,1555406922594584882,,-3.39996194839,-0.719017386436,0.738709706292
1555406922605373331,506,1555406922604921419,,-3.40162539482,-0.710584282875,0.703439063064
1555406922615740529,507,1555406922615293961,,-3.40284442902,-0.700901210308,0.650483486286
1555406922635263093,508,1555406922634782262,,-3.40423536301,-0.692454040051,0.613654088454
1555406922635442119,509,1555406922634824844,,-3.40672087669,-0.673976898193,0.524837416822
1555406922645243820,510,1555406922645006700,,-3.40798258781,-0.664929986,0.47992874881
1555406922655454473,511,1555406922655202087,,-3.40928530693,-0.656011581421,0.432881719763
1555406922666036811,512,1555406922665554928,,-3.41038990021,-0.646874725819,0.386054648283
1555406922666196243,513,1555406922665591864,,-3.41153788567,-0.638228535652,0.344185664356
1555406922675089737,514,1555406922674786208,,-3.41261720657,-0.629054844379,0.296405612725
1555406922685535826,515,1555406922685102287,,-3.41374111176,-0.620230793953,0.249529215589
1555406922695887661,516,1555406922695384523,,-3.41454148293,-0.610151767731,0.191135221419
1555406922705129489,517,1555406922704623301,,-3.41622328758,-0.602188885212,0.154752817906
1555406922715432298,518,1555406922714945337,,-3.41663980484,-0.593228340149,0.108688018628
1555406922715586286,519,1555406922714979394,,-3.41757774353,-0.584274113178,0.0588564780096
1555406922735919970,520,1555406922735416072,,-3.41846036911,-0.575257241726,0.00904487056196
1555406922736101017,521,1555406922735451259,,-3.41903328896,-0.566701054573,-0.0285515459973
1555406922745161145,522,1555406922744664229,,-3.41980433464,-0.558017253876,-0.0763577541703
1555406922755443220,523,1555406922754990622,,-3.42020463943,-0.549058318138,-0.128979738437
1555406922765785484,524,1555406922765310801,,-3.42053389549,-0.540584683418,-0.173184893799
1555406922766005165,525,1555406922765344460,,-3.4213924408,-0.532891392708,-0.209340424484
1555406922776046025,526,1555406922775570384,,-3.42166304588,-0.524339735508,-0.24994518597
1555406922785348457,527,1555406922784878497,,-3.42179608345,-0.516027092934,-0.287427000673
1555406922795725679,528,1555406922795216217,,-3.42235732079,-0.508599758148,-0.326338554427
1555406922806063829,529,1555406922805528871,,-3.42217087746,-0.499905347824,-0.376114283604
1555406922815375939,530,1555406922814863321,,-3.42292189598,-0.493095725775,-0.39733135516
1555406922825618450,531,1555406922825136426,,-3.42283463478,-0.485111802816,-0.431226988275
1555406922845108710,532,1555406922844600213,,-3.42236018181,-0.478357970715,-0.461163821152
1555406922845294754,533,1555406922844643917,,-3.42215776443,-0.463458329439,-0.525252949258
1555406922855396983,534,1555406922854902735,,-3.42252993584,-0.456525981426,-0.551181747719
1555406922865719190,535,1555406922865233027,,-3.42125892639,-0.448985517025,-0.592755448223
1555406922865895017,536,1555406922865265772,,-3.42096948624,-0.443028599024,-0.623906448206
1555406922876010863,537,1555406922875528942,,-3.42001247406,-0.435941159725,-0.656932147504
1555406922885355265,538,1555406922884865520,,-3.41918754578,-0.429744124413,-0.693834448133
1555406922895750431,539,1555406922895240149,,-3.41882777214,-0.423440992832,-0.723913918212
1555406922905895982,540,1555406922905482056,,-3.417740345,-0.417349934578,-0.766153463073
1555406922915443929,541,1555406922914884915,,-3.41704821587,-0.411531925201,-0.789382515769
1555406922925731690,542,1555406922925214833,,-3.41500902176,-0.405903220177,-0.84042365427
1555406922945302312,543,1555406922944822630,,-3.41442203522,-0.400517582893,-0.863483020667
1555406922945496286,544,1555406922944867987,,-3.41196846962,-0.389926701784,-0.924464873053
1555406922955270877,545,1555406922955044371,,-3.41069173813,-0.384599268436,-0.95856889748
1555406922965812800,546,1555406922965339717,,-3.40970873833,-0.380149155855,-0.996082627805
1555406922965969513,547,1555406922965373609,,-3.40787959099,-0.375129103661,-1.02756403509
1555406922975776125,548,1555406922975538416,,-3.40726041794,-0.370140343904,-1.05511955377
1555406922984954349,549,1555406922984732953,,-3.40640592575,-0.366066247225,-1.06595672299
1555406922995536293,550,1555406922995046135,,-3.4045586586,-0.361323416233,-1.1084334862
1555406923005814921,551,1555406923005344092,,-3.40383601189,-0.356972962618,-1.13480399512
1555406923015027193,552,1555406923014586082,,-3.40233135223,-0.352961659431,-1.15618853015
1555406923025289827,553,1555406923024869403,,-3.40101933479,-0.349172890186,-1.17739091132
1555406923025434156,554,1555406923024901007,,-3.39996814728,-0.345092833042,-1.19498235818
1555406923045505020,555,1555406923045253314,,-3.39870786667,-0.341408669949,-1.21488848003
1555406923045647508,556,1555406923045289117,,-3.39781093597,-0.337632358074,-1.24407928516
1555406923055701056,557,1555406923055455258,,-3.39573407173,-0.334515571594,-1.25182396918
1555406923064909647,558,1555406923064607765,,-3.39478373528,-0.331570029259,-1.28119695034
1555406923065054639,559,1555406923064625460,,-3.3934803009,-0.329315632582,-1.29809956657
1555406923075338476,560,1555406923074939427,,-3.39171695709,-0.324921280146,-1.33579737756
1555406923085837250,561,1555406923085300970,,-3.39153194427,-0.322779774666,-1.34018767119
1555406923095043710,562,1555406923094571187,,-3.38998961449,-0.320760935545,-1.36643269412
1555406923105351075,563,1555406923104903165,,-3.38895821571,-0.318401038647,-1.39408794072
1555406923115758320,564,1555406923115278662,,-3.38688182831,-0.315957218409,-1.42304501998
1555406923115944146,565,1555406923115339860,,-3.38628935814,-0.314379781485,-1.43791319606
1555406923126059060,566,1555406923125616474,,-3.38521337509,-0.312416434288,-1.46487074981
1555406923145841997,567,1555406923145324759,,-3.38407683372,-0.310546994209,-1.48873696298
1555406923146009887,568,1555406923145366221,,-3.38292193413,-0.30883154273,-1.51047992447
1555406923155056044,569,1555406923154611465,,-3.38162112236,-0.306748479605,-1.5339431518
1555406923165452425,570,1555406923164973774,,-3.3805680275,-0.305237680674,-1.55717565301
1555406923165619277,571,1555406923165008166,,-3.37964749336,-0.304113000631,-1.57459721506
1555406923175674335,572,1555406923175233060,,-3.37790346146,-0.302075743675,-1.611764894
1555406923185706165,573,1555406923185448589,,-3.37720990181,-0.30085927248,-1.62816846588
1555406923194794090,574,1555406923194571555,,-3.37610912323,-0.299413472414,-1.65374392845
1555406923205350875,575,1555406923204880632,,-3.37478518486,-0.298183232546,-1.67933290874
1555406923215671972,576,1555406923215198406,,-3.37423205376,-0.296473860741,-1.69913286681
1555406923215859760,577,1555406923215231883,,-3.37290000916,-0.2954172194,-1.72239321098
1555406923225962621,578,1555406923225488620,,-3.37225008011,-0.293986052275,-1.73969985844
1555406923255770024,579,1555406923255297637,,-3.37134599686,-0.292360365391,-1.76318889293
1555406923255902764,580,1555406923255343851,,-3.36979103088,-0.290443301201,-1.79846441199
1555406923265972067,581,1555406923265578149,,-3.36888480186,-0.288915663958,-1.8236077798
1555406923265980886,582,1555406923265594784,,-3.36861944199,-0.288335084915,-1.82976033818
1555406923275074878,583,1555406923274795008,,-3.36787843704,-0.287546545267,-1.84427831562
1555406923285265809,584,1555406923285001912,,-3.36664605141,-0.286937057972,-1.8652591737
1555406923295834666,585,1555406923295329202,,-3.3667807579,-0.286308556795,-1.86828209173
1555406923305043136,586,1555406923304569367,,-3.36663985252,-0.285839051008,-1.87592009345
1555406923315433106,587,1555406923314952620,,-3.36652421951,-0.285189837217,-1.88278358898
1555406923315611082,588,1555406923314988052,,-3.36658120155,-0.284721016884,-1.88554585697
1555406923325737082,589,1555406923325257462,,-3.36621069908,-0.284295916557,-1.89314729163
1555406923355558189,590,1555406923355079962,,-3.36618828773,-0.284038722515,-1.89399201761
1555406923355699192,591,1555406923355126102,,-3.36682486534,-0.283497512341,-1.88217451869
1555406923365566284,592,1555406923365310585,,-3.36660432816,-0.282933443785,-1.8878023724
1555406923375941541,593,1555406923375522590,,-3.36688017845,-0.283316552639,-1.87981721845
1555406923376147126,594,1555406923375555023,,-3.3671412468,-0.283409178257,-1.87222350804
1555406923385010135,595,1555406923384737970,,-3.36745095253,-0.283436149359,-1.86421410893
1555406923395577257,596,1555406923395084432,,-3.36775374413,-0.2832287848,-1.85882457469
1555406923405877960,597,1555406923405426231,,-3.36814498901,-0.283352524042,-1.84553250896
1555406923415229334,598,1555406923414688330,,-3.36821842194,-0.28464832902,-1.83045026046
1555406923415235828,599,1555406923414722042,,-3.36854481697,-0.285360783339,-1.81615955351
1555406923425213599,600,1555406923424882801,,-3.36930680275,-0.285660296679,-1.79428719718
1555406923435653341,601,1555406923435219137,,-3.3704419136,-0.285526871681,-1.78338540672
1555406923455178186,602,1555406923454735401,,-3.37053203583,-0.285970598459,-1.77550155522
1555406923455354106,603,1555406923454770711,,-3.37165522575,-0.28647211194,-1.7599050456
1555406923465449429,604,1555406923465007934,,-3.37219619751,-0.287370294333,-1.74394615138
1555406923465594681,605,1555406923465038630,,-3.37282752991,-0.288996696472,-1.72303626587
1555406923475643224,606,1555406923475240588,,-3.37347888947,-0.290033698082,-1.70954223102
1555406923486056404,607,1555406923485558801,,-3.37398076057,-0.291150271893,-1.70571981579
1555406923495373547,608,1555406923494891755,,-3.3749628067,-0.292360186577,-1.69769448164
1555406923505697381,609,1555406923505231119,,-3.37563252449,-0.293699771166,-1.68877324258
1555406923516087643,610,1555406923515556824,,-3.37644052505,-0.295021474361,-1.67857869685
1555406923516283634,611,1555406923515594118,,-3.37614822388,-0.297181218863,-1.68460421452
1555406923525309287,612,1555406923524868158,,-3.37705230713,-0.298827201128,-1.67962743099
1555406923535708996,613,1555406923535231889,,-3.37780714035,-0.300735086203,-1.67519657414
1555406923555463176,614,1555406923554874429,,-3.37844085693,-0.302585989237,-1.67723092246
1555406923555487502,615,1555406923554907553,,-3.37888097763,-0.304248899221,-1.69032321546
1555406923565356332,616,1555406923565099242,,-3.3796620369,-0.307684063911,-1.6829761082
1555406923565543210,617,1555406923565134932,,-3.3801305294,-0.309458822012,-1.69255710061
1555406923575598188,618,1555406923575315620,,-3.38089370728,-0.312177419662,-1.68976518586
1555406923585796126,619,1555406923585529484,,-3.38172149658,-0.315693706274,-1.68751377756
1555406923595320627,620,1555406923594839957,,-3.38174200058,-0.318227678537,-1.69567785349
1555406923605671627,621,1555406923605207890,,-3.3830883503,-0.321102887392,-1.69775894808
1555406923616065704,622,1555406923615535416,,-3.3835542202,-0.324725538492,-1.70156202883
1555406923616235995,623,1555406923615581561,,-3.38437700272,-0.32796511054,-1.70764341793
1555406923625009739,624,1555406923624774392,,-3.38495779037,-0.331888496876,-1.71455163783
1555406923635221613,625,1555406923634969257,,-3.38596749306,-0.335725456476,-1.71263804965
1555406923666173807,626,1555406923665679632,,-3.38642382622,-0.339487671852,-1.72814367606
1555406923666346447,627,1555406923665732018,,-3.38856673241,-0.352552771568,-1.74447601965
1555406923675438661,628,1555406923675013011,,-3.39040470123,-0.356456816196,-1.75099101194
1555406923685780288,629,1555406923685306661,,-3.3908393383,-0.361664175987,-1.75668185668
1555406923696125663,630,1555406923695644621,,-3.3918030262,-0.366665273905,-1.76486178672
1555406923705452494,631,1555406923705018581,,-3.39243149757,-0.371603637934,-1.77494727887
1555406923715878239,632,1555406923715379923,,-3.39376091957,-0.376779854298,-1.7811411174
1555406923716059377,633,1555406923715419046,,-3.3949649334,-0.382086753845,-1.7835145959
1555406923725079191,634,1555406923724656847,,-3.3959171772,-0.38714915514,-1.79801011732
1555406923735452216,635,1555406923735024885,,-3.39707040787,-0.393127799034,-1.80310160687
1555406923745866287,636,1555406923745398489,,-3.39762401581,-0.398502290249,-1.81756262481
1555406923765548157,637,1555406923764976591,,-3.39902019501,-0.40368783474,-1.82280974252
1555406923765557783,638,1555406923765017425,,-3.40056467056,-0.410215109587,-1.81535383466
1555406923765714876,639,1555406923765045224,,-3.40187621117,-0.416105806828,-1.81715409775
1555406923775461000,640,1555406923775230770,,-3.40284466743,-0.421892523766,-1.8262927937
1555406923785642729,641,1555406923785404871,,-3.40445756912,-0.427983701229,-1.82653811142
1555406923794770537,642,1555406923794541583,,-3.40698099136,-0.433998197317,-1.79384749147
1555406923805323828,643,1555406923804887820,,-3.40719151497,-0.440613627434,-1.81388961972
1555406923815692612,644,1555406923815253146,,-3.40861082077,-0.446733534336,-1.81116047203
1555406923815861988,645,1555406923815291167,,-3.41041135788,-0.453012257814,-1.80504304376
1555406923825709740,646,1555406923825466885,,-3.41202831268,-0.459009587765,-1.806640281
1555406923834827271,647,1555406923834584800,,-3.41358828545,-0.465205162764,-1.80536378268
1555406923845394453,648,1555406923844930164,,-3.41499018669,-0.471597224474,-1.80302953328
1555406923866119095,649,1555406923865599615,,-3.41724967957,-0.478282660246,-1.78723976961
1555406923866286467,650,1555406923865641642,,-3.41865253448,-0.485132277012,-1.77796553891
1555406923866433689,651,1555406923865667139,,-3.42019867897,-0.491550654173,-1.77436650276
1555406923875077829,652,1555406923874854303,,-3.42241549492,-0.497388541698,-1.76145629122
1555406923885390672,653,1555406923885081062,,-3.42340397835,-0.504337608814,-1.76049426105
1555406923895876089,654,1555406923895414297,,-3.42501473427,-0.510705590248,-1.75344916354
1555406923904976522,655,1555406923904605433,,-3.42672348022,-0.517824828625,-1.73896443493
1555406923915658015,656,1555406923915166003,,-3.42846989632,-0.524456441402,-1.73056183869
1555406923915808686,657,1555406923915205308,,-3.43045067787,-0.530557870865,-1.72567637733
1555406923926024610,658,1555406923925595898,,-3.43246555328,-0.536936879158,-1.71399241506
1555406923935419755,659,1555406923934969787,,-3.43394517899,-0.54391092062,-1.70495092053
1555406923945816429,660,1555406923945366085,,-3.43521618843,-0.550963103771,-1.70663169931
1555406923965460799,661,1555406923964969130,,-3.43695569038,-0.558132648468,-1.69006233169
1555406923965619251,662,1555406923965007941,,-3.43918347359,-0.564562678337,-1.69330662429
1555406923965755174,663,1555406923965040760,,-3.44118571281,-0.571826159954,-1.68196429711
1555406923975466817,664,1555406923975212807,,-3.44310665131,-0.579059243202,-1.65770514076
1555406923986025111,665,1555406923985522064,,-3.44620108604,-0.586754024029,-1.61845926406
1555406923995364576,666,1555406923994896693,,-3.44665265083,-0.594507336617,-1.65175270054
1555406924005716420,667,1555406924005243880,,-3.44816207886,-0.602848172188,-1.64468363456
1555406924016147450,668,1555406924015622523,,-3.45024752617,-0.609823703766,-1.64561296743
