%time,field.header.seq,field.header.stamp,field.header.frame_id,field.point.x,field.point.y,field.point.z
1554974545498732570,1,1554974545498221078,,-0.471003979445,0.370222896338,-1.27751042928
1554974545498903326,2,1554974545498261327,,-0.473237454891,0.370407670736,-1.28639849141
1554974545509058483,3,1554974545508604943,,-0.475469768047,0.370459139347,-1.29892172462
1554974545518436314,4,1554974545517974684,,-0.477241098881,0.370653986931,-1.30813628309
1554974545528795018,5,1554974545528329261,,-0.479471534491,0.370783030987,-1.31764354804
1554974545538056703,6,1554974545537577797,,-0.48151487112,0.371160179377,-1.32907247761
1554974545548359169,7,1554974545547905069,,-0.483549177647,0.371337085962,-1.33973462402
1554974545548581617,8,1554974545547939809,,-0.485656261444,0.371757626534,-1.34933042471
1554974545558739462,9,1554974545558247173,,-0.487639725208,0.371709674597,-1.36670080174
1554974545569122743,10,1554974545568587158,,-0.490005463362,0.371968895197,-1.37730861193
1554974545588612924,11,1554974545588171902,,-0.492069214582,0.372457325459,-1.39043280165
1554974545588789727,12,1554974545588209265,,-0.494279563427,0.372661530972,-1.41107512914
1554974545599034548,13,1554974545598559671,,-0.496555566788,0.372892975807,-1.42822314203
1554974545599197940,14,1554974545598596735,,-0.499008357525,0.373470932245,-1.44282129148
1554974545608114451,15,1554974545607740194,,-0.501385807991,0.373508661985,-1.46522095555
1554974545618545757,16,1554974545618054775,,-0.503983795643,0.373705685139,-1.4854648867
1554974545628903652,17,1554974545628401057,,-0.506351649761,0.37416318059,-1.51062958476
1554974545638113117,18,1554974545637647086,,-0.508947968483,0.374660879374,-1.5349446365
1554974545648510446,19,1554974545648003599,,-0.511273443699,0.375119328499,-1.56036579935
1554974545648649844,20,1554974545648039750,,-0.514146745205,0.375656276941,-1.58748487297
1554974545658526533,21,1554974545658222149,,-0.516798198223,0.376025497913,-1.61627946861
1554974545669062377,22,1554974545668583860,,-0.519384980202,0.376716554165,-1.64431834598
1554974545688620575,23,1554974545688127550,,-0.522250175476,0.377306908369,-1.67499887927
1554974545688795944,24,1554974545688157914,,-0.524952769279,0.377982795238,-1.70864323043
1554974545699112521,25,1554974545698512435,,-0.527690887451,0.378503203392,-1.74540893388
1554974545699299507,26,1554974545698550367,,-0.530577778816,0.37932959199,-1.78015262451
1554974545708345199,27,1554974545707856719,,-0.533507049084,0.379984080791,-1.81502833262
1554974545718723422,28,1554974545718224829,,-0.536257445812,0.380969554186,-1.85217825921
1554974545729083785,29,1554974545728609885,,-0.539297997952,0.381689637899,-1.89033528334
1554974545738438553,30,1554974545737956305,,-0.542420804501,0.382704615593,-1.92997597116
1554974545748818126,31,1554974545748316330,,-0.545322239399,0.383535116911,-1.96809894017
1554974545749002822,32,1554974545748353250,,-0.548192441463,0.384281009436,-2.01271929575
1554974545758136800,33,1554974545757583718,,-0.551066279411,0.385090619326,-2.05423905053
1554974545768472831,34,1554974545767966708,,-0.55379575491,0.386040955782,-2.0918105434
1554974545789055488,35,1554974545788580139,,-0.556669294834,0.386953383684,-2.13369162462
1554974545789221300,36,1554974545788612758,,-0.559126257896,0.387714833021,-2.17765113939
1554974545798368203,37,1554974545797900253,,-0.561749994755,0.388800054789,-2.21703333999
1554974545798543456,38,1554974545797932101,,-0.564403891563,0.389789491892,-2.25916786328
1554974545808729095,39,1554974545808257734,,-0.56693148613,0.390447288752,-2.30129504806
1554974545819115681,40,1554974545818642676,,-0.569407880306,0.391486048698,-2.34061358014
1554974545828394037,41,1554974545827956775,,-0.571872234344,0.392407059669,-2.37890823905
1554974545838811499,42,1554974545838320564,,-0.574422121048,0.393489509821,-2.41959892858
1554974545848145331,43,1554974545847657968,,-0.57691526413,0.394371986389,-2.46156619887
1554974545848302058,44,1554974545847693571,,-0.579412043095,0.395680516958,-2.50669357952
1554974545858446244,45,1554974545857996509,,-0.581776976585,0.396914720535,-2.54360572493
1554974545868814587,46,1554974545868384464,,-0.584373950958,0.398170232773,-2.59066821301
1554974545898780987,47,1554974545898324703,,-0.587002635002,0.399755209684,-2.62709140593
1554974545899827604,48,1554974545898377281,,-0.594740986824,0.404889553785,-2.74868768174
1554974545908074714,49,1554974545907602253,,-0.597340166569,0.407123446465,-2.78596949746
1554974545918460207,50,1554974545917967011,,-0.599890589714,0.409216940403,-2.82736918978
1554974545928807353,51,1554974545928349003,,-0.602510690689,0.411386787891,-2.86548985573
1554974545938067598,52,1554974545937608698,,-0.605183243752,0.413824856281,-2.90630024858
1554974545948417898,53,1554974545947943799,,-0.607681274414,0.416465163231,-2.94360313258
1554974545948591996,54,1554974545947979263,,-0.610346138477,0.419154584408,-2.98473225662
1554974545958789638,55,1554974545958306802,,-0.61266708374,0.421964585781,-3.02480665638
1554974545968010836,56,1554974545967559621,,-0.61517816782,0.42486974597,-3.06374366664
1554974545978380352,57,1554974545977928951,,-0.617625594139,0.428250104189,-3.1009355508
1554974545999027997,58,1554974545998558647,,-0.620078742504,0.43105790019,3.1405125945
1554974545999200066,59,1554974545998603429,,-0.624724686146,0.438333362341,3.06068749191
1554974546008043857,60,1554974546007772443,,-0.626723647118,0.441921561956,3.0225203724
1554974546018581777,61,1554974546018119229,,-0.628872156143,0.445648610592,2.98420338249
1554974546028981004,62,1554974546028499474,,-0.630842506886,0.449434190989,2.94225665065
1554974546038238562,63,1554974546037804678,,-0.632872700691,0.453118830919,2.90419237346
1554974546048626393,64,1554974546048155207,,-0.63479167223,0.457336634398,2.86523093909
1554974546048797360,65,1554974546048191438,,-0.636521816254,0.46107211709,2.82914171636
1554974546058982806,66,1554974546058527343,,-0.63830190897,0.465261995792,2.79135762368
1554974546068092281,67,1554974546067818791,,-0.64004856348,0.469344228506,2.75745061619
1554974546078642577,68,1554974546078180335,,-0.641698241234,0.473640948534,2.7271878142
1554974546098317650,69,1554974546097837222,,-0.643183946609,0.477853149176,2.69341031511
1554974546098496505,70,1554974546097881862,,-0.646039485931,0.486255824566,2.63292243914
1554974546108322339,71,1554974546108049936,,-0.647451460361,0.490521758795,2.6050439827
1554974546118498649,72,1554974546118242618,,-0.648864448071,0.494801223278,2.57415002907
1554974546128920815,73,1554974546128471908,,-0.650164484978,0.499407827854,2.55253582737
1554974546138044354,74,1554974546137751017,,-0.651380121708,0.503462791443,2.521927187
1554974546148286858,75,1554974546147984796,,-0.652776241302,0.507853329182,2.50008390046
1554974546148460206,76,1554974546148002484,,-0.654034674168,0.512048482895,2.47394446719
1554974546158454986,77,1554974546158170054,,-0.65515178442,0.516134500504,2.4451989847
1554974546168701749,78,1554974546168433126,,-0.656447827816,0.520115315914,2.42268932386
1554974546177841389,79,1554974546177560509,,-0.657525122166,0.524565041065,2.40100802841
1554974546198514782,80,1554974546198060875,,-0.658940732479,0.528410613537,2.37577386678
1554974546198681868,81,1554974546198104352,,-0.661489367485,0.536713302135,2.32905178047
1554974546208921341,82,1554974546208431458,,-0.66266733408,0.540569782257,2.30483178896
1554974546218315162,83,1554974546217804154,,-0.664037704468,0.544574975967,2.28159675125
1554974546228623017,84,1554974546228183624,,-0.6650826931,0.54827272892,2.2618885288
1554974546238970779,85,1554974546238492679,,-0.666152358055,0.552211582661,2.24546686023
1554974546248311405,86,1554974546247814534,,-0.667088866234,0.55615478754,2.22550935265
1554974546248508233,87,1554974546247851500,,-0.668129622936,0.559736013412,2.20818064638
1554974546258651145,88,1554974546258180469,,-0.669095098972,0.563808560371,2.19465973989
1554974546269050955,89,1554974546268550310,,-0.669833242893,0.567601561546,2.18396910773
1554974546278320492,90,1554974546277872131,,-0.670652985573,0.571399390697,2.16986086849
1554974546288956791,91,1554974546288495232,,-0.671244382858,0.57540333271,2.15817998399
1554974546308431594,92,1554974546307986466,,-0.671719491482,0.579127311707,2.14833273176
1554974546308582235,93,1554974546308030593,,-0.672946512699,0.586826443672,2.13155903239
1554974546318468345,94,1554974546318218510,,-0.673372924328,0.590646207333,2.12726752797
1554974546328953988,95,1554974546328534032,,-0.673667252064,0.594603478909,2.12076600144
1554974546338370812,96,1554974546337914915,,-0.674110770226,0.598444223404,2.11946484631
1554974546348759456,97,1554974546348272164,,-0.674657285213,0.601962983608,2.10837134925
1554974546349460503,98,1554974546348307816,,-0.674935817719,0.605822622776,2.11050498157
1554974546359166653,99,1554974546358638367,,-0.675389170647,0.609327435493,2.10390236134
1554974546368511626,100,1554974546367966812,,-0.675746679306,0.613163053989,2.10635147352
1554974546378759717,101,1554974546378283893,,-0.676010489464,0.616718709469,2.10068980307
1554974546389111994,102,1554974546388636778,,-0.676504313946,0.620248019695,2.09948899633
1554974546408752670,103,1554974546408249000,,-0.676943182945,0.623759806156,2.09804611375
1554974546408905192,104,1554974546408294755,,-0.677752614021,0.630695998669,2.09568587596
1554974546418770760,105,1554974546418488419,,-0.678225934505,0.634265124798,2.09608631722
1554974546428230675,106,1554974546427797650,,-0.678540170193,0.637853324413,2.10117892292
1554974546438590488,107,1554974546438119604,,-0.678991436958,0.64108890295,2.09711301168
1554974546448949309,108,1554974546448492089,,-0.679698765278,0.644459307194,2.0945268555
1554974546449110436,109,1554974546448529093,,-0.680107593536,0.647499144077,2.09342429377
1554974546458061346,110,1554974546457749620,,-0.680709302425,0.651081621647,2.09820479539
1554974546468617929,111,1554974546468113372,,-0.681047976017,0.65395706892,2.09345927496
1554974546478893329,112,1554974546478449854,,-0.681828975677,0.65753442049,2.09952856347
1554974546488177743,113,1554974546487765089,,-0.682293713093,0.660397469997,2.09855284069
1554974546508960991,114,1554974546508496394,,-0.682813405991,0.663650512695,2.10576581701
1554974546509111732,115,1554974546508540881,,-0.684185624123,0.66980445385,2.10698774162
1554974546517993717,116,1554974546517731421,,-0.684659898281,0.672715127468,2.10981992622
1554974546528510999,117,1554974546528036464,,-0.685262143612,0.675945520401,2.11383782379
1554974546538920746,118,1554974546538425162,,-0.685830771923,0.678604543209,2.11596741735
1554974546548211096,119,1554974546547755542,,-0.686515152454,0.681797027588,2.12264037421
1554974546548388141,120,1554974546547796249,,-0.686855494976,0.684603214264,2.12941168271
1554974546558607359,121,1554974546558150561,,-0.68703597784,0.68778014183,2.13852465694
1554974546568952927,122,1554974546568512987,,-0.687511146069,0.690712034702,2.14565613195
1554974546578236672,123,1554974546577851856,,-0.687820672989,0.693676114082,2.15805265726
1554974546588687279,124,1554974546588207482,,-0.687746345997,0.696712255478,2.17754375139
1554974546609083770,125,1554974546608647773,,-0.687963306904,0.699652552605,2.19119203875
1554974546609221245,126,1554974546608686772,,-0.687916874886,0.702658951283,2.20694529492
1554974546609356384,127,1554974546608714684,,-0.688017249107,0.705629646778,2.21796666149
1554974546618101445,128,1554974546617890459,,-0.687834501266,0.708877623081,2.24260141516
1554974546628369413,129,1554974546628098976,,-0.687586963177,0.711345016956,2.26058415589
1554974546638942798,130,1554974546638475035,,-0.687305092812,0.713955700397,2.27897444
1554974546648324274,131,1554974546647880467,,-0.687357008457,0.716574728489,2.29215310161
1554974546648480085,132,1554974546647921035,,-0.687182664871,0.719081163406,2.30468652618
1554974546658764107,133,1554974546658293653,,-0.686610102654,0.721933424473,2.32604942781
1554974546667985983,134,1554974546667561453,,-0.686218976974,0.724647521973,2.33802950862
1554974546678413582,135,1554974546677939718,,-0.685887336731,0.727442145348,2.35388472521
1554974546688768658,136,1554974546688318569,,-0.685499191284,0.729860961437,2.36736495925
1554974546699054629,137,1554974546698605531,,-0.685307741165,0.732798099518,2.37915528185
1554974546718875555,138,1554974546718223290,,-0.684595942497,0.735600590706,2.39148007994
1554974546718884407,139,1554974546718261694,,-0.684125542641,0.738244533539,2.40174947564
1554974546719031099,140,1554974546718290193,,-0.683593153954,0.741027235985,2.41011688292
1554974546728758300,141,1554974546728493057,,-0.683308839798,0.74384021759,2.41896568668
1554974546738264211,142,1554974546737807512,,-0.682893157005,0.746379077435,2.42323946112
1554974546748653953,143,1554974546748184876,,-0.682435691357,0.749005019665,2.43124105571
1554974546748837972,144,1554974546748226364,,-0.681993246078,0.751717865467,2.43692759204
1554974546759098386,145,1554974546758604233,,-0.681405842304,0.754319667816,2.44876106325
1554974546768434484,146,1554974546767984010,,-0.681083142757,0.756660580635,2.4557849931
1554974546778832367,147,1554974546778367066,,-0.681092143059,0.757238924503,2.4562737903
1554974546787837087,148,1554974546787554129,,-0.680999040604,0.757724761963,2.45498156188
1554974546798298728,149,1554974546797858420,,-0.680977225304,0.758080780506,2.45289211971
1554974546818954657,150,1554974546818475337,,-0.680950760841,0.757623970509,2.45204683191
1554974546819107118,151,1554974546818520472,,-0.680801153183,0.757025420666,2.45076445028
1554974546819254050,152,1554974546818555188,,-0.680752158165,0.75635188818,2.44639239522
1554974546828104524,153,1554974546827829150,,-0.680601716042,0.75567471981,2.44344434905
1554974546838657857,154,1554974546838185316,,-0.680478930473,0.755144000053,2.44422870727
1554974546849009353,155,1554974546848520578,,-0.680428147316,0.754523277283,2.44417119145
1554974546849173159,156,1554974546848555803,,-0.680478870869,0.753807425499,2.44298557415
1554974546858357605,157,1554974546857931351,,-0.680450558662,0.753149569035,2.44295666051
1554974546868448141,158,1554974546868198033,,-0.680575966835,0.752580463886,2.44167005138
1554974546878607522,159,1554974546878353514,,-0.680613160133,0.75202947855,2.43941490983
1554974546888026482,160,1554974546887574340,,-0.680718958378,0.751631200314,2.43724686838
1554974546898413586,161,1554974546897962942,,-0.680750668049,0.751205682755,2.43517869383
1554974546919273832,162,1554974546918643261,,-0.680777192116,0.750874876976,2.43331744734
1554974546919323684,163,1554974546918688530,,-0.68085449934,0.750338792801,2.43175703564
1554974546928123354,164,1554974546927877718,,-0.6808847785,0.750222682953,2.43026525349
1554974546938662532,165,1554974546938192789,,-0.68087542057,0.750126600266,2.43018471575
1554974546949042151,166,1554974546948551141,,-0.680972456932,0.750033020973,2.42829931089
1554974546949263315,167,1554974546948587984,,-0.680815458298,0.750192761421,2.42885667737
1554974546958270855,168,1554974546957816647,,-0.680680453777,0.7502835989,2.42896542792
1554974546968624252,169,1554974546968138832,,-0.68038213253,0.750463783741,2.42926210167
1554974546980007000,170,1554974546979511610,,-0.680137455463,0.750746190548,2.42911650172
1554974546988041493,171,1554974546987768146,,-0.679806828499,0.751111149788,2.42933429853
1554974546998426339,172,1554974546997992808,,-0.6793410182,0.75154453516,2.42888037366
1554974546998587260,173,1554974546998023587,,-0.679003715515,0.752132356167,2.42927523828
1554974547018961853,174,1554974547018493038,,-0.678519070148,0.752628862858,2.4288871784
1554974547019100882,175,1554974547018532179,,-0.677933394909,0.753295898438,2.43070532362
1554974547028003398,176,1554974547027706601,,-0.677239716053,0.754047393799,2.43246343666
1554974547038504909,177,1554974547038040273,,-0.676517128944,0.755067229271,2.4379121046
1554974547049469863,178,1554974547048360119,,-0.675751626492,0.755649268627,2.44093904848
1554974547049478269,179,1554974547048393979,,-0.675059974194,0.7562546134,2.4455169968
1554974547058096274,180,1554974547057582726,,-0.674447894096,0.756891071796,2.45083867918
1554974547068371416,181,1554974547067904297,,-0.673758685589,0.757590174675,2.45681368423
1554974547078595684,182,1554974547078185920,,-0.673035085201,0.75827640295,2.46508212453
1554974547088959831,183,1554974547088516694,,-0.672413647175,0.758925497532,2.47366335085
1554974547098225109,184,1554974547097761408,,-0.671554982662,0.759441256523,2.48098574552
1554974547098393450,185,1554974547097792975,,-0.670739233494,0.760299801826,2.49014148219
1554974547129099375,186,1554974547128522904,,-0.669846832752,0.761204779148,2.50290275921
1554974547129290650,187,1554974547128566445,,-0.668987214565,0.76220458746,2.51492389343
1554974547129495414,188,1554974547128594717,,-0.668328821659,0.763108551502,2.52281096934
1554974547138305615,189,1554974547137883748,,-0.667424678802,0.76419198513,2.5345343744
1554974547148707247,190,1554974547148235366,,-0.666747927666,0.765260338783,2.54219371355
1554974547148866033,191,1554974547148268178,,-0.66584944725,0.766334354877,2.54991605846
1554974547158719920,192,1554974547158455721,,-0.66503316164,0.767517805099,2.55839268711
1554974547168257292,193,1554974547167782552,,-0.664216935635,0.768954217434,2.56807957876
1554974547178493862,194,1554974547178086939,,-0.663374900818,0.770216584206,2.56894332374
1554974547188920247,195,1554974547188446809,,-0.662619709969,0.771610319614,2.57233099758
1554974547198204330,196,1554974547197772770,,-0.661676764488,0.773016870022,2.5759206521
1554974547198353736,197,1554974547197805563,,-0.660661160946,0.774879455566,2.58292140365
1554974547228116862,198,1554974547227648660,,-0.659962534904,0.776182234287,2.57894036149
1554974547228264629,199,1554974547227693078,,-0.657863378525,0.779973387718,2.57726646258
1554974547238111153,200,1554974547237861650,,-0.656471312046,0.781939268112,2.58001187636
1554974547248610067,201,1554974547248166128,,-0.65553021431,0.783623099327,2.57423171611
1554974547248768785,202,1554974547248210512,,-0.654296636581,0.785775601864,2.57315580151
1554974547258757134,203,1554974547258416464,,-0.653028666973,0.788108170033,2.57183110635
1554974547268121668,204,1554974547267665217,,-0.651742875576,0.790230512619,2.56956497691
1554974547278382034,205,1554974547277990863,,-0.650053977966,0.792631745338,2.56793647206
1554974547289104417,206,1554974547288617937,,-0.648550391197,0.795059978962,2.56542184839
1554974547298262339,207,1554974547297905380,,-0.647003829479,0.797710716724,2.56577435007
1554974547298452707,208,1554974547297947839,,-0.645314872265,0.800497055054,2.56337396862
1554974547318037415,209,1554974547317554781,,-0.643644154072,0.803149759769,2.56178056517
1554974547328324906,210,1554974547327889752,,-0.641837596893,0.805909276009,2.55798313447
1554974547328461266,211,1554974547327927660,,-0.640036821365,0.808879196644,2.55918679642
1554974547338503771,212,1554974547338192615,,-0.638343691826,0.811600387096,2.5563672943
1554974547348980032,213,1554974547348541627,,-0.63633954525,0.814824044704,2.55737015426
1554974547349155722,214,1554974547348581719,,-0.634598553181,0.817593872547,2.55531438945
1554974547358057574,215,1554974547357795844,,-0.632770478725,0.820491611958,2.55225447205
1554974547368222214,216,1554974547367994678,,-0.630946516991,0.823346972466,2.55189116343
1554974547378812049,217,1554974547378364312,,-0.629239082336,0.826143920422,2.55200693961
1554974547388147739,218,1554974547387633143,,-0.62737351656,0.82907128334,2.55156598167
1554974547398358154,219,1554974547397936531,,-0.625742137432,0.8317964077,2.55185714274
1554974547398535218,220,1554974547397976952,,-0.623883783817,0.834753155708,2.54761141284
1554974547408717559,221,1554974547408284546,,-0.622346937656,0.837440490723,2.54766435019
1554974547428369274,222,1554974547427925364,,-0.620611071587,0.840325891972,2.54576570379
1554974547428518523,223,1554974547427965827,,-0.618802249432,0.84313082695,2.5470175697
1554974547438669445,224,1554974547438273750,,-0.617094218731,0.846062123775,2.54653278821
1554974547449094219,225,1554974547448661688,,-0.615152001381,0.848893404007,2.54561082268
1554974547449305030,226,1554974547448702999,,-0.6132401824,0.852150976658,2.54417398157
1554974547458534546,227,1554974547458074816,,-0.611190915108,0.855263054371,2.54412126194
1554974547468912015,228,1554974547468442870,,-0.609098255634,0.85860991478,2.54829315935
1554974547478116537,229,1554974547477723499,,-0.606937408447,0.861895024776,2.54436719742
1554974547488564137,230,1554974547488079619,,-0.604640960693,0.865445375443,2.54938478342
1554974547498885012,231,1554974547498401753,,-0.602242290974,0.868938565254,2.54799870371
1554974547499010364,232,1554974547498440809,,-0.599968850613,0.872680604458,2.55141875542
1554974547507897087,233,1554974547507624842,,-0.597361147404,0.876615643501,2.5542325132
1554974547539087075,234,1554974547538585812,,-0.594785571098,0.880360245705,2.55295146237
1554974547539248255,235,1554974547538626070,,-0.592022001743,0.884344637394,2.55686709966
1554974547539405091,236,1554974547538658954,,-0.58937227726,0.888295769691,2.55969841953
1554974547548047584,237,1554974547547832952,,-0.586427032948,0.892610371113,2.5605849469
1554974547548209463,238,1554974547547863190,,-0.583529531956,0.896988093853,2.56333126762
1554974547558278801,239,1554974547558049402,,-0.580693364143,0.901223838329,2.56490260335
1554974547568895818,240,1554974547568412643,,-0.577434539795,0.905703723431,2.5671563008
1554974547578156292,241,1554974547577747593,,-0.574351668358,0.910311579704,2.56910977775
1554974547588540353,242,1554974547588079400,,-0.571065545082,0.915261507034,2.57354689933
1554974547599004699,243,1554974547598441113,,-0.567715764046,0.920134782791,2.57700147732
1554974547599046638,244,1554974547598481240,,-0.564222812653,0.925025165081,2.57826666995
1554974547618124802,245,1554974547617813923,,-0.560776233673,0.930108904839,2.58226333758
1554974547638922536,246,1554974547638450123,,-0.557296872139,0.93508118391,2.5837472651
1554974547639101534,247,1554974547638496017,,-0.550372242928,0.945679008961,2.59034901672
1554974547648251184,248,1554974547647812970,,-0.546502768993,0.951030671597,2.59503933495
1554974547648414943,249,1554974547647850082,,-0.543131172657,0.955975651741,2.59909529161
1554974547658333323,250,1554974547658093386,,-0.539539575577,0.961155772209,2.59658056089
1554974547668500057,251,1554974547668286632,,-0.536076962948,0.966375887394,2.59960013999
1554974547678987965,252,1554974547678543251,,-0.532678246498,0.971663892269,2.60879028071
1554974547688401608,253,1554974547687906243,,-0.529103219509,0.976618170738,2.61068687679
1554974547698679863,254,1554974547698183805,,-0.525846481323,0.981834411621,2.61365075564
1554974547698847274,255,1554974547698218817,,-0.522369980812,0.987075746059,2.61693318788
1554974547708975237,256,1554974547708481856,,-0.51899510622,0.992244541645,2.6184723627
1554974547718285849,257,1554974547717808326,,-0.515683829784,0.997428178787,2.62112811476
1554974547738886427,258,1554974547738420307,,-0.512206315994,1.00263655186,2.63072685124
1554974547739089057,259,1554974547738457073,,-0.508635401726,1.00783157349,2.63113156274
1554974547747901675,260,1554974547747649826,,-0.504982769489,1.01337921619,2.63764960635
1554974547748049062,261,1554974547747667866,,-0.501402676105,1.01873934269,2.64186329564
1554974547758303038,262,1554974547758031724,,-0.497842043638,1.02414524555,2.6433758841
1554974547768853484,263,1554974547768384691,,-0.494265645742,1.02985465527,2.64784972314
1554974547778085122,264,1554974547777633714,,-0.490097075701,1.03556323051,2.65218921182
1554974547788099121,265,1554974547787813319,,-0.486465394497,1.04159069061,2.65682838877
1554974547798571672,266,1554974547798090773,,-0.482589691877,1.04777705669,2.66436339986
1554974547798718738,267,1554974547798124824,,-0.478607028723,1.05391407013,2.66813118046
1554974547808900832,268,1554974547808417621,,-0.474475890398,1.06008803844,2.67477036721
1554974547818134526,269,1554974547817670489,,-0.470370620489,1.06632292271,2.67644698607
1554974547838776551,270,1554974547838291054,,-0.466125011444,1.07284319401,2.68139883197
1554974547838948371,271,1554974547838327376,,-0.461892038584,1.07980704308,2.69023894249
1554974547848031656,272,1554974547847557936,,-0.457626968622,1.08615446091,2.69001026393
1554974547848176364,273,1554974547847594996,,-0.453221172094,1.09309184551,2.69371512781
1554974547858389123,274,1554974547857924809,,-0.44874766469,1.10004329681,2.69799753911
1554974547868389678,275,1554974547868124643,,-0.444349855185,1.10732257366,2.70507808845
1554974547878844236,276,1554974547878409570,,-0.439734905958,1.11449658871,2.70993409131
1554974547888141843,277,1554974547887660762,,-0.435088545084,1.12200558186,2.71742824231
1554974547898374491,278,1554974547897951420,,-0.430333584547,1.12943291664,2.72380953279
1554974547898545370,279,1554974547897987077,,-0.425625026226,1.13683903217,2.72490618328
1554974547908696967,280,1554974547908227974,,-0.420699983835,1.14468550682,2.73699779329
1554974547919061977,281,1554974547918588014,,-0.415807753801,1.15252232552,2.73866891319
1554974547949156483,282,1554974547948653049,,-0.410836875439,1.16036105156,2.7498524384
1554974547949366385,283,1554974547948706712,,-0.395658016205,1.18442666531,2.77825439698
1554974547958501518,284,1554974547958038269,,-0.390569418669,1.19282221794,2.78549371504
1554974547968905461,285,1554974547968411785,,-0.385416328907,1.20100998878,2.8031555299
1554974547978152151,286,1554974547977665670,,-0.380110561848,1.20939087868,2.81579251561
1554974547988531182,287,1554974547988043350,,-0.375034719706,1.21742522717,2.82856433172
1554974547998822381,288,1554974547998359801,,-0.369682163,1.22604382038,2.84843351591
1554974547998969956,289,1554974547998395795,,-0.364479213953,1.23411130905,2.86518812404
1554974548008097148,290,1554974548007619392,,-0.359345883131,1.24269211292,2.88073550312
1554974548018546271,291,1554974548018005898,,-0.353782057762,1.25151753426,2.90841377671
1554974548028853432,292,1554974548028371627,,-0.348325669765,1.25983989239,2.92777918379
1554974548048374168,293,1554974548047880105,,-0.343224078417,1.26854157448,2.95216658192
1554974548048553628,294,1554974548047924468,,-0.332588076591,1.28638851643,3.00721889687
1554974548058751110,295,1554974548058280057,,-0.32716947794,1.29485189915,3.03030113475
1554974548069136925,296,1554974548068659397,,-0.321818113327,1.30385160446,3.0644963178
1554974548078387074,297,1554974548077980376,,-0.316412121058,1.31246566772,3.09365181997
1554974548088770925,298,1554974548088306458,,-0.311156004667,1.32110846043,3.11930144277
1554974548099082407,299,1554974548098635832,,-0.305932939053,1.33041059971,-3.1224822957
1554974548099232701,300,1554974548098671912,,-0.300649851561,1.33911335468,-3.0867814157
1554974548108087527,301,1554974548107861243,,-0.295275777578,1.34846067429,-3.04899902375
1554974548118697977,302,1554974548118210440,,-0.289898753166,1.35710191727,-3.01602018547
1554974548128986898,303,1554974548128517617,,-0.284738510847,1.36660265923,-2.97005334226
1554974548148611833,304,1554974548148115685,,-0.279510259628,1.37575757504,-2.93266101456
1554974548148787702,305,1554974548148158228,,-0.269144356251,1.39465141296,-2.84840908888
1554974548158960387,306,1554974548158502863,,-0.264201045036,1.40425109863,-2.8064091497
1554974548168360330,307,1554974548167872230,,-0.259202837944,1.41403746605,-2.76405635227
1554974548178648712,308,1554974548178177478,,-0.254303514957,1.42383575439,-2.72162343906
1554974548188995524,309,1554974548188553455,,-0.249578341842,1.43382418156,-2.68098048513
1554974548198277407,310,1554974548197835291,,-0.244921669364,1.44392490387,-2.6386619567
1554974548198402835,311,1554974548197870705,,-0.240126416087,1.45414888859,-2.59462847618
1554974548208361266,312,1554974548208058315,,-0.235751464963,1.4640930891,-2.55132818348
1554974548218904400,313,1554974548218412010,,-0.231225207448,1.47449123859,-2.51016429366
1554974548228106493,314,1554974548227651892,,-0.226947382092,1.48480021954,-2.46653414236
1554974548248833250,315,1554974548248259109,,-0.222448974848,1.49533772469,-2.42296085977
1554974548248998753,316,1554974548248302981,,-0.213967248797,1.51594853401,-2.33588867394
1554974548258895900,317,1554974548258520973,,-0.209763884544,1.526278615,-2.292321658
1554974548268347073,318,1554974548267842454,,-0.205557823181,1.53660702705,-2.24974007039
1554974548278638638,319,1554974548278165764,,-0.201390177011,1.54632139206,-2.20939122955
1554974548288154126,320,1554974548287662544,,-0.197185873985,1.55667257309,-2.167227455
1554974548298329991,321,1554974548297903609,,-0.19300852716,1.56663835049,-2.12768048069
1554974548298483014,322,1554974548297935783,,-0.188950374722,1.57650947571,-2.08577110633
1554974548308670121,323,1554974548308199342,,-0.185041025281,1.58651673794,-2.04746380966
1554974548319050566,324,1554974548318576053,,-0.180909782648,1.59641385078,-2.00736610031
1554974548328420763,325,1554974548327923596,,-0.176795914769,1.60632777214,-1.9623253702
1554974548358342137,326,1554974548357826464,,-0.1729747504,1.6162674427,-1.91910529141
1554974548358554697,327,1554974548357879062,,-0.161424174905,1.64545881748,-1.78664218384
1554974548368364950,328,1554974548368123388,,-0.157737225294,1.65517151356,-1.74126379123
1554974548378930038,329,1554974548378406682,,-0.154172480106,1.66506040096,-1.6876437389
1554974548388140516,330,1554974548387651739,,-0.150512769818,1.67467677593,-1.63917471421
1554974548398529468,331,1554974548397971444,,-0.147133857012,1.68440568447,-1.58732503296
1554974548398536749,332,1554974548398007452,,-0.143622130156,1.69398999214,-1.53645533442
1554974548408829488,333,1554974548408347351,,-0.14037387073,1.70377445221,-1.48114786244
1554974548418056726,334,1554974548417587482,,-0.137099117041,1.71324789524,-1.42698137531
1554974548428379407,335,1554974548427921662,,-0.133697599173,1.72289383411,-1.36715952611
1554974548438654549,336,1554974548438202344,,-0.13047619164,1.73232853413,-1.31173332725
1554974548458311990,337,1554974548457834984,,-0.12746219337,1.74169158936,-1.25054265626
1554974548458493517,338,1554974548457880490,,-0.121206529438,1.76082122326,-1.12372772075
1554974548468711852,339,1554974548468184471,,-0.118285827339,1.77010679245,-1.05795032255
1554974548478921655,340,1554974548478506502,,-0.115402847528,1.77914452553,-0.998037854451
1554974548488248463,341,1554974548487793933,,-0.112198375165,1.78850162029,-0.929473242681
1554974548498665736,342,1554974548498101779,,-0.109451770782,1.79752385616,-0.86582295947
1554974548498674371,343,1554974548498135095,,-0.106658786535,1.80709218979,-0.797302781912
1554974548508951110,344,1554974548508476899,,-0.103637576103,1.81587505341,-0.717182988708
1554974548518376573,345,1554974548517844894,,-0.100816190243,1.82495832443,-0.652710713402
1554974548528707751,346,1554974548528212533,,-0.0977865308523,1.83349359035,-0.575505381569
1554974548539098300,347,1554974548538608391,,-0.0950209051371,1.84249198437,-0.498518667356
1554974548558746650,348,1554974548558258674,,-0.0920865982771,1.8517459631,-0.428505457337
1554974548558915703,349,1554974548558304656,,-0.0858746245503,1.86924529076,-0.277642972917
1554974548569071159,350,1554974548568618209,,-0.0830282494426,1.87847042084,-0.208185193653
1554974548578404730,351,1554974548577944843,,-0.0798679590225,1.88748466969,-0.131669832328
1554974548588698969,352,1554974548588231059,,-0.0769189819694,1.89656662941,-0.0609508759802
1554974548599039894,353,1554974548598589830,,-0.0739515200257,1.9054838419,0.0154139404565
1554974548599190310,354,1554974548598625438,,-0.0706592127681,1.91439270973,0.0933587200845
1554974548618073929,355,1554974548617602117,,-0.0675403699279,1.92353224754,0.17092692049
1554974548618221188,356,1554974548617638793,,-0.0644996985793,1.93257164955,0.247251878916
1554974548628088234,357,1554974548627835136,,-0.0615676045418,1.94166910648,0.319319394638
1554974548638640363,358,1554974548638081402,,-0.0584993995726,1.95058894157,0.395933651047
1554974548658159529,359,1554974548657683571,,-0.0554845780134,1.95977222919,0.469286811004
1554974548658372293,360,1554974548657730822,,-0.0493955239654,1.97794413567,0.621190865803
1554974548668213963,361,1554974548667951146,,-0.0463507734239,1.98692107201,0.701105922625
1554974548678761763,362,1554974548678288971,,-0.0437237471342,1.99605047703,0.775194707678
1554974548689115309,363,1554974548688671539,,-0.040857065469,2.00510311127,0.845588010638
1554974548698459772,364,1554974548697994825,,-0.0377304218709,2.01430940628,0.927952898051
1554974548708847495,365,1554974548708364216,,-0.035199791193,2.02334856987,1.00076671541
1554974548709005670,366,1554974548708411468,,-0.0324467532337,2.03216862679,1.07700995786
1554974548717772314,367,1554974548717519294,,-0.0295174177736,2.04151463509,1.15195475353
1554974548728303062,368,1554974548727838243,,-0.0269042626023,2.05041027069,1.2306856424
1554974548738566101,369,1554974548738119428,,-0.0242102649063,2.05924081802,1.30771422798
1554974548748847623,370,1554974548748399600,,-0.0217117443681,2.06805992126,1.3908455729
1554974548768319047,371,1554974548767838329,,-0.0191964395344,2.07714509964,1.46830778455
1554974548768474578,372,1554974548767887610,,-0.0135473934934,2.0946264267,1.63106146862
1554974548778339961,373,1554974548778070364,,-0.0106574539095,2.10327005386,1.71544523445
1554974548788506077,374,1554974548788265211,,-0.00797650124878,2.11194992065,1.79887689779
1554974548799007845,375,1554974548798566396,,-0.00498856790364,2.12048006058,1.88232688851
1554974548808372617,376,1554974548807899346,,-0.00220158882439,2.12892246246,1.96980831165
1554974548808509625,377,1554974548807940219,,0.000684764701873,2.13747930527,2.05750580274
1554974548818759041,378,1554974548818298486,,0.00394457112998,2.14596700668,2.15378784872
1554974548829144895,379,1554974548828645243,,0.0066447686404,2.15446090698,2.24153013409
1554974548838414140,380,1554974548837949523,,0.00935996044427,2.16299772263,2.33234194836
1554974548848728603,381,1554974548848274599,,0.0124443117529,2.171626091,2.42125175379
1554974548878536724,382,1554974548878034510,,0.0156627576798,2.18006491661,2.51466515261
1554974548878727386,383,1554974548878086028,,0.0246800631285,2.20592260361,2.79263823924
1554974548888824777,384,1554974548888387002,,0.0278458073735,2.21458935738,2.8824139472
1554974548898095391,385,1554974548897616306,,0.0309960823506,2.223331213,2.97643657065
1554974548898230173,386,1554974548897652831,,0.033835336566,2.23258209229,3.07192282064
1554974548908483861,387,1554974548907970348,,0.0368632376194,2.24130630493,-3.11746087027
1554974548918867542,388,1554974548918309988,,0.0398362614214,2.25012373924,-3.02948572318
1554974548928088130,389,1554974548927559358,,0.0427400320768,2.25921010971,-2.93446740577
1554974548938307117,390,1554974548937842389,,0.0455814599991,2.2681851387,-2.85170448016
1554974548948649115,391,1554974548948156985,,0.048426669091,2.27716326714,-2.75941290387
1554974548968221918,392,1554974548967751992,,0.0512331053615,2.28630304337,-2.67647946081
1554974548968381804,393,1554974548967796714,,0.0566149353981,2.30456185341,-2.50209123667
1554974548978367302,394,1554974548978013590,,0.0589814819396,2.31369972229,-2.42098935256
1554974548988849507,395,1554974548988373021,,0.0616613961756,2.32275938988,-2.34261640913
1554974548998024090,396,1554974548997571188,,0.0639021247625,2.33205580711,-2.26014269674
1554974548998151937,397,1554974548997607689,,0.0663222819567,2.34110307693,-2.18452883086
1554974549008331190,398,1554974549007874499,,0.0684252604842,2.3504319191,-2.10428537785
1554974549018733335,399,1554974549018251403,,0.0707066804171,2.35930037498,-2.02915629211
1554974549029064180,400,1554974549028629866,,0.0728855282068,2.36801743507,-1.95409054657
1554974549038401514,401,1554974549037950478,,0.0750165805221,2.37734603882,-1.87957672293
1554974549048778844,402,1554974549048324807,,0.0773020982742,2.38641238213,-1.8059403997
1554974549068308360,403,1554974549067829102,,0.0791018679738,2.39494800568,-1.73053410912
1554974549068452947,404,1554974549067873119,,0.0832640230656,2.41265654564,-1.59063650739
1554974549078297398,405,1554974549078022806,,0.0852982252836,2.42098426819,-1.515211353
1554974549088826728,406,1554974549088368150,,0.0874993279576,2.42951917648,-1.44411801052
1554974549098045220,407,1554974549097581983,,0.0896359533072,2.4380004406,-1.37282886905
1554974549098168415,408,1554974549097618036,,0.0918676778674,2.44685554504,-1.30828184584
1554974549108385363,409,1554974549107937663,,0.0943783149123,2.45505452156,-1.23338479304
1554974549118801739,410,1554974549118316849,,0.0961604565382,2.46330142021,-1.16003025468
1554974549129101491,411,1554974549128568815,,0.0984583422542,2.47170329094,-1.09188163624
1554974549138366599,412,1554974549137893896,,0.100249394774,2.48012948036,-1.03520051402
1554974549148734634,413,1554974549148253507,,0.102665647864,2.48812627792,-0.959395946458
1554974549148919968,414,1554974549148290445,,0.104541733861,2.49655795097,-0.895495374722
1554974549178590362,415,1554974549178171914,,0.106681272388,2.50426673889,-0.825784809512
1554974549178723513,416,1554974549178213650,,0.110767364502,2.52039170265,-0.711293367258
1554974549188754389,417,1554974549188460003,,0.112651132047,2.52813816071,-0.644033256612
1554974549198270452,418,1554974549197804227,,0.114480607212,2.53574490547,-0.58238002922
1554974549198409884,419,1554974549197839278,,0.116552308202,2.54316854477,-0.528529201144
1554974549208662904,420,1554974549208190591,,0.118140079081,2.55067873001,-0.475505116694
1554974549228452387,421,1554974549227928504,,0.120176203549,2.55838370323,-0.424362641469
1554974549228642189,422,1554974549227966045,,0.121748670936,2.5659506321,-0.371609290851
1554974549238670461,423,1554974549238203652,,0.123742856085,2.57297706604,-0.31275204741
1554974549249132727,424,1554974549248609269,,0.125469103456,2.58082485199,-0.266041141752
1554974549249310396,425,1554974549248649980,,0.127208381891,2.58785533905,-0.211180190979
1554974549298946367,426,1554974549298504908,,0.129035100341,2.59472441673,-0.153414354005
1554974549299097503,427,1554974549298540556,,0.130886599422,2.60182523727,-0.0993475260394
1554974549299340130,428,1554974549298595243,,0.136314257979,2.62281179428,0.076769331359
1554974549299347408,429,1554974549298618350,,0.138074070215,2.62981176376,0.135335477497
1554974549308135050,430,1554974549307796119,,0.139934271574,2.63671994209,0.19589883512
1554974549318659224,431,1554974549318157794,,0.141458392143,2.64366531372,0.257608352842
1554974549328946097,432,1554974549328491768,,0.14341121912,2.65033721924,0.321867620636
1554974549338297930,433,1554974549337816255,,0.145128726959,2.65735054016,0.38642761856
1554974549348645966,434,1554974549348176196,,0.146924585104,2.66416764259,0.453737130363
1554974549348787768,435,1554974549348212940,,0.148761287332,2.67086672783,0.517708394355
1554974549378224389,436,1554974549377794701,,0.150556579232,2.67765641212,0.58310686677
1554974549378367203,437,1554974549377826642,,0.152248948812,2.68443369865,0.648029894286
1554974549388239160,438,1554974549387978463,,0.154027625918,2.69135069847,0.71255105701
1554974549388406114,439,1554974549387995862,,0.155552268028,2.69792318344,0.779197999047
1554974549398707797,440,1554974549398282150,,0.157316982746,2.70455956459,0.85028277895
1554974549398862054,441,1554974549398316646,,0.159144803882,2.71130108833,0.9140001474
1554974549409098529,442,1554974549408658062,,0.160645514727,2.71820521355,0.977047823383
1554974549418505747,443,1554974549418030728,,0.162392273545,2.72484230995,1.04739330245
1554974549428817143,444,1554974549428370230,,0.163961067796,2.73140859604,1.11471796918
1554974549438112166,445,1554974549437620872,,0.165519475937,2.73810195923,1.17819899565
1554974549448414929,446,1554974549447953223,,0.167277604342,2.74453377724,1.24873315789
1554974549448552610,447,1554974549447989077,,0.168929442763,2.75105905533,1.31371899052
1554974549458390726,448,1554974549458141222,,0.170800030231,2.75743436813,1.38222840373
1554974549479082630,449,1554974549478574322,,0.172749891877,2.76388549805,1.45228401189
1554974549479330850,450,1554974549478613763,,0.174467802048,2.77000331879,1.51341337213
1554974549488360563,451,1554974549487868223,,0.176659777761,2.77633953094,1.5806203248
1554974549498762279,452,1554974549498179618,,0.178812980652,2.7827501297,1.64770894503
1554974549498772159,453,1554974549498215128,,0.181102961302,2.78865408897,1.71343486186
1554974549509036218,454,1554974549508555912,,0.183580055833,2.79488325119,1.78154700811
1554974549518415430,455,1554974549517932622,,0.185961171985,2.80078315735,1.84849237981
1554974549528775989,456,1554974549528267675,,0.188560456038,2.80701971054,1.92028897501
1554974549539002866,457,1554974549538556578,,0.191294357181,2.81306600571,1.98828143581
1554974549548322516,458,1554974549547871184,,0.193752855062,2.81930303574,2.05836329724
1554974549548498640,459,1554974549547906766,,0.196362242103,2.82545137405,2.1314298131
1554974549558667325,460,1554974549558210550,,0.198810040951,2.83168911934,2.20517883645
1554974549578147105,461,1554974549577710915,,0.2019431144,2.83774828911,2.27792936802
1554974549578297669,462,1554974549577742650,,0.204706355929,2.8438782692,-2.19951062217
1554974549588159120,463,1554974549587895487,,0.207520753145,2.85004544258,2.4309262115
1554974549598674737,464,1554974549598187460,,0.210547223687,2.85601758957,2.50462579505
1554974549598822176,465,1554974549598222187,,0.213184431195,2.86217212677,2.58731272979
1554974549608622454,466,1554974549608371175,,0.215759560466,2.86848497391,2.66051788507
1554974549618037994,467,1554974549617587025,,0.218548327684,2.87467265129,2.7428185845
1554974549628418574,468,1554974549627924178,,0.221788451076,2.88101029396,2.81925221215
1554974549638674878,469,1554974549638215771,,0.22441765666,2.88678359985,2.89397561615
1554974549648982665,470,1554974549648528352,,0.227369144559,2.89328837395,2.98007994146
1554974549649126878,471,1554974549648564327,,0.230235487223,2.90015053749,3.06547929238
1554974549658008021,472,1554974549657713347,,0.233205854893,2.90642023087,-3.14157140796
1554974549689188644,473,1554974549688612948,,0.235983118415,2.91275572777,-3.06456891348
1554974549689219107,474,1554974549688659674,,0.241808518767,2.92641735077,-2.90118381784
1554974549698381093,475,1554974549697931957,,0.244593039155,2.93343710899,-2.81579178843
1554974549698520171,476,1554974549697966455,,0.247493743896,2.94027376175,-2.73564493202
1554974549708421513,477,1554974549708118786,,0.249963998795,2.94733047485,-2.6580706647
1554974549718862144,478,1554974549718420543,,0.252565592527,2.95428299904,-2.58196626202
1554974549728111692,479,1554974549727656047,,0.255224525928,2.9610888958,-2.50243430896
1554974549738401864,480,1554974549737934258,,0.257801443338,2.96809577942,-2.42244643806
1554974549748719035,481,1554974549748246904,,0.260273069143,2.97526073456,-2.33801255675
1554974549748845016,482,1554974549748282484,,0.262766182423,2.98205661774,-2.26168755748
1554974549759046193,483,1554974549758587323,,0.265585362911,2.98905730247,-2.17987082814
1554974549788668860,484,1554974549788227797,,0.268012344837,2.99599814415,-2.10015139706
1554974549788789229,485,1554974549788264741,,0.272933751345,3.00977993011,-1.94042119528
1554974549798737923,486,1554974549798445430,,0.275465518236,3.01606726646,-1.86447826122
1554974549798899891,487,1554974549798462540,,0.277778059244,3.02306103706,-1.79023009266
1554974549808260877,488,1554974549807798521,,0.280105978251,3.02950429916,-1.7072564247
1554974549818655719,489,1554974549818175582,,0.282916367054,3.03609776497,-1.63390265067
1554974549828875968,490,1554974549828458686,,0.285425305367,3.04231953621,-1.55767488531
1554974549838462919,491,1554974549837769932,,0.287712931633,3.04862070084,-1.48170752566
1554974549848602320,492,1554974549848148517,,0.290053993464,3.05540800095,-1.40809365565
1554974549848749208,493,1554974549848180120,,0.292746275663,3.06158590317,-1.34134916047
1554974549859006305,494,1554974549858527180,,0.295039176941,3.06706666946,-1.26628563093
1554974549867977751,495,1554974549867729767,,0.297271311283,3.07376480103,-1.19452507672
1554974549888870847,496,1554974549888371351,,0.299699395895,3.07945466042,-1.12398310967
1554974549888995447,497,1554974549888410493,,0.302021563053,3.0858976841,-1.05842960282
1554974549897791005,498,1554974549897514092,,0.304052948952,3.09141898155,-0.99183886615
1554974549897939884,499,1554974549897530152,,0.306281477213,3.09760856628,-0.931283277129
1554974549908230641,500,1554974549907752307,,0.308405131102,3.10333132744,-0.872223077291
1554974549918566177,501,1554974549918089005,,0.310384482145,3.10881996155,-0.802292137681
1554974549928892984,502,1554974549928409409,,0.312105029821,3.11444759369,-0.749256239969
1554974549938100951,503,1554974549937653863,,0.314470112324,3.11987948418,-0.695951453897
1554974549948463657,504,1554974549947984790,,0.31628498435,3.12530207634,-0.642570198786
1554974549948646515,505,1554974549948020450,,0.317970752716,3.13068532944,-0.588021216475
1554974549958432817,506,1554974549958171441,,0.319914668798,3.13568663597,-0.54135667833
1554974549968922245,507,1554974549968478462,,0.321612924337,3.14097309113,-0.4906051174
1554974549988541386,508,1554974549988040094,,0.323540985584,3.14598560333,-0.446327797278
1554974549988767673,509,1554974549988076754,,0.325193792582,3.1509771347,-0.399079318705
1554974549998960442,510,1554974549998377261,,0.327217906713,3.15558385849,-0.356503779965
1554974549999029637,511,1554974549998411933,,0.328880876303,3.1601164341,-0.314770639087
1554974550008097775,512,1554974550007629731,,0.330641210079,3.16496229172,-0.277032970949
1554974550018437213,513,1554974550017968520,,0.332084804773,3.16954731941,-0.237506584473
1554974550028776552,514,1554974550028290227,,0.333931088448,3.17382907867,-0.201804120563
1554974550039106636,515,1554974550038631589,,0.335501611233,3.17824864388,-0.168920934984
1554974550048449843,516,1554974550047961813,,0.33713516593,3.18250370026,-0.137957593351
1554974550048608657,517,1554974550047997804,,0.338808715343,3.18660569191,-0.107464446423
1554974550058764091,518,1554974550058283331,,0.340564548969,3.19046974182,-0.0785315450464
1554974550069046098,519,1554974550068600468,,0.342089354992,3.19448804855,-0.0498342163242
1554974550099000041,520,1554974550098539753,,0.343749940395,3.19825839996,-0.026951961484
1554974550099150161,521,1554974550098591699,,0.348770707846,3.20906543732,0.03695986569
1554974550108331521,522,1554974550107860617,,0.350369274616,3.2121784687,0.0560324812262
1554974550118674557,523,1554974550118197711,,0.352076411247,3.21576666832,0.0730639820822
1554974550128995974,524,1554974550128538202,,0.353833347559,3.21865797043,0.0846119488974
1554974550138372123,525,1554974550137913525,,0.355543851852,3.22213864326,0.102405375798
1554974550148742666,526,1554974550148286140,,0.357301175594,3.22494697571,0.105556702085
1554974550148880056,527,1554974550148321744,,0.358662068844,3.22778892517,0.127146026704
1554974550159082501,528,1554974550158595199,,0.360546529293,3.23064303398,0.128543542404
1554974550168448102,529,1554974550167967899,,0.36217918992,3.23308444023,0.140232449338
1554974550178720532,530,1554974550178270930,,0.363988995552,3.23572325706,0.145045064629
1554974550198393045,531,1554974550197908608,,0.365663141012,3.23820781708,0.150875648728
1554974550198558216,532,1554974550197953226,,0.369015485048,3.24282407761,0.155477753192
1554974550208434253,533,1554974550208141131,,0.370803743601,3.2448425293,0.156821184923
1554974550218923073,534,1554974550218456449,,0.372484117746,3.24690556526,0.154847664679
1554974550228263806,535,1554974550227798206,,0.374630540609,3.24880313873,0.144771678398
1554974550238628564,536,1554974550238169772,,0.376005023718,3.25064706802,0.147516699166
1554974550248974054,537,1554974550248493863,,0.377958536148,3.2524998188,0.138852282899
1554974550249166621,538,1554974550248528381,,0.379734158516,3.25385260582,0.137255528129
1554974550258331411,539,1554974550257870055,,0.381081014872,3.25583291054,0.136551879105
1554974550268686541,540,1554974550268214721,,0.38313344121,3.25743818283,0.129656635534
1554974550279046152,541,1554974550278597158,,0.384749531746,3.25889658928,0.131241051546
1554974550298824626,542,1554974550298366466,,0.386498332024,3.26025342941,0.133738688163
1554974550298980197,543,1554974550298397327,,0.388118863106,3.26145291328,0.131551848923
1554974550299104822,544,1554974550298441079,,0.389855086803,3.2628967762,0.137901430308
1554974550308163073,545,1554974550307688193,,0.391669094563,3.2638733387,0.136867908251
1554974550318586884,546,1554974550318058687,,0.393356055021,3.26527404785,0.143423729425
1554974550328867894,547,1554974550328398642,,0.394693464041,3.26625132561,0.15218821237
1554974550338122905,548,1554974550337641747,,0.396404743195,3.26711130142,0.161657733999
1554974550348469136,549,1554974550348011876,,0.398005217314,3.26791667938,0.168360760653
1554974550348684008,550,1554974550348049950,,0.399375408888,3.26901555061,0.179352067368
1554974550358845872,551,1554974550358360451,,0.401019245386,3.26988816261,0.184775608441
1554974550368081647,552,1554974550367618282,,0.40266263485,3.27050948143,0.193768166795
1554974550378484519,553,1554974550377983843,,0.404394060373,3.27102947235,0.19609062508
1554974550399285537,554,1554974550398664527,,0.405840367079,3.27164626122,0.208963941515
1554974550399335569,555,1554974550398705567,,0.40748283267,3.27196121216,0.212483322371
1554974550399543307,556,1554974550398738202,,0.40924462676,3.27251172066,0.216791698487
1554974550408542029,557,1554974550408091999,,0.41103515029,3.27253079414,0.214772449492
1554974550418955213,558,1554974550418479581,,0.412441372871,3.27300977707,0.22390214454
1554974550428309190,559,1554974550427861689,,0.413928031921,3.27303051949,0.223267348619
1554974550438724224,560,1554974550438140497,,0.415585428476,3.27338218689,0.223383967544
1554974550448983182,561,1554974550448525902,,0.417140305042,3.27353549004,0.230464304952
1554974550449141922,562,1554974550448563267,,0.4188182652,3.27375078201,0.232296473529
1554974550458319864,563,1554974550457862800,,0.420519292355,3.27405500412,0.234097402427
1554974550468696657,564,1554974550468227689,,0.421894550323,3.27441120148,0.236015444253
1554974550478972245,565,1554974550478538369,,0.423279583454,3.27470493317,0.244353414117
1554974550498604634,566,1554974550498131120,,0.424596071243,3.27495574951,0.248690883398
1554974550498785858,567,1554974550498173192,,0.427967011929,3.27521800995,0.254407628725
1554974550508977918,568,1554974550508511533,,0.429363101721,3.27524447441,0.255675965121
1554974550518321944,569,1554974550517859232,,0.430767506361,3.27546811104,0.25962746314
1554974550528689627,570,1554974550528211907,,0.431945115328,3.27587389946,0.262463552626
1554974550539045192,571,1554974550538588258,,0.43333876133,3.27570509911,0.272373542163
1554974550548432593,572,1554974550547949311,,0.434826672077,3.27624058723,0.270130989746
1554974550548627581,573,1554974550547985743,,0.43638920784,3.27628946304,0.270263322427
1554974550558430026,574,1554974550558150840,,0.437847077847,3.2762055397,0.271075961059
1554974550568953524,575,1554974550568483136,,0.43915733695,3.27614116669,0.270228318029
1554974550578233632,576,1554974550577793344,,0.440398335457,3.27611279488,0.272019324563
1554974550588535821,577,1554974550588072999,,0.44161683321,3.2760925293,0.271237545279
1554974550608280108,578,1554974550607602151,,0.443206995726,3.27569627762,0.263334135906
1554974550608287680,579,1554974550607639708,,0.444774359465,3.27547764778,0.255734767841
1554974550618176094,580,1554974550617871850,,0.446319133043,3.27505135536,0.246637984119
1554974550618325253,581,1554974550617889178,,0.447395324707,3.2746732235,0.244518452861
1554974550628379959,582,1554974550628079919,,0.448931246996,3.27410531044,0.234198899146
1554974550638846083,583,1554974550638301257,,0.450713992119,3.27333593369,0.213531275414
1554974550649119005,584,1554974550648649431,,0.452232897282,3.27259731293,0.205542892718
1554974550649266375,585,1554974550648685109,,0.453217744827,3.27194213867,0.1981851015
1554974550658099265,586,1554974550657838793,,0.454538971186,3.27114605904,0.1866022387
1554974550668283135,587,1554974550668028454,,0.45598629117,3.27016448975,0.169249900345
1554974550678842286,588,1554974550678376543,,0.457653164864,3.2691411972,0.146811218859
1554974550687892917,589,1554974550687577270,,0.458786189556,3.26839113235,0.129925068122
1554974550708694376,590,1554974550708216455,,0.460055798292,3.26743412018,0.111964235242
1554974550708850752,591,1554974550708262202,,0.462783426046,3.2648665905,0.0657308422091
1554974550718783751,592,1554974550718486574,,0.463852286339,3.26368975639,0.0450669094746
1554974550728289302,593,1554974550727836371,,0.464946448803,3.26258254051,0.0239616339403
1554974550738677430,594,1554974550738203500,,0.466200381517,3.26102614403,-0.00371529108262
1554974550749026018,595,1554974550748574783,,0.467375814915,3.25963759422,-0.0260319381755
1554974550749169461,596,1554974550748611856,,0.468480557203,3.25805139542,-0.0511361434463
1554974550758026514,597,1554974550757763747,,0.469530642033,3.25629019737,-0.0781293044784
1554974550768194837,598,1554974550767923334,,0.470554351807,3.25447750092,-0.100478250783
1554974550778682376,599,1554974550778229720,,0.471449196339,3.25246930122,-0.124155815123
1554974550789041062,600,1554974550788570003,,0.472330003977,3.25044202805,-0.147599405634
1554974550808637572,601,1554974550808148115,,0.47321754694,3.24819087982,-0.174589410329
1554974550808805100,602,1554974550808189490,,0.47449657321,3.24387121201,-0.225730048483
1554974550819014239,603,1554974550818537318,,0.475240886211,3.2412981987,-0.247926530737
1554974550828299009,604,1554974550827873100,,0.475676774979,3.23878216743,-0.268202837304
1554974550838655190,605,1554974550838199815,,0.476303160191,3.23622226715,-0.292890825254
1554974550848951942,606,1554974550848501759,,0.476835042238,3.23329424858,-0.309404171357
1554974550849107526,607,1554974550848532377,,0.477219372988,3.23088979721,-0.329609657656
1554974550857905294,608,1554974550857682285,,0.477777838707,3.22815275192,-0.351901294687
1554974550868098800,609,1554974550867837164,,0.478108942509,3.22536063194,-0.370176726146
1554974550878621274,610,1554974550878146544,,0.478179723024,3.22269701958,-0.379845429564
1554974550888933783,611,1554974550888489873,,0.478538513184,3.21969532967,-0.398300886136
1554974550898222210,612,1554974550897788537,,0.478564858437,3.21676206589,-0.402580371056
1554974550908647702,613,1554974550908161837,,0.478448092937,3.21408057213,-0.415914026932
1554974550908816181,614,1554974550908198426,,0.478324055672,3.21117568016,-0.427475315593
1554974550919017927,615,1554974550918539236,,0.478446632624,3.20782756805,-0.430944190349
1554974550928308159,616,1554974550927867279,,0.477996617556,3.20517849922,-0.441722535328
1554974550938688131,617,1554974550938224551,,0.477854311466,3.20193815231,-0.44941193392
1554974550949033838,618,1554974550948580355,,0.477659553289,3.19863080978,-0.452081475546
1554974550949176172,619,1554974550948615953,,0.476833850145,3.19521594048,-0.465716520004
1554974550958035129,620,1554974550957796636,,0.476695537567,3.1919760704,-0.467054040262
1554974550968586752,621,1554974550968118432,,0.476255476475,3.18830537796,-0.471944009243
1554974550978905044,622,1554974550978446435,,0.475325345993,3.1848962307,-0.480407056593
1554974550988233912,623,1554974550987774730,,0.474616497755,3.18129730225,-0.486626764232
1554974550998601140,624,1554974550998135512,,0.473703116179,3.17749047279,-0.488550816854
1554974551018328495,625,1554974551017843304,,0.472938537598,3.17356395721,-0.494916161864
1554974551018477729,626,1554974551017887557,,0.470547199249,3.16593384743,-0.506167616513
1554974551028292360,627,1554974551028069489,,0.469377219677,3.16161394119,-0.508770908065
1554974551038766598,628,1554974551038270701,,0.468237668276,3.15760326385,-0.515374931035
1554974551048989257,629,1554974551048571798,,0.466824769974,3.15350651741,-0.519142955301
1554974551049136170,630,1554974551048601986,,0.465354979038,3.14913630486,-0.525020115381
1554974551058385731,631,1554974551057905308,,0.463698714972,3.14448165894,-0.524583122723
1554974551068716968,632,1554974551068256642,,0.462056696415,3.14022541046,-0.534676175313
1554974551078941214,633,1554974551078505757,,0.460213214159,3.1356523037,-0.54248030711
1554974551088257718,634,1554974551087817135,,0.458475500345,3.1310968399,-0.546500757369
1554974551098678556,635,1554974551098177835,,0.456439673901,3.12615895271,-0.544991072408
1554974551118412526,636,1554974551117900086,,0.454324483871,3.12128400803,-0.555331056637
1554974551118570097,637,1554974551117944866,,0.449971109629,3.11185765266,-0.563482053242
1554974551128750202,638,1554974551128280123,,0.447754323483,3.10662412643,-0.565452585149
1554974551139042199,639,1554974551138578109,,0.445292562246,3.10169529915,-0.569986425349
1554974551148405823,640,1554974551147935137,,0.442710697651,3.09659409523,-0.573064125557
1554974551148576197,641,1554974551147970517,,0.440263420343,3.09160208702,-0.574558223987
1554974551158759461,642,1554974551158280792,,0.437536269426,3.08625936508,-0.568231649328
1554974551169053517,643,1554974551168617000,,0.435180068016,3.08144497871,-0.570432289817
1554974551178158773,644,1554974551177890399,,0.432489544153,3.07627940178,-0.568460903128
1554974551188655890,645,1554974551188184058,,0.429593682289,3.07119035721,-0.559724692163
1554974551198943809,646,1554974551198497610,,0.4269284904,3.06607484818,-0.558671078547
1554974551218761488,647,1554974551218156003,,0.42410993576,3.06072616577,-0.549412380414
1554974551218791258,648,1554974551218201620,,0.418327778578,3.05030059814,-0.531323508433
1554974551228646117,649,1554974551228374751,,0.415340274572,3.04515528679,-0.52647746974
1554974551238076019,650,1554974551237611056,,0.412505507469,3.04013490677,-0.519066344754
1554974551248531716,651,1554974551247973837,,0.409637153149,3.0350189209,-0.50990879976
1554974551248690707,652,1554974551248009213,,0.406821250916,3.02982163429,-0.500641631019
1554974551258772741,653,1554974551258297774,,0.403788268566,3.0248875618,-0.488091211074
1554974551269079198,654,1554974551268630157,,0.400932371616,3.0198764801,-0.475334241588
1554974551278344396,655,1554974551277898946,,0.398104339838,3.01478791237,-0.466595903657
1554974551288883719,656,1554974551288405633,,0.395378053188,3.00995135307,-0.453628423229
1554974551298013197,657,1554974551297564989,,0.392333745956,3.00503587723,-0.444285007835
1554974551298243477,658,1554974551297595765,,0.389556854963,3.00021529198,-0.431703636827
1554974551318688154,659,1554974551318205881,,0.386722296476,2.99553155899,-0.418197510728
1554974551318867202,660,1554974551318244091,,0.384194225073,2.9908053875,-0.406950960814
1554974551329037023,661,1554974551328586729,,0.381283670664,2.98604345322,-0.399686216442
1554974551338367557,662,1554974551337911773,,0.378667265177,2.98128581047,-0.388094578401
1554974551348753455,663,1554974551348289750,,0.375956714153,2.97642183304,-0.365815219147
1554974551348919942,664,1554974551348327378,,0.373463451862,2.97225546837,-0.362180496277
1554974551359016314,665,1554974551358590322,,0.37064063549,2.9675655365,-0.350673540183
1554974551368393496,666,1554974551367906746,,0.36786043644,2.96325397491,-0.340645223379
1554974551378668427,667,1554974551378207481,,0.365322381258,2.95896434784,-0.327873732207
1554974551388921618,668,1554974551388486240,,0.362780690193,2.95431280136,-0.316707850289
1554974551398283073,669,1554974551397804824,,0.360069841146,2.95003032684,-0.301346372905
1554974551398438997,670,1554974551397840207,,0.357373684645,2.94540905952,-0.287319855957
