%time,field.header.seq,field.header.stamp,field.header.frame_id,field.point.x,field.point.y,field.point.z
1554973784782847946,1,1554973784782371181,,-0.793512880802,0.487872451544,-1.0315623017
1554973784793108728,2,1554973784792694512,,-0.796318888664,0.487515985966,-1.035548439
1554973784803617036,3,1554973784803000943,,-0.799144744873,0.486974149942,-1.04449306547
1554973784803710410,4,1554973784803031788,,-0.801940143108,0.486715078354,-1.0484420329
1554973784812582483,5,1554973784812278834,,-0.804520070553,0.486484438181,-1.05323803962
1554973784823101387,6,1554973784822629385,,-0.807531177998,0.486206412315,-1.05729954002
1554973784833488053,7,1554973784833002586,,-0.810240328312,0.486101657152,-1.06227921428
1554973784842830017,8,1554973784842323220,,-0.812982261181,0.485840290785,-1.06704853917
1554973784853264976,9,1554973784852610770,,-0.815681576729,0.485708653927,-1.07134820581
1554973784853298128,10,1554973784852644503,,-0.818377792835,0.485646337271,-1.07770800842
1554973784883199513,11,1554973784882579663,,-0.820980012417,0.485564142466,-1.07892279049
1554973784883212967,12,1554973784882622334,,-0.826322734356,0.485557317734,-1.08724593609
1554973784893416608,13,1554973784892910708,,-0.828912854195,0.485372543335,-1.09639462592
1554973784902769281,14,1554973784902291082,,-0.831617832184,0.485436737537,-1.09962048941
1554973784902932085,15,1554973784902325970,,-0.834168076515,0.485265672207,-1.10519750163
1554973784913155652,16,1554973784912681409,,-0.836877167225,0.485323935747,-1.11332901922
1554973784923564656,17,1554973784923069023,,-0.839637756348,0.485286206007,-1.11932005308
1554973784932938847,18,1554973784932460294,,-0.842424571514,0.48518294096,-1.13025481728
1554973784943319510,19,1554973784942811521,,-0.845268726349,0.485180675983,-1.13868528049
1554973784952738295,20,1554973784952066453,,-0.848183453083,0.485026359558,-1.15261763449
1554973784952754154,21,1554973784952102516,,-0.85120511055,0.485272884369,-1.16666764951
1554973784983388545,22,1554973784982888639,,-0.854265034199,0.484794795513,-1.17847120584
1554973784983559067,23,1554973784982930303,,-0.860442340374,0.4851539433,-1.20984170063
1554973784992779837,24,1554973784992284902,,-0.863737821579,0.484952002764,-1.23135384648
1554973785003039548,25,1554973785002543866,,-0.866960763931,0.485128074884,-1.25043524709
1554973785003179032,26,1554973785002578362,,-0.870232760906,0.484982460737,-1.27191390243
1554973785013373379,27,1554973785012871915,,-0.873501181602,0.484988182783,-1.29386948727
1554973785022623830,28,1554973785022159821,,-0.876873910427,0.485027462244,-1.31817912268
1554973785032974895,29,1554973785032492827,,-0.880262970924,0.485146999359,-1.343190319
1554973785043359546,30,1554973785042840645,,-0.883977353573,0.485204130411,-1.36893233764
1554973785052243296,31,1554973785051984388,,-0.887448608875,0.48518294096,-1.40094724112
1554973785062419191,32,1554973785062160572,,-0.891025304794,0.485342413187,-1.43227555639
1554973785072952691,33,1554973785072477935,,-0.89466804266,0.485336869955,-1.46261564583
1554973785083343314,34,1554973785082848717,,-0.898287236691,0.485554128885,-1.49461529181
1554973785083493692,35,1554973785082883132,,-0.902261316776,0.485492885113,-1.52644683878
1554973785092584444,36,1554973785092101688,,-0.90591365099,0.485852599144,-1.56147565171
1554973785102849078,37,1554973785102379835,,-0.909758269787,0.48623251915,-1.59733166342
1554973785102982951,38,1554973785102414401,,-0.913592040539,0.486305624247,-1.63436869627
1554973785112834768,39,1554973785112566538,,-0.917151808739,0.48628616333,-1.67339109872
1554973785123407040,40,1554973785122909203,,-0.92098236084,0.486919313669,-1.70723821494
1554973785132811320,41,1554973785132288421,,-0.924502313137,0.487113654613,-1.7473326998
1554973785143056987,42,1554973785142578640,,-0.928178846836,0.487479805946,-1.78421149594
1554973785153376950,43,1554973785152897943,,-0.931782841682,0.487546473742,-1.82123255347
1554973785153527993,44,1554973785152936762,,-0.935266256332,0.488146841526,-1.86002888749
1554973785162365210,45,1554973785162109035,,-0.938677847385,0.488198727369,-1.90017481007
1554973785183247711,46,1554973785182747454,,-0.942010760307,0.488595366478,-1.93813240233
1554973785183374982,47,1554973785182781719,,-0.945543825626,0.489003360271,-1.97286256394
1554973785193591511,48,1554973785193076443,,-0.948854625225,0.48937267065,-2.01378842459
1554973785202860885,49,1554973785202390693,,-0.952207446098,0.489963620901,-2.0505402445
1554973785203015541,50,1554973785202421676,,-0.955911815166,0.490675359964,-2.08707390969
1554973785212822256,51,1554973785212599446,,-0.959422171116,0.491287261248,-2.12644853685
1554973785223436198,52,1554973785222905299,,-0.96309441328,0.491747111082,-2.16625363705
1554973785232444495,53,1554973785232161620,,-0.966796278954,0.492582052946,-2.20474972092
1554973785242903841,54,1554973785242436711,,-0.970556676388,0.493609547615,-2.24058531914
1554973785253058716,55,1554973785252670799,,-0.974398314953,0.494742184877,-2.2749982098
1554973785253236712,56,1554973785252711006,,-0.978230714798,0.496216535568,-2.31861360462
1554973785263556181,57,1554973785263066675,,-0.982079565525,0.497498303652,-2.34818305024
1554973785293541352,58,1554973785293016752,,-0.986163258553,0.498896509409,-2.38542076549
1554973785293645821,59,1554973785293062107,,-0.99424302578,0.502164185047,-2.45518625407
1554973785302521582,60,1554973785302270369,,-0.998440206051,0.504176855087,-2.49316380593
1554973785302669645,61,1554973785302286309,,-1.00256109238,0.506267666817,-2.52754751456
1554973785313116529,62,1554973785312625809,,-1.00690090656,0.508502423763,-2.56094601076
1554973785323438783,63,1554973785322942822,,-1.01093804836,0.510769605637,-2.59884659311
1554973785332822486,64,1554973785332326954,,-1.01528143883,0.513118207455,-2.63463476742
1554973785343072950,65,1554973785342597745,,-1.01944756508,0.516181766987,-2.66549924355
1554973785353407420,66,1554973785352954775,,-1.02385413647,0.518837690353,-2.70153634662
1554973785353602362,67,1554973785352988340,,-1.02807354927,0.521713078022,-2.73723505815
1554973785362780488,68,1554973785362340320,,-1.0322728157,0.524898946285,-2.76684934711
1554973785392927130,69,1554973785392432766,,-1.03653085232,0.528281331062,-2.79654050967
1554973785393076639,70,1554973785392472997,,-1.04083359241,0.531559169292,-2.83281667096
1554973785393230729,71,1554973785392499144,,-1.04509282112,0.535181701183,-2.86179805517
1554973785403263837,72,1554973785402804294,,-1.04914569855,0.538690507412,-2.89287631091
1554973785403427593,73,1554973785402840052,,-1.05347812176,0.542521178722,-2.92517330207
1554973785412224451,74,1554973785411967739,,-1.0576415062,0.546611309052,-2.95014989206
1554973785422762458,75,1554973785422321977,,-1.06171107292,0.550657272339,-2.98109713195
1554973785433178659,76,1554973785432720087,,-1.06594324112,0.554752349854,-3.00631233406
1554973785443553101,77,1554973785443080894,,-1.06993103027,0.558991193771,-3.02959059249
1554973785452940714,78,1554973785452460704,,-1.07382977009,0.563052296638,-3.05394830336
1554973785453054833,79,1554973785452507650,,-1.0777451992,0.567236423492,-3.07428931416
1554973785463038638,80,1554973785462766066,,-1.08163642883,0.571677327156,-3.09338567725
1554973785472493090,81,1554973785471992292,,-1.08568418026,0.576270163059,-3.10705735588
1554973785493140528,82,1554973785492644571,,-1.08919143677,0.580479264259,-3.12889497963
1554973785493261741,83,1554973785492681047,,-1.09318184853,0.585453391075,-3.13845813935
1554973785503433976,84,1554973785502967387,,-1.09677195549,0.589817762375,3.12716376152
1554973785503662492,85,1554973785502998031,,-1.10031020641,0.59438508749,3.11452231726
1554973785512409396,86,1554973785512162882,,-1.10417294502,0.59923273325,3.10391847047
1554973785522999229,87,1554973785522516158,,-1.10775792599,0.603778719902,3.0908186014
1554973785533409786,88,1554973785532874098,,-1.11133182049,0.608325660229,3.08271876813
1554973785542704066,89,1554973785542219578,,-1.11486172676,0.612650334835,3.06512967639
1554973785553055926,90,1554973785552579238,,-1.11844909191,0.617334604263,3.05826915814
1554973785553255510,91,1554973785552617526,,-1.12188184261,0.621595561504,3.04377254876
1554973785563422869,92,1554973785562915245,,-1.12559950352,0.626464128494,3.03464471187
1554973785572762024,93,1554973785572287863,,-1.12887370586,0.630904376507,3.02735402678
1554973785593473049,94,1554973785592948651,,-1.13226008415,0.635331571102,3.01993415703
1554973785593613128,95,1554973785592993116,,-1.135871768,0.639953553677,3.01305630329
1554973785602397706,96,1554973785602148299,,-1.13906538486,0.644363999367,3.00803086686
1554973785602560580,97,1554973785602164682,,-1.14246571064,0.648706316948,2.99704914077
1554973785612759739,98,1554973785612363513,,-1.14574813843,0.653360664845,2.99187707163
1554973785623124437,99,1554973785622640506,,-1.14881980419,0.658128499985,2.99526436852
1554973785633466022,100,1554973785632967786,,-1.15224170685,0.662744164467,2.99144056712
1554973785642760530,101,1554973785642301860,,-1.15527105331,0.667338788509,2.99013232993
1554973785653073332,102,1554973785652502925,,-1.15830898285,0.672069847584,2.99319593082
1554973785663424891,103,1554973785662993699,,-1.16118526459,0.677021503448,2.99609344276
1554973785663575919,104,1554973785663024267,,-1.16438007355,0.682141244411,3.00361489498
1554973785672667905,105,1554973785672262366,,-1.16731274128,0.686887085438,3.00398078898
1554973785693291815,106,1554973785692820369,,-1.16994810104,0.691706120968,3.01290452116
1554973785693434698,107,1554973785692855993,,-1.17286264896,0.696895956993,3.02200834855
1554973785702185279,108,1554973785701953039,,-1.17532217503,0.702148675919,3.04192557201
1554973785712756381,109,1554973785712257708,,-1.17858946323,0.70731562376,3.04166036866
1554973785712963767,110,1554973785712294695,,-1.18099224567,0.712368071079,3.06021380572
1554973785723044816,111,1554973785722582752,,-1.18393790722,0.717218518257,3.07059320416
1554973785733476511,112,1554973785732901043,,-1.18664312363,0.722383022308,3.08267901314
1554973785742687216,113,1554973785742208180,,-1.18938720226,0.727483928204,3.09881166859
1554973785752952539,114,1554973785752505138,,-1.19204676151,0.732319355011,3.11485027828
1554973785753089449,115,1554973785752538873,,-1.19487082958,0.73781722784,3.12887264506
1554973785763388134,116,1554973785762875077,,-1.19715213776,0.742548704147,-3.1374781844
1554973785772693124,117,1554973785772184882,,-1.20006668568,0.747494637966,-3.12191484142
1554973785782937357,118,1554973785782514528,,-1.20231187344,0.7522367239,-3.11184331637
1554973785802566576,119,1554973785802125869,,-1.20515847206,0.757142543793,-3.09337241929
1554973785802778721,120,1554973785802182559,,-1.20774269104,0.762055456638,-3.0782995002
1554973785802943031,121,1554973785802198948,,-1.21044099331,0.766956865788,-3.05841032087
1554973785813007152,122,1554973785812511289,,-1.21290719509,0.771768271923,-3.04338999689
1554973785823373590,123,1554973785822880163,,-1.21532547474,0.776236534119,-3.02736182386
1554973785832672572,124,1554973785832214750,,-1.21776461601,0.781256973743,-3.0110757581
1554973785843008490,125,1554973785842515398,,-1.22053337097,0.786120414734,-2.9960820745
1554973785853492808,126,1554973785852892753,,-1.22279071808,0.790245711803,-2.97901396248
1554973785853666598,127,1554973785852925936,,-1.22548878193,0.795337021351,-2.95937289851
1554973785862410349,128,1554973785862136118,,-1.22788238525,0.799561858177,-2.94197637624
1554973785872866780,129,1554973785872444538,,-1.23033678532,0.804260313511,-2.9286003039
1554973785883210012,130,1554973785882754637,,-1.23270618916,0.80869603157,-2.91010644501
1554973785912997492,131,1554973785912490765,,-1.23512220383,0.81306540966,-2.88967307824
1554973785913385092,132,1554973785912527817,,-1.23739266396,0.817832052708,-2.87522887767
1554973785913405236,133,1554973785912557284,,-1.23961651325,0.821937739849,-2.85482520767
1554973785913417771,134,1554973785912572444,,-1.2419526577,0.826808512211,-2.83682206336
1554973785923097053,135,1554973785922801134,,-1.24420571327,0.831197738647,-2.81889201165
1554973785932491075,136,1554973785932051746,,-1.24662613869,0.835489034653,-2.80026843102
1554973785942942160,137,1554973785942414150,,-1.24874925613,0.840354323387,-2.77915770443
1554973785952914430,138,1554973785952633783,,-1.25104868412,0.845431566238,-2.74615416101
1554973785953072760,139,1554973785952664056,,-1.2533479929,0.850139260292,-2.72443627314
1554973785963133383,140,1554973785962848387,,-1.2555321455,0.855244755745,-2.69423173312
1554973785972474187,141,1554973785972049509,,-1.25776124001,0.860212147236,-2.66574299555
1554973785982898960,142,1554973785982422989,,-1.26014924049,0.864792823792,-2.63677298329
1554973786012759207,143,1554973786012264839,,-1.2625221014,0.86991339922,-2.60396723395
1554973786012928240,144,1554973786012305467,,-1.26478755474,0.87527525425,-2.57358209379
1554973786013126336,145,1554973786012334553,,-1.26704502106,0.880281329155,-2.5417130398
1554973786013133301,146,1554973786012349739,,-1.26953876019,0.885177969933,-2.51506914094
1554973786022802022,147,1554973786022572556,,-1.27208399773,0.89080119133,-2.47969892487
1554973786033365224,148,1554973786032895257,,-1.27427124977,0.895636081696,-2.45382980744
1554973786042721823,149,1554973786042255501,,-1.27697575092,0.900935709476,-2.42341193344
1554973786052839851,150,1554973786052467942,,-1.27947938442,0.906091809273,-2.4004984725
1554973786052847189,151,1554973786052486874,,-1.28197062016,0.911411166191,-2.37486711153
1554973786063314748,152,1554973786062820293,,-1.28452503681,0.916881203651,-2.3504006376
1554973786072539306,153,1554973786072075375,,-1.28721129894,0.922265350819,-2.32566077376
1554973786082981711,154,1554973786082454910,,-1.2897413969,0.927693963051,-2.30120781356
1554973786113114261,155,1554973786112323576,,-1.29270493984,0.933261692524,-2.28017679706
1554973786113123415,156,1554973786112374480,,-1.30068588257,0.949360489845,-2.22004673245
1554973786123114540,157,1554973786122652380,,-1.30339896679,0.95466953516,-2.20292253208
1554973786133400695,158,1554973786132939080,,-1.30602538586,0.959947049618,-2.18514539287
1554973786142716273,159,1554973786142194936,,-1.30871605873,0.965472638607,-2.16318118019
1554973786153063030,160,1554973786152517148,,-1.31143581867,0.970802128315,-2.14735012192
1554973786153074560,161,1554973786152551248,,-1.31395101547,0.976078569889,-2.12589463312
1554973786163360689,162,1554973786162787217,,-1.31666517258,0.981326937675,-2.10829735217
1554973786172349330,163,1554973786172011236,,-1.31941151619,0.986662209034,-2.09165686324
1554973786182710938,164,1554973786182268077,,-1.32167994976,0.991488873959,-2.07492359882
1554973786192819711,165,1554973786192532108,,-1.32444036007,0.996902346611,-2.05475579507
1554973786212514248,166,1554973786212019804,,-1.32685744762,1.00218176842,-2.03431353971
1554973786212746258,167,1554973786212057443,,-1.32942390442,1.0073261261,-2.01967331221
1554973786212916162,168,1554973786212085839,,-1.33174574375,1.01202619076,-2.00585990735
1554973786222604989,169,1554973786222356923,,-1.33418142796,1.01737093925,-1.98566691881
1554973786233147145,170,1554973786232715609,,-1.33656013012,1.02231836319,-1.96861793258
1554973786243487203,171,1554973786243031356,,-1.33849298954,1.02658510208,-1.95829276295
1554973786252869663,172,1554973786252384283,,-1.34104347229,1.03175806999,-1.94232436851
1554973786253013336,173,1554973786252423845,,-1.34326040745,1.03753185272,-1.92834335269
1554973786262950605,174,1554973786262702698,,-1.34567892551,1.04171347618,-1.91320687914
1554973786273564707,175,1554973786273019845,,-1.3477550745,1.04668295383,-1.8940295376
1554973786282527378,176,1554973786282258276,,-1.3502882719,1.0514985323,-1.87887678984
1554973786293043554,177,1554973786292578829,,-1.35214853287,1.05621516705,-1.86634334376
1554973786312554904,178,1554973786312069574,,-1.35468971729,1.0611281395,-1.85601408501
1554973786312746415,179,1554973786312116722,,-1.35943281651,1.0703060627,-1.8302638981
1554973786322887355,180,1554973786322418833,,-1.3622199297,1.07529497147,-1.81910926736
1554973786333272386,181,1554973786332815460,,-1.36471271515,1.08023095131,-1.79946706126
1554973786342538623,182,1554973786342086759,,-1.36747920513,1.08485031128,-1.78929226409
1554973786352621037,183,1554973786352346633,,-1.3705893755,1.09046649933,-1.77123991897
1554973786352772585,184,1554973786352381205,,-1.37336909771,1.095023036,-1.75732483367
1554973786363154328,185,1554973786362689952,,-1.37692987919,1.09987366199,-1.74455632383
1554973786373493264,186,1554973786373001391,,-1.3801677227,1.1050812006,-1.72694011766
1554973786382815823,187,1554973786382366199,,-1.38374602795,1.11030602455,1.86771244859
1554973786412766053,188,1554973786412274057,,-1.39078962803,1.12014365196,-1.67952385664
1554973786412975958,189,1554973786412313530,,-1.39447963238,1.12490022182,-1.65995155802
1554973786413102846,190,1554973786412347418,,-1.39815104008,1.1300945282,-1.64116637714
1554973786422814503,191,1554973786422558608,,-1.40227198601,1.13571727276,-1.61795501098
1554973786433023863,192,1554973786432767657,,-1.40617156029,1.14034223557,-1.6001494561
1554973786442461793,193,1554973786441990719,,-1.41037273407,1.1455051899,-1.57875262443
1554973786452781110,194,1554973786452338657,,-1.4143204689,1.15056180954,-1.55122207538
1554973786452949417,195,1554973786452378461,,-1.4185333252,1.15588951111,-1.52424011267
1554973786462975404,196,1554973786462654721,,-1.4226449728,1.16094136238,-1.50082248045
1554973786473407253,197,1554973786472912406,,-1.42698252201,1.16564702988,-1.46594944542
1554973786482718095,198,1554973786482260222,,-1.43138420582,1.1711435318,-1.42934055153
1554973786493064183,199,1554973786492596196,,-1.43586289883,1.17607581615,-1.40567642838
1554973786503442470,200,1554973786502949755,,-1.44033896923,1.18087589741,-1.37286887436
1554973786512755575,201,1554973786512283879,,-1.44471693039,1.18584191799,-1.34370900154
1554973786512957648,202,1554973786512324114,,-1.44918584824,1.19104540348,-1.31898297008
1554973786523141251,203,1554973786522678557,,-1.45406317711,1.19567728043,-1.28501252092
1554973786533528303,204,1554973786533072246,,-1.45854997635,1.2008742094,-1.25955531784
1554973786542939292,205,1554973786542467233,,-1.46350562572,1.20525240898,-1.23337292046
1554973786553045738,206,1554973786552731208,,-1.46832633018,1.21066999435,-1.19786767883
1554973786553189316,207,1554973786552765720,,-1.47304368019,1.21490347385,-1.17651918795
1554973786563304612,208,1554973786562998362,,-1.47812378407,1.21966671944,-1.15984330462
1554973786572778312,209,1554973786572351513,,-1.48323631287,1.22387301922,-1.13398980732
1554973786583160643,210,1554973786582701695,,-1.48849880695,1.22876787186,-1.12265341129
1554973786593553542,211,1554973786593082918,,-1.49367392063,1.23315989971,-1.08930117681
1554973786602856944,212,1554973786602432160,,-1.49897563457,1.23833882809,-1.07843929626
1554973786623785825,213,1554973786623054661,,-1.50441193581,1.24208128452,-1.05498570718
1554973786623881888,214,1554973786623096857,,-1.50997722149,1.24624109268,-1.04113013207
1554973786624008303,215,1554973786623125305,,-1.51586997509,1.2501578331,-1.01275703771
1554973786632603273,216,1554973786632352247,,-1.52152657509,1.25454127789,-1.00476502948
1554973786643189908,217,1554973786642713120,,-1.52753853798,1.25840485096,-0.981960063382
1554973786653285580,218,1554973786652965571,,-1.53354632854,1.26259660721,-0.968876745571
1554973786653440693,219,1554973786653002143,,-1.53972947598,1.26638650894,-0.956726429319
1554973786662607902,220,1554973786662355937,,-1.5462859869,1.27050936222,-0.939505373881
1554973786673172317,221,1554973786672699085,,-1.55269479752,1.27377092838,-0.918565855862
1554973786683507077,222,1554973786683052100,,-1.55928349495,1.27743852139,-0.906450747469
1554973786692885571,223,1554973786692419777,,-1.56565511227,1.28058600426,-0.885186817903
1554973786703253257,224,1554973786702794620,,-1.57256913185,1.28411340714,-0.863113562886
1554973786722885218,225,1554973786722410193,,-1.57903289795,1.28799831867,-0.847347814855
1554973786723082683,226,1554973786722450731,,-1.58575129509,1.29106283188,-0.827757062394
1554973786723221154,227,1554973786722475754,,-1.59239685535,1.29384839535,-0.816154992178
1554973786732945388,228,1554973786732688856,,-1.59930002689,1.29740715027,-0.797567400394
1554973786743459209,229,1554973786743009857,,-1.60600996017,1.3008878231,-0.778495422757
1554973786752634452,230,1554973786752231482,,-1.61244452,1.30432593822,-0.757748251221
1554973786752703776,231,1554973786752268276,,-1.61898946762,1.30719161034,-0.750434333271
1554973786762768887,232,1554973786762465205,,-1.6257789135,1.31088829041,-0.726937347875
1554973786773252293,233,1554973786772778885,,-1.63225591183,1.31368994713,-0.711494506495
1554973786782490632,234,1554973786782011340,,-1.63891303539,1.31690526009,-0.699906818623
1554973786792905972,235,1554973786792380004,,-1.64522433281,1.32011330128,-0.682380606798
1554973786803227947,236,1554973786802741981,,-1.6518882513,1.32298910618,-0.669372050118
1554973786822831719,237,1554973786822384995,,-1.65847086906,1.32607293129,-0.655131849737
1554973786823003611,238,1554973786822430826,,-1.67202472687,1.33144426346,-0.62582413246
1554973786833256461,239,1554973786832768669,,-1.67881989479,1.33406686783,-0.61278514026
1554973786842492719,240,1554973786842032543,,-1.68563055992,1.33621263504,-0.598138086004
1554973786852873496,241,1554973786852392060,,-1.69240653515,1.33847928047,-0.58228782422
1554973786853070843,242,1554973786852429024,,-1.69945895672,1.34068667889,-0.560823708253
1554973786863150563,243,1554973786862657341,,-1.7064987421,1.34294748306,-0.549098276933
1554973786873564609,244,1554973786873051783,,-1.71357393265,1.34417521954,-0.522732648339
1554973786882906575,245,1554973786882417827,,-1.72077071667,1.34621691704,-0.514151023667
1554973786893246561,246,1554973786892778490,,-1.72823750973,1.34760856628,-0.499493738265
1554973786903541900,247,1554973786903077907,,-1.73534929752,1.34961307049,-0.48351386845
1554973786903742128,248,1554973786903114138,,-1.74295032024,1.35062015057,-0.467376662572
1554973786923304758,249,1554973786922784949,,-1.75037133694,1.35207855701,-0.449679843313
1554973786923482725,250,1554973786922821207,,-1.75787365437,1.3527354002,-0.435043573929
1554973786932502883,251,1554973786932044981,,-1.7652438879,1.35360360146,-0.417081433108
1554973786942891997,252,1554973786942405370,,-1.77297711372,1.35492265224,-0.41104732266
1554973786953342604,253,1554973786952746501,,-1.78046929836,1.35504484177,-0.393292806647
1554973786953350486,254,1554973786952787178,,-1.78829646111,1.35561800003,-0.375821509782
1554973786963302636,255,1554973786963043551,,-1.79596066475,1.35588479042,-0.358056744318
1554973786972776463,256,1554973786972332230,,-1.80393612385,1.35622286797,-0.344408867189
1554973786983089083,257,1554973786982652671,,-1.81150484085,1.35614562035,-0.32602082316
1554973786993460959,258,1554973786993022594,,-1.81936180592,1.35675406456,-0.31635359725
1554973787002563685,259,1554973787002248071,,-1.82714760303,1.35669672489,-0.303328590736
1554973787002686802,260,1554973787002279666,,-1.83496534824,1.35673964024,-0.287519323198
1554973787032557314,261,1554973787032043355,,-1.84262979031,1.3566390276,-0.271287371299
1554973787032712410,262,1554973787032084495,,-1.85039412975,1.35677349567,-0.25866979589
1554973787032839495,263,1554973787032111519,,-1.85812866688,1.35682451725,-0.24220058386
1554973787042600145,264,1554973787042320128,,-1.86611151695,1.35687375069,-0.228041315023
1554973787053044262,265,1554973787052584350,,-1.87366080284,1.35690355301,-0.216636067053
1554973787053193917,266,1554973787052626203,,-1.88151538372,1.3569715023,-0.203940374709
1554973787063482240,267,1554973787062972890,,-1.88897418976,1.35710024834,-0.190973604877
1554973787072851753,268,1554973787072371284,,-1.89653527737,1.3571126461,-0.181290641975
1554973787083155477,269,1554973787082662481,,-1.90407311916,1.35698032379,-0.161110384756
1554973787093586587,270,1554973787093051560,,-1.91158235073,1.35733139515,-0.157810430341
1554973787102898322,271,1554973787102438784,,-1.91903150082,1.35729455948,-0.144908658357
1554973787103120716,272,1554973787102478429,,-1.92642259598,1.35695207119,-0.133627217011
1554973787132840365,273,1554973787132378074,,-1.93384206295,1.3566621542,-0.114150102495
1554973787133154011,274,1554973787132419761,,-1.94142639637,1.35634374619,-0.102753676509
1554973787133162435,275,1554973787132446109,,-1.94879937172,1.35596501827,-0.0898514983031
1554973787143054147,276,1554973787142684703,,-1.9562112093,1.35530424118,-0.0840557401461
1554973787153341367,277,1554973787153003375,,-1.9637029171,1.35445702076,-0.0684600183389
1554973787153598757,278,1554973787153026600,,-1.97115552425,1.3534194231,-0.0570158750402
1554973787162506935,279,1554973787162270094,,-1.97872173786,1.35262036324,-0.0450488769734
1554973787172741718,280,1554973787172483113,,-1.98604369164,1.35179638863,-0.0375426706151
1554973787183254273,281,1554973787182794268,,-1.99332499504,1.34997701645,-0.0183976595441
1554973787192561726,282,1554973787192052211,,-2.00049209595,1.34878325462,-0.00215437934606
1554973787202861824,283,1554973787202362542,,-2.0079767704,1.34682285786,0.00605577833007
1554973787203099897,284,1554973787202399001,,-2.01518177986,1.34494078159,0.0216951886011
1554973787213155832,285,1554973787212695138,,-2.02248358727,1.34293186665,0.0281788039528
1554973787232754764,286,1554973787232268115,,-2.02968335152,1.34116530418,0.0434679050242
1554973787232922149,287,1554973787232304819,,-2.03696346283,1.33822238445,0.0619627871342
1554973787243092015,288,1554973787242620877,,-2.0442647934,1.33585238457,0.0695874366997
1554973787253426505,289,1554973787252966594,,-2.05128574371,1.33350217342,0.0833632320043
1554973787253596641,290,1554973787253006328,,-2.05852746964,1.33070456982,0.0908260090151
1554973787262822783,291,1554973787262355406,,-2.06547236443,1.32731962204,0.110710608121
1554973787273197401,292,1554973787272717526,,-2.07266831398,1.32394278049,0.129549068978
1554973787283510401,293,1554973787283054935,,-2.08007621765,1.32136201859,0.129259309435
1554973787292973914,294,1554973787292459757,,-2.08679938316,1.31751596928,0.157304525476
1554973787303294808,295,1554973787302814404,,-2.09378361702,1.31369674206,0.170626775922
1554973787303431592,296,1554973787302850920,,-2.10045599937,1.31018519402,0.186781324701
1554973787312567495,297,1554973787312078334,,-2.10739445686,1.30686891079,0.198229722096
1554973787333304394,298,1554973787332724843,,-2.1144657135,1.30437135696,0.21237644517
1554973787333340466,299,1554973787332760185,,-2.12105202675,1.29989397526,0.22954196006
1554973787343457795,300,1554973787343014276,,-2.12768006325,1.2956597805,0.251033498829
1554973787352856428,301,1554973787352366849,,-2.13459634781,1.29268562794,0.270443090223
1554973787353028654,302,1554973787352409881,,-2.14100813866,1.28824305534,0.28749289725
1554973787363195804,303,1554973787362720807,,-2.14756250381,1.28441751003,0.314572102061
1554973787373529302,304,1554973787373024524,,-2.15414714813,1.28027367592,0.342445317377
1554973787382792454,305,1554973787382349498,,-2.16053318977,1.27627038956,0.361307926656
1554973787393187708,306,1554973787392727237,,-2.16693234444,1.27210640907,0.386547268192
1554973787403453209,307,1554973787403002798,,-2.1735291481,1.26810920238,0.416994251496
1554973787403597887,308,1554973787403041656,,-2.18004703522,1.26307189465,0.450084861459
1554973787412723797,309,1554973787412352987,,-2.1863079071,1.25939440727,0.472773289572
1554973787442785394,310,1554973787442265792,,-2.19291186333,1.25559997559,0.505154145186
1554973787442952406,311,1554973787442314419,,-2.20595979691,1.24710810184,-0.407320233264
1554973787453214198,312,1554973787452647594,,-2.2119269371,1.24194538593,0.612294863711
1554973787453270777,313,1554973787452682748,,-2.21846199036,1.23732507229,0.649781259289
1554973787463470515,314,1554973787462984956,,-2.22469329834,1.23319733143,0.684949134649
1554973787472769692,315,1554973787472319717,,-2.23079228401,1.22811818123,0.728097194091
1554973787483115910,316,1554973787482663395,,-2.23672580719,1.22360110283,0.771714075956
1554973787493579506,317,1554973787493050710,,-2.24271774292,1.21869754791,0.818320895842
1554973787502867627,318,1554973787502426793,,-2.24833869934,1.21355879307,0.863329050079
1554973787503015665,319,1554973787502465435,,-2.25419521332,1.20897436142,0.907707230584
1554973787513233036,320,1554973787512777654,,-2.25977802277,1.2044223547,0.950691769408
1554973787543153242,321,1554973787542664805,,-2.26513910294,1.19882106781,0.996295242672
1554973787543359545,322,1554973787542705535,,-2.27051639557,1.19475197792,1.03168805273
1554973787543502849,323,1554973787542731867,,-2.27578806877,1.18946623802,1.08423946472
1554973787553286468,324,1554973787552912457,,-2.28081941605,1.18403875828,1.13431191016
1554973787553315246,325,1554973787552945293,,-2.28591704369,1.17907738686,1.18377460812
1554973787562662697,326,1554973787562174709,,-2.29054832458,1.17436599731,1.22044702908
1554973787573596007,327,1554973787572424672,,-2.2950398922,1.16890537739,1.27339298347
1554973787583108417,328,1554973787582665450,,-2.29982161522,1.16410028934,1.31926132743
1554973787593511535,329,1554973787592988578,,-2.30412483215,1.15912103653,1.36372479319
1554973787603163365,330,1554973787602314168,,-2.30845761299,1.15393233299,1.41317026609
1554973787603441622,331,1554973787602357188,,-2.31296038628,1.14923620224,1.45975556078
1554973787613179569,332,1554973787612673991,,-2.31705403328,1.14373910427,1.50766478567
1554973787623477243,333,1554973787622934620,,-2.3216137886,1.13911449909,1.54996579458
1554973787642960309,334,1554973787642357952,,-2.32555532455,1.13426506519,1.59860683693
1554973787643141009,335,1554973787642411478,,-2.33003306389,1.12952947617,1.6416569868
1554973787653181031,336,1554973787652633768,,-2.33395504951,1.12449586391,1.68675463827
1554973787653243148,337,1554973787652667531,,-2.33844542503,1.12017035484,1.73167223582
1554973787663517389,338,1554973787662996573,,-2.34265375137,1.11532270908,1.77764664297
1554973787672650655,339,1554973787672233055,,-2.34657597542,1.11061739922,1.82311003238
1554973787682786254,340,1554973787682470166,,-2.3509979248,1.10604631901,1.86765522023
1554973787693226308,341,1554973787692789196,,-2.35507297516,1.10174810886,1.91278311269
1554973787702493222,342,1554973787702046895,,-2.35940957069,1.09733450413,1.95987860198
1554973787702665856,343,1554973787702086287,,-2.36334228516,1.09277951717,2.00829293399
1554973787712862604,344,1554973787712400522,,-2.36759328842,1.08838605881,2.05795033526
1554973787723219922,345,1554973787722767575,,-2.37189173698,1.08424329758,2.10457165325
1554973787742761132,346,1554973787742240065,,-2.37580728531,1.07999992371,2.16196853908
1554973787742931118,347,1554973787742278667,,-2.37984919548,1.07548177242,2.21232533915
1554973787752847818,348,1554973787752434406,,-2.38384175301,1.07162988186,2.26883058032
1554973787752857051,349,1554973787752453600,,-2.38790559769,1.06762444973,2.32158313307
1554973787763101026,350,1554973787762637309,,-2.39210534096,1.06344032288,2.38157615461
1554973787773182152,351,1554973787772879400,,-2.39562535286,1.05947220325,2.43896458348
1554973787782297267,352,1554973787781983032,,-2.39976644516,1.05609273911,2.50387147038
1554973787792773802,353,1554973787792289031,,-2.40357303619,1.05167460442,2.56667817323
1554973787802747680,354,1554973787802477427,,-2.40759563446,1.04814970493,2.63040439746
1554973787802890392,355,1554973787802494676,,-2.41122698784,1.04415822029,2.69670543335
1554973787812968930,356,1554973787812717197,,-2.41511869431,1.04031431675,2.76270594862
1554973787823160303,357,1554973787822911316,,-2.41899037361,1.03709542751,2.83201187926
1554973787853087050,358,1554973787852699232,,-2.42279100418,1.03351390362,2.90420995498
1554973787853235231,359,1554973787852738129,,-2.43029093742,1.02689576149,3.04526791793
1554973787853368399,360,1554973787852764349,,-2.43410897255,1.023858428,3.12324187226
1554973787862467348,361,1554973787861993368,,-2.43772506714,1.02051913738,-3.08410519572
1554973787872746412,362,1554973787872312658,,-2.44173526764,1.01737272739,-3.00193336952
1554973787883141209,363,1554973787882676707,,-2.44539546967,1.01402056217,-2.9251136174
1554973787893515398,364,1554973787893043639,,-2.44913601875,1.0109578371,-2.84313126102
1554973787903035305,365,1554973787902422963,,-2.4528067112,1.00810432434,-2.75876580552
1554973787903044510,366,1554973787902458667,,-2.45677471161,1.00494003296,-2.67515115697
1554973787912912261,367,1554973787912645894,,-2.46031236649,1.00211751461,-2.58943969591
1554973787923492978,368,1554973787922984705,,-2.46428179741,0.999005317688,-2.50041819132
1554973787932811418,369,1554973787932370211,,-2.46787381172,0.995570600033,-2.41937804069
1554973787953445778,370,1554973787952987168,,-2.4716668129,0.992796838284,-2.33257276168
1554973787953594932,371,1554973787953028656,,-2.47865247726,0.986520171165,-2.15917431196
1554973787962864211,372,1554973787962369920,,-2.48204374313,0.983301103115,-2.07387791738
1554973787973200738,373,1554973787972745053,,-2.48564052582,0.980105817318,-1.98242744019
1554973787983554349,374,1554973787983088645,,-2.48922538757,0.977145731449,-1.89943458676
1554973787992918891,375,1554973787992456061,,-2.49245047569,0.973800241947,-1.81552050772
1554973788003298193,376,1554973788002812240,,-2.4955227375,0.970131933689,-1.72687383111
1554973788003463979,377,1554973788002852456,,-2.49902629852,0.967232882977,-1.63908329304
1554973788013093451,378,1554973788012057689,,-2.50210833549,0.963663578033,-1.55465404452
1554973788022977856,379,1554973788022478513,,-2.50505495071,0.960412740707,-1.46611327996
1554973788033306346,380,1554973788032879759,,-2.50803470612,0.957176744938,-1.3768778151
1554973788052977607,381,1554973788052487629,,-2.51074576378,0.953850448132,-1.28555443185
1554973788053145527,382,1554973788052527239,,-2.51369476318,0.950694262981,-1.1999348375
1554973788053284564,383,1554973788052560762,,-2.51649188995,0.947510242462,-1.1189128685
1554973788063020438,384,1554973788062740744,,-2.51933789253,0.944285929203,-1.03159007993
1554973788073488000,385,1554973788073008583,,-2.52183175087,0.941110730171,-0.943539459776
1554973788082786011,386,1554973788082334403,,-2.52425050735,0.93787664175,-0.860665140758
1554973788093206130,387,1554973788092673933,,-2.52677798271,0.935111641884,-0.773169017164
1554973788103474196,388,1554973788103001568,,-2.52939462662,0.931818246841,-0.689473992149
1554973788103662605,389,1554973788103043484,,-2.53178787231,0.928840994835,-0.606742475636
1554973788112491176,390,1554973788112217516,,-2.53442597389,0.925976216793,-0.516683739305
1554973788122987096,391,1554973788122526284,,-2.53688025475,0.923023402691,-0.435496413956
1554973788133332968,392,1554973788132867789,,-2.53943490982,0.919938564301,-0.346554152901
1554973788152790032,393,1554973788152326944,,-2.54210829735,0.917130231857,-0.251291071297
1554973788152935590,394,1554973788152358681,,-2.54451751709,0.914249062538,-0.166703397881
1554973788162863771,395,1554973788162542803,,-2.54712986946,0.911297619343,-0.0744910469401
1554973788163010200,396,1554973788162562519,,-2.54987406731,0.908142805099,0.0169493490121
1554973788173277385,397,1554973788172805871,,-2.55238461494,0.904803156853,0.112496163035
1554973788182470820,398,1554973788182006243,,-2.55511212349,0.90238314867,0.202201630837
1554973788192822699,399,1554973788192340902,,-2.55795764923,0.899163484573,0.299885668669
1554973788203124520,400,1554973788202666619,,-2.56051969528,0.896216511726,0.394032931333
1554973788203300161,401,1554973788202710319,,-2.56297802925,0.893307983875,0.4924506874
1554973788213566628,402,1554973788213062515,,-2.56567215919,0.890083968639,0.5951127642
1554973788222914042,403,1554973788222447521,,-2.56846117973,0.886901378632,0.690136000403
1554973788233277966,404,1554973788232825344,,-2.57074522972,0.883656382561,0.789847253125
1554973788263263764,405,1554973788262642102,,-2.57291769981,0.880532503128,0.889664188628
1554973788263272295,406,1554973788262698213,,-2.57955360413,0.8707036376,1.18290439491
1554973788273142109,407,1554973788272877245,,-2.58164644241,0.867439925671,1.28198268872
1554973788282497121,408,1554973788282048905,,-2.58350563049,0.864147365093,1.38127510288
1554973788292882587,409,1554973788292388604,,-2.5853331089,0.861071527004,1.47726636538
1554973788303233487,410,1554973788302721260,,-2.58710932732,0.858022868633,1.57123290441
1554973788303399543,411,1554973788302769940,,-2.58862686157,0.854921758175,1.66600171979
1554973788313587730,412,1554973788313093338,,-2.59012460709,0.851981580257,1.76389345723
1554973788322662492,413,1554973788322379352,,-2.59182047844,0.84894233942,1.85460844176
1554973788333180198,414,1554973788332735560,,-2.59342241287,0.846132099628,1.94361729517
1554973788343484340,415,1554973788343057151,,-2.59480261803,0.843529343605,2.02877716503
1554973788363089974,416,1554973788362585817,,-2.59612131119,0.840923666954,2.11365724786
1554973788363254457,417,1554973788362632974,,-2.59893751144,0.835914731026,2.28109241094
1554973788373380654,418,1554973788372897729,,-2.60033273697,0.833468198776,2.36336052818
1554973788382735834,419,1554973788382265216,,-2.60156679153,0.830952167511,2.4402089149
1554973788393106954,420,1554973788392621907,,-2.60299706459,0.828856527805,2.51641781481
1554973788403211667,421,1554973788402934636,,-2.6042163372,0.826374173164,2.59684721553
1554973788403352634,422,1554973788402952417,,-2.60546183586,0.824224352837,2.66873192193
1554973788412438222,423,1554973788412138925,,-2.60687017441,0.822023451328,2.74274366771
1554973788422992086,424,1554973788422504497,,-2.60827898979,0.819829165936,2.81820189627
1554973788433280690,425,1554973788432848490,,-2.60986471176,0.818013370037,2.88701167457
1554973788442489432,426,1554973788442046589,,-2.61112427711,0.815840125084,2.96376099834
1554973788463322200,427,1554973788462797224,,-2.61283135414,0.813742399216,3.03448869466
1554973788463497742,428,1554973788462843970,,-2.61615920067,0.809198379517,-3.10847253651
1554973788472546000,429,1554973788472045043,,-2.61765980721,0.806909143925,-3.0342897027
1554973788482894170,430,1554973788482410081,,-2.61949706078,0.805050432682,-2.96199792333
1554973788493259330,431,1554973788492779269,,-2.62118220329,0.802823781967,-2.89276230351
1554973788502481303,432,1554973788502019849,,-2.62314176559,0.800393462181,-2.82392070433
1554973788502630508,433,1554973788502057394,,-2.6246972084,0.798114418983,-2.75527219176
1554973788512583488,434,1554973788512273522,,-2.62644267082,0.796055912971,-2.68616154924
1554973788523017044,435,1554973788522559875,,-2.62830162048,0.794186830521,-2.62076220484
1554973788533355446,436,1554973788532912316,,-2.63039469719,0.792082428932,-2.54983231091
1554973788542681272,437,1554973788542219024,,-2.63242077827,0.789970219135,-2.48844744437
1554973788563393679,438,1554973788562815349,,-2.63448953629,0.787939071655,-2.42802891101
1554973788563405576,439,1554973788562857763,,-2.63866829872,0.784010052681,-2.30304417722
1554973788572385147,440,1554973788572030150,,-2.64070463181,0.782129466534,-2.24359344626
1554973788582882015,441,1554973788582403063,,-2.642983675,0.780507743359,-2.18692338029
1554973788593231891,442,1554973788592767648,,-2.64542508125,0.778335869312,-2.13148355749
1554973788603491761,443,1554973788603041945,,-2.64763307571,0.776424586773,-2.07684426397
1554973788603638708,444,1554973788603082305,,-2.6502764225,0.774740517139,-2.02645573667
1554973788612730533,445,1554973788612310730,,-2.65279340744,0.772916257381,-1.96766621778
1554973788623072769,446,1554973788622624454,,-2.65510702133,0.771075546741,-1.91392418342
1554973788633476736,447,1554973788632997450,,-2.65748906136,0.769361257553,-1.86525319143
1554973788642836522,448,1554973788642345348,,-2.66019678116,0.767900526524,-1.80803568178
1554973788653031126,449,1554973788652569766,,-2.66275429726,0.766292870045,-1.75234593829
1554973788672526077,450,1554973788672033395,,-2.66531300545,0.764565765858,-1.6958436034
1554973788672694279,451,1554973788672072448,,-2.66795754433,0.763044893742,-1.63912712702
1554973788672808917,452,1554973788672101709,,-2.67074489594,0.76136547327,-1.57871994524
1554973788682569405,453,1554973788682310364,,-2.67358922958,0.759845197201,-1.51641810794
1554973788693092083,454,1554973788692620519,,-2.67617607117,0.758225440979,-1.45216161566
1554973788703414074,455,1554973788702963836,,-2.67892622948,0.75672018528,-1.3880034385
1554973788703572173,456,1554973788703000761,,-2.68181300163,0.75528460741,-1.32433233364
1554973788712445975,457,1554973788712213097,,-2.6845433712,0.753682911396,-1.26159514661
1554973788723026841,458,1554973788722558970,,-2.68728876114,0.752070903778,-1.1957072129
1554973788733384498,459,1554973788732951225,,-2.68979430199,0.750754535198,-1.13306992457
1554973788742797244,460,1554973788742319155,,-2.69246935844,0.749263286591,-1.06253502067
1554973788752858947,461,1554973788752564116,,-2.69504308701,0.747947871685,-0.999210729924
1554973788772696040,462,1554973788772213847,,-2.69729137421,0.746279478073,-0.933071958078
1554973788772855372,463,1554973788772251040,,-2.69990229607,0.745302438736,-0.869360952806
1554973788772984920,464,1554973788772280468,,-2.70241856575,0.743440926075,-0.805263432181
1554973788782717390,465,1554973788782473055,,-2.70481872559,0.742320537567,-0.736406342592
1554973788793321720,466,1554973788792816144,,-2.7069439888,0.741207003593,-0.669187021879
1554973788802541136,467,1554973788802058233,,-2.7093527317,0.739669501781,-0.605583527457
1554973788823204486,468,1554973788822720438,,-2.71172118187,0.738347768784,-0.543388504254
1554973788823369346,469,1554973788822764839,,-2.71643543243,0.73549169302,-0.408598212348
1554973788833573343,470,1554973788833111091,,-2.7190747261,0.734040737152,-0.340184279036
1554973788842946024,471,1554973788842458185,,-2.72153973579,0.732260704041,-0.279354581351
1554973788852914023,472,1554973788852645394,,-2.72380423546,0.730549991131,-0.213824160419
1554973788872686676,473,1554973788872223629,,-2.72646331787,0.728796601295,-0.147114000444
1554973788872830050,474,1554973788872268245,,-2.73114204407,0.724403381348,-0.0200460625371
1554973788893412445,475,1554973788892894864,,-2.73357915878,0.722480654716,0.0450454103496
1554973788893634953,476,1554973788892929602,,-2.73579406738,0.720057010651,0.109887613956
1554973788902348633,477,1554973788902094934,,-2.73820710182,0.71749663353,0.180631094838
1554973788902502173,478,1554973788902112662,,-2.74065685272,0.715656459332,0.244815298809
1554973788912815562,479,1554973788912360722,,-2.74303984642,0.713155925274,0.312860827457
1554973788923151626,480,1554973788922701455,,-2.74541330338,0.710493803024,0.379533461388
1554973788933171942,481,1554973788932925572,,-2.74753332138,0.70803797245,0.453795444251
1554973788942382832,482,1554973788942123994,,-2.74967503548,0.705375611782,0.523190428585
1554973788952730618,483,1554973788952346426,,-2.75182414055,0.702710211277,0.595532794721
1554973788973520860,484,1554973788972983468,,-2.75402665138,0.700031936169,0.669811701774
1554973788973668356,485,1554973788973026302,,-2.75611448288,0.697523534298,0.739603950024
1554973788973815177,486,1554973788973053486,,-2.75796222687,0.69455242157,0.820378614672
1554973788993017500,487,1554973788992444218,,-2.75969600677,0.691992878914,0.893071562264
1554973788993177236,488,1554973788992485671,,-2.76139974594,0.689410507679,0.968963873973
1554973789003182754,489,1554973789002758381,,-2.76314878464,0.68686568737,1.04600886755
1554973789003319429,490,1554973789002796329,,-2.76470422745,0.684075951576,1.12237632168
1554973789013209036,491,1554973789012986099,,-2.76607441902,0.681266665459,1.20137933506
1554973789022771069,492,1554973789022348166,,-2.76744484901,0.67858427763,1.27804304164
1554973789033144531,493,1554973789032728522,,-2.76836895943,0.675529837608,1.35908531712
1554973789042443965,494,1554973789041995602,,-2.76953005791,0.673086285591,1.4330515272
1554973789052513477,495,1554973789052222521,,-2.77036762238,0.670294463634,1.5110100357
1554973789052663061,496,1554973789052241581,,-2.77102446556,0.667534708977,1.58852155006
1554973789093112499,497,1554973789092622421,,-2.77144241333,0.665040314198,1.66702479559
1554973789093261063,498,1554973789092677897,,-2.77261543274,0.65763425827,1.89427911329
1554973789103588234,499,1554973789103014855,,-2.77260708809,0.655060112476,1.97397158407
1554973789103618232,500,1554973789103046328,,-2.77291202545,0.652801930904,2.05103261219
1554973789112556423,501,1554973789112232852,,-2.77310323715,0.65059274435,2.12583104621
1554973789123083240,502,1554973789122594378,,-2.77337241173,0.648396551609,2.19996685457
1554973789133429503,503,1554973789132970076,,-2.77347779274,0.646178245544,2.2750646421
1554973789142906051,504,1554973789142306525,,-2.77370095253,0.643865585327,2.34845591156
1554973789153066239,505,1554973789152618682,,-2.77404522896,0.641857564449,2.42231016643
1554973789153266665,506,1554973789152654770,,-2.77412629128,0.639755785465,2.4947541783
1554973789183093650,507,1554973789182627001,,-2.77458429337,0.637539327145,2.56823959532
1554973789183292160,508,1554973789182673399,,-2.77522611618,0.633704662323,2.71252752858
1554973789193497854,509,1554973789192995408,,-2.77569150925,0.63165396452,2.78686959658
1554973789202852385,510,1554973789202362351,,-2.77623844147,0.629676938057,2.85198177236
1554973789202992319,511,1554973789202397085,,-2.77682352066,0.627663016319,2.92187450024
1554973789212889050,512,1554973789212572150,,-2.7770357132,0.626135885715,2.9892304227
1554973789223340420,513,1554973789222876181,,-2.77783536911,0.62450504303,3.053658249
1554973789232672648,514,1554973789232203332,,-2.77836561203,0.623271822929,3.11954272856
1554973789242982949,515,1554973789242486970,,-2.77889609337,0.62155854702,-3.10326812505
1554973789252953281,516,1554973789252684454,,-2.77937459946,0.620284378529,-3.04095241872
1554973789253162594,517,1554973789252701733,,-2.7801823616,0.618915259838,-2.98626077094
1554973789293428160,518,1554973789292928385,,-2.78077316284,0.617605209351,-2.92579306518
1554973789293560678,519,1554973789292980585,,-2.78317713737,0.614848554134,-2.76593906946
1554973789302389205,520,1554973789302148085,,-2.78395462036,0.613935947418,-2.72073731215
1554973789302534294,521,1554973789302181789,,-2.78484582901,0.613123774529,-2.67549959948
1554973789312670560,522,1554973789312378220,,-2.78587841988,0.612423956394,-2.62940851068
1554973789322914695,523,1554973789322589862,,-2.78694009781,0.611930251122,-2.58806340656
1554973789333415936,524,1554973789332934546,,-2.78774929047,0.611319303513,-2.54857800353
1554973789342676377,525,1554973789342176670,,-2.78896903992,0.610821127892,-2.50728631711
1554973789352846640,526,1554973789352438359,,-2.7900853157,0.610356628895,-2.4735759815
1554973789353023724,527,1554973789352478172,,-2.79130768776,0.610117673874,-2.44079148395
1554973789362969778,528,1554973789362682368,,-2.79256153107,0.609930872917,-2.40742947015
1554973789382687497,529,1554973789382176702,,-2.79397320747,0.609903693199,-2.37531839317
1554973789382804037,530,1554973789382216604,,-2.79553079605,0.609815180302,-2.34623683101
1554973789392818339,531,1554973789392514963,,-2.79691100121,0.609694421291,-2.32224803826
1554973789403294189,532,1554973789402857958,,-2.79860877991,0.609780788422,-2.29669963849
1554973789403454889,533,1554973789402893344,,-2.80007910728,0.610165596008,2.42880928729
1554973789412691701,534,1554973789412263158,,-2.80167770386,0.610294759274,-2.2500025756
1554973789423145712,535,1554973789422670600,,-2.80332064629,0.610450029373,-2.22902148635
1554973789433588635,536,1554973789433074027,,-2.80512475967,0.610675692558,-2.20981405214
1554973789442545509,537,1554973789442290944,,-2.8068459034,0.610913276672,-2.19538091079
1554973789452861407,538,1554973789452480103,,-2.80870342255,0.611308515072,-2.1782916934
1554973789452986263,539,1554973789452497520,,-2.81086707115,0.611470460892,-2.1625032862
1554973789462898570,540,1554973789462658673,,-2.8130466938,0.612271368504,-2.14757546271
1554973789493073576,541,1554973789492557115,,-2.81503343582,0.612604320049,-2.1412378686
1554973789493250939,542,1554973789492605928,,-2.81950926781,0.613548517227,-2.12237626499
1554973789503463618,543,1554973789502908642,,-2.82162165642,0.614181041718,-2.11697240278
1554973789503542483,544,1554973789502942663,,-2.82404541969,0.614899754524,-2.11365599531
1554973789512440214,545,1554973789512128068,,-2.82647848129,0.615628421307,-2.10951852823
1554973789522945533,546,1554973789522444177,,-2.82917380333,0.616476237774,-2.10670685301
1554973789533224797,547,1554973789532789486,,-2.83139061928,0.617130100727,-2.10340161431
1554973789542478111,548,1554973789542027059,,-2.83422994614,0.618218660355,-2.10365550264
1554973789552656412,549,1554973789552225714,,-2.83676671982,0.619249999523,-2.11014449536
1554973789552665046,550,1554973789552257096,,-2.8393676281,0.61977404356,-2.11258223249
1554973789563126632,551,1554973789562623442,,-2.84245729446,0.621096909046,-2.11570030549
1554973789593165698,552,1554973789592608920,,-2.84513521194,0.621908247471,-2.12639502062
1554973789593340937,553,1554973789592655721,,-2.85102820396,0.624340355396,-2.14090023631
1554973789603236177,554,1554973789602866669,,-2.8539493084,0.625465333462,-2.15036848838
1554973789603388839,555,1554973789602883467,,-2.85705733299,0.626697778702,-2.15944397164
1554973789612224179,556,1554973789611994876,,-2.85984635353,0.6281452775,2.32437996971
1554973789622758799,557,1554973789622259634,,-2.86291050911,0.629460096359,-2.17265729813
1554973789633035663,558,1554973789632591610,,-2.86583542824,0.631147921085,2.33288098905
1554973789643404380,559,1554973789642942667,,-2.86904358864,0.632600843906,-2.18277204421
1554973789652614144,560,1554973789652164136,,-2.87216281891,0.633602678776,-2.18272115942
1554973789652620965,561,1554973789652185235,,-2.87524056435,0.635135114193,-2.18649805889
1554973789663122793,562,1554973789662635843,,-2.87863898277,0.636930525303,-2.1818203777
1554973789693073485,563,1554973789692596514,,-2.88177037239,0.638599336147,-2.17997637789
1554973789693263877,564,1554973789692636485,,-2.88493084908,0.640221714973,-2.17618680066
1554973789693429150,565,1554973789692666119,,-2.8881509304,0.64203774929,-2.17586358447
1554973789703213913,566,1554973789702875548,,-2.89167451859,0.64383071661,-2.17062549327
1554973789703352659,567,1554973789702907723,,-2.89512896538,0.645409286022,-2.16913060262
1554973789712469313,568,1554973789712132745,,-2.89848017693,0.647697389126,-2.16613496845
1554973789722970336,569,1554973789722480412,,-2.90191650391,0.649559020996,-2.16180328801
1554973789733296273,570,1554973789732824981,,-2.90544748306,0.651466667652,-2.15874162044
1554973789742487935,571,1554973789742007905,,-2.90919113159,0.653887093067,-2.15913561157
1554973789752847350,572,1554973789752366460,,-2.91280412674,0.655665099621,-2.15977713388
1554973789753024127,573,1554973789752404001,,-2.91628098488,0.657792568207,-2.16011848264
1554973789762850979,574,1554973789762575350,,-2.92012000084,0.660075306892,-2.15995322872
1554973789773308152,575,1554973789772869944,,-2.92386293411,0.662235856056,-2.16682721568
1554973789792890471,576,1554973789792418619,,-2.92763876915,0.664370834827,-2.16940974013
1554973789793102193,577,1554973789792456943,,-2.93149828911,0.666517317295,-2.17128374167
1554973789802915077,578,1554973789802649341,,-2.93514609337,0.668948054314,-2.18023170047
1554973789803031204,579,1554973789802666827,,-2.93903779984,0.671192646027,-2.18196458025
1554973789813431300,580,1554973789812943291,,-2.94262886047,0.673239588737,-2.19014536856
1554973789822726395,581,1554973789822270505,,-2.94640779495,0.675722897053,-2.19429424084
1554973789833073996,582,1554973789832631264,,-2.95003938675,0.677807211876,-2.20016390002
1554973789843433129,583,1554973789842954467,,-2.95373535156,0.680067956448,-2.20302676506
1554973789852472420,584,1554973789852178812,,-2.95728397369,0.68248128891,2.36952272831
1554973789852614285,585,1554973789852196568,,-2.96108078957,0.68467438221,-2.21815397996
1554973789862856109,586,1554973789862410283,,-2.96456170082,0.686823785305,-2.22343418855
1554973789873224882,587,1554973789872776428,,-2.96819734573,0.689529776573,2.38915965402
1554973789892853370,588,1554973789892336569,,-2.97132658958,0.691377282143,2.39368422898
1554973789893050674,589,1554973789892378629,,-2.97513890266,0.693510949612,-2.24508146264
1554973789902828755,590,1554973789902569217,,-2.97872495651,0.695430755615,-2.25074381159
1554973789903009371,591,1554973789902603153,,-2.98223042488,0.697787046432,-2.25947541623
1554973789913378328,592,1554973789912872337,,-2.9855966568,0.70075237751,2.42451098572
1554973789922707381,593,1554973789922233172,,-2.98937296867,0.702561199665,-2.27686417886
1554973789933052236,594,1554973789932583948,,-2.99294090271,0.704940080643,-2.28698148917
1554973789943414404,595,1554973789942873583,,-2.99673843384,0.706857442856,-2.3031194737
1554973789952398776,596,1554973789952090584,,-3.00029492378,0.709962904453,-2.31395466077
1554973789952584412,597,1554973789952108259,,-3.00395798683,0.712158501148,-2.33170427047
1554973789962660771,598,1554973789962340990,,-3.00768041611,0.714454352856,-2.34744113795
1554973789973131746,599,1554973789972634328,,-3.01174044609,0.717106342316,-2.36895431288
1554973790003086929,600,1554973790002609522,,-3.01514029503,0.719977259636,-2.38611695229
1554973790003233527,601,1554973790002661558,,-3.02675151825,0.728373169899,-2.45268301297
1554973790013453254,602,1554973790012974719,,-3.03084564209,0.731493532658,-2.47562182785
1554973790022805050,603,1554973790022348440,,-3.03496360779,0.734429657459,-2.5056556289
1554973790033208848,604,1554973790032725900,,-3.03865456581,0.737664759159,-2.53303813302
1554973790043580957,605,1554973790043023960,,-3.0426325798,0.740753352642,-2.56153027438
1554973790052478406,606,1554973790052238801,,-3.04670810699,0.744001507759,-2.59676985644
1554973790052604154,607,1554973790052274474,,-3.05067849159,0.747107028961,-2.62725159954
1554973790063069808,608,1554973790062588172,,-3.05464792252,0.750503063202,-2.66020912786
1554973790073423620,609,1554973790072962582,,-3.05887842178,0.754148423672,-2.6978791512
1554973790082762579,610,1554973790082296905,,-3.06284427643,0.757548391819,-2.73293685546
1554973790103414496,611,1554973790102925646,,-3.06694698334,0.761114656925,-2.7693381607
1554973790103636659,612,1554973790102963805,,-3.07500219345,0.768590509892,-2.8498146314
1554973790112338933,613,1554973790112113148,,-3.07903695107,0.772838950157,-2.88813757489
1554973790122929116,614,1554973790122429883,,-3.08287215233,0.776649475098,-2.92914316437
1554973790133221643,615,1554973790132769319,,-3.08695316315,0.781228542328,-2.96705361726
1554973790142509853,616,1554973790142012058,,-3.09087491035,0.785348534584,-3.0118318484
1554973790152563774,617,1554973790152245742,,-3.09475517273,0.789920151234,-3.04842255573
1554973790152727972,618,1554973790152269269,,-3.09860825539,0.79448980093,-3.09038435488
1554973790163277554,619,1554973790162779327,,-3.10239744186,0.799575150013,-3.12615625989
1554973790172501411,620,1554973790172026222,,-3.10605955124,0.804524958134,3.11797031871
1554973790182892157,621,1554973790182401590,,-3.10960483551,0.80969107151,3.07968571781
1554973790203541706,622,1554973790202928445,,-3.11318421364,0.814805984497,3.04222261369
1554973790203553206,623,1554973790202974284,,-3.12029266357,0.82537984848,2.96968706071
1554973790212348622,624,1554973790212096444,,-3.12379479408,0.831000447273,2.9336269976
1554973790222848891,625,1554973790222393950,,-3.12710309029,0.836533904076,2.90131187384
1554973790232919203,626,1554973790232601615,,-3.13013339043,0.841974139214,2.8682400041
1554973790243311357,627,1554973790242866228,,-3.13346028328,0.847573161125,2.84117095806
1554973790252413824,628,1554973790252123291,,-3.13639545441,0.853155910969,2.81147685887
1554973790252555504,629,1554973790252157396,,-3.13951015472,0.858922421932,2.78502071766
1554973790262694075,630,1554973790262384120,,-3.1424536705,0.864690303802,2.76169814812
1554973790273178218,631,1554973790272703807,,-3.14512372017,0.870704710484,2.73723195566
1554973790283555667,632,1554973790283081583,,-3.14790940285,0.876467764378,2.71669981758
1554973790303274467,633,1554973790302797895,,-3.15061783791,0.882248044014,2.69450069205
1554973790303473904,634,1554973790302833882,,-3.15329146385,0.888365209103,2.67423132873
1554973790313439798,635,1554973790313006573,,-3.15549612045,0.894522428513,2.65524737043
1554973790313448983,636,1554973790313024238,,-3.15780258179,0.900880932808,2.63560070036
1554973790322432606,637,1554973790322190894,,-3.15999746323,0.906930148602,2.61741162891
1554973790333007689,638,1554973790332536314,,-3.16202569008,0.913565039635,2.59784867623
1554973790343317771,639,1554973790342853195,,-3.1641356945,0.920027792454,2.5817254068
1554973790352251866,640,1554973790351998421,,-3.16592717171,0.926670074463,2.56281190215
1554973790352480263,641,1554973790352033485,,-3.16748261452,0.933111011982,2.5486937462
1554973790362600993,642,1554973790362285777,,-3.16902112961,0.939831674099,2.53249749182
1554973790373124333,643,1554973790372627774,,-3.17039418221,0.946835935116,2.51379009957
1554973790383394610,644,1554973790382910864,,-3.17168402672,0.95365267992,2.49876524532
1554973790392723086,645,1554973790392225141,,-3.17281603813,0.960490167141,2.47988535337
1554973790403079749,646,1554973790402553054,,-3.17380976677,0.96734046936,2.46383749773
1554973790403104917,647,1554973790402590434,,-3.17464613914,0.974645972252,2.44742549171
1554973790413238012,648,1554973790412790915,,-3.17533636093,0.981749415398,2.43219942313
1554973790422480274,649,1554973790422012252,,-3.17578291893,0.988890469074,2.41779925779
1554973790432825279,650,1554973790432371627,,-3.17623519897,0.996421456337,2.402315638
1554973790443159509,651,1554973790442677986,,-3.17625761032,1.00362098217,2.38674081216
1554973790453386293,652,1554973790452915932,,-3.17627358437,1.01114618778,2.37150944965
1554973790453546625,653,1554973790452951053,,-3.17640566826,1.01869082451,2.35370935544
1554973790462454701,654,1554973790462168522,,-3.1761264801,1.02632808685,2.33697964185
1554973790472926552,655,1554973790472480326,,-3.17568778992,1.0338947773,2.32306693262
1554973790483259812,656,1554973790482787765,,-3.17523431778,1.04158985615,2.31035992223
1554973790492459814,657,1554973790492005069,,-3.17458057404,1.0492297411,2.29694906357
1554973790513032123,658,1554973790512530486,,-3.17382717133,1.05715882778,2.28201135561
1554973790513204221,659,1554973790512575978,,-3.17202734947,1.07267355919,2.26302900803
1554973790522971685,660,1554973790522726683,,-3.1711332798,1.08024775982,2.25183905167
1554973790533527873,661,1554973790533037473,,-3.1700155735,1.08797419071,2.24401259465
1554973790542845276,662,1554973790542381423,,-3.16869592667,1.09578895569,2.23685357864
1554973790553254776,663,1554973790552809184,,-3.16726732254,1.10338270664,2.23508726962
1554973790553383871,664,1554973790552841655,,-3.16607403755,1.1108328104,2.23712202487
1554973790562202597,665,1554973790561963208,,-3.16460585594,1.11869120598,2.23366358267
1554973790572744058,666,1554973790572184673,,-3.16287565231,1.12653577328,2.23365887673
1554973790584123816,667,1554973790583656992,,-3.16123580933,1.13396954536,2.23901701184
1554973790593497581,668,1554973790593051169,,-3.15957760811,1.14184606075,2.23765487467
1554973790613287179,669,1554973790612767610,,-3.15822315216,1.14956450462,2.24172327335
1554973790613460966,670,1554973790612815973,,-3.15475964546,1.16509711742,2.24737163625
1554973790622496148,671,1554973790622040538,,-3.15308880806,1.1727155447,2.25124411963
