%time,field.header.seq,field.header.stamp,field.header.frame_id,field.point.x,field.point.y,field.point.z
1555406701113857812,1,1555406701113201668,,-2.62355184555,-1.26835298538,2.74641256405
1555406701113867675,2,1555406701113306291,,-2.6213927269,-1.27021169662,2.65684456413
1555406701123257132,3,1555406701122877605,,-2.61935853958,-1.2720284462,2.57083671549
1555406701133674399,4,1555406701133197987,,-2.61748814583,-1.27363991737,2.47917078827
1555406701153298547,5,1555406701152783418,,-2.61521077156,-1.27583789825,2.39559847172
1555406701153387004,6,1555406701152814782,,-2.61341881752,-1.277354002,2.31860155856
1555406701163334540,7,1555406701162988188,,-2.61174273491,-1.27910685539,2.22865877096
1555406701163342156,8,1555406701163015228,,-2.60955667496,-1.28083658218,2.13963199006
1555406701173771601,9,1555406701173294536,,-2.60788869858,-1.28253853321,2.04790346759
1555406701184185039,10,1555406701183678274,,-2.60585284233,-1.28373539448,1.96711278466
1555406701193482464,11,1555406701193007617,,-2.60440540314,-1.28472018242,1.87082374484
1555406701204011990,12,1555406701203566620,,-2.60241985321,-1.28572165966,1.77645130513
1555406701213449894,13,1555406701212973483,,-2.60100102425,-1.28660845757,1.67828740247
1555406701213613671,14,1555406701213014154,,-2.59904527664,-1.2878985405,1.57648120208
1555406701223490759,15,1555406701223226061,,-2.59732532501,-1.28850579262,1.478610168
1555406701234065232,16,1555406701233615404,,-2.59576964378,-1.28901433945,1.3788205419
1555406701253823157,17,1555406701253349228,,-2.59402704239,-1.28909575939,1.28248745084
1555406701253924990,18,1555406701253388458,,-2.59228086472,-1.28955030441,1.18516041527
1555406701263822590,19,1555406701263578815,,-2.59032988548,-1.29082334042,1.0827396325
1555406701263963592,20,1555406701263607462,,-2.5890994072,-1.29079461098,0.964543431076
1555406701273053907,21,1555406701272808740,,-2.58679413795,-1.29121220112,0.878640744236
1555406701283698139,22,1555406701283172212,,-2.58410549164,-1.2919011116,0.776139619647
1555406701293925946,23,1555406701293472186,,-2.58170509338,-1.29188239574,0.666877878414
1555406701303918369,24,1555406701303680443,,-2.58055734634,-1.29152178764,0.564398552316
1555406701313523916,25,1555406701313007173,,-2.57780766487,-1.2913620472,0.468194128902
1555406701313618151,26,1555406701313042877,,-2.57581186295,-1.29280602932,0.364840449314
1555406701323459045,27,1555406701323231802,,-2.57333016396,-1.29232537746,0.258487566916
1555406701333767126,28,1555406701333470182,,-2.57044577599,-1.29280233383,0.158419356545
1555406701353532706,29,1555406701353006801,,-2.56817817688,-1.29317510128,0.0609564040003
1555406701353635892,30,1555406701353043674,,-2.56499242783,-1.29322373867,-0.047306582525
1555406701363469460,31,1555406701363237001,,-2.56234002113,-1.29410743713,-0.146945644128
1555406701363612104,32,1555406701363252734,,-2.55957508087,-1.29501545429,-0.231384049586
1555406701373671583,33,1555406701373436217,,-2.55670952797,-1.29615390301,-0.320929240144
1555406701384283219,34,1555406701383779555,,-2.5540163517,-1.29655969143,-0.435800086672
1555406701393528484,35,1555406701393095890,,-2.55152487755,-1.29741060734,-0.524565184646
1555406701403691052,36,1555406701403431186,,-2.54841089249,-1.29858529568,-0.616677828449
1555406701414213788,37,1555406701413736074,,-2.54437398911,-1.30048084259,-0.702650410415
1555406701414370747,38,1555406701413769123,,-2.54181599617,-1.30133652687,-0.801537378485
1555406701423185427,39,1555406701422957552,,-2.53964924812,-1.30335462093,-0.868479204784
1555406701433819654,40,1555406701433326539,,-2.53541135788,-1.3051584959,-0.94824133953
1555406701463912736,41,1555406701463439092,,-2.53296923637,-1.30726158619,-1.03174754076
1555406701464069427,42,1555406701463488683,,-2.52406096458,-1.31419837475,-1.25963125761
1555406701473950995,43,1555406701473676975,,-2.52142739296,-1.31637334824,-1.33046428394
1555406701483548067,44,1555406701483026069,,-2.51855158806,-1.31911253929,-1.39305752569
1555406701493777379,45,1555406701493354695,,-2.5151488781,-1.32218587399,-1.46105973393
1555406701504220382,46,1555406701503729196,,-2.51260042191,-1.32524704933,-1.5235567875
1555406701513579013,47,1555406701513083790,,-2.50983119011,-1.32784450054,-1.5886985391
1555406701513711803,48,1555406701513119278,,-2.50761222839,-1.33104121685,-1.64182144086
1555406701523551824,49,1555406701523309326,,-2.50525832176,-1.3340241909,-1.69764451778
1555406701533778562,50,1555406701533505728,,-2.50336098671,-1.33727145195,-1.74109395575
1555406701543259135,51,1555406701542735955,,-2.50048470497,-1.34089446068,-1.80339513727
1555406701564117886,52,1555406701563633797,,-2.49761390686,-1.34447288513,-1.86709129014
1555406701564237314,53,1555406701563675745,,-2.4927945137,-1.35202991962,-1.958078226
1555406701573147067,54,1555406701572865900,,-2.49040269852,-1.35603249073,-2.0147813172
1555406701583737838,55,1555406701583228595,,-2.48908686638,-1.35952079296,-2.05738587836
1555406701593998813,56,1555406701593585423,,-2.48783421516,-1.36387276649,-2.10821298363
1555406701603070699,57,1555406701602827370,,-2.48628234863,-1.36771702766,-2.13906718611
1555406701613646740,58,1555406701613141304,,-2.48441243172,-1.3725438118,-2.2135664793
1555406701613747576,59,1555406701613176178,,-2.48394322395,-1.37675833702,-2.24949907953
1555406701623593943,60,1555406701623365095,,-2.48274302483,-1.38114404678,-2.29510179877
1555406701633851736,61,1555406701633556797,,-2.4820086956,-1.38577544689,-2.33448456752
1555406701643309744,62,1555406701642790510,,-2.4808113575,-1.38994407654,-2.38567875036
1555406701663981071,63,1555406701663484987,,-2.4794716835,-1.39546179771,-2.44745824132
1555406701664095634,64,1555406701663525807,,-2.47887158394,-1.40549349785,-2.53738608496
1555406701672918045,65,1555406701672641531,,-2.47887253761,-1.40942025185,-2.57007272272
1555406701683502199,66,1555406701682998296,,-2.47925615311,-1.41320085526,-2.59941315423
1555406701693702848,67,1555406701693303309,,-2.47859048843,-1.41901278496,-2.64688558762
1555406701703818407,68,1555406701703520773,,-2.47875022888,-1.42343580723,-2.69410165653
1555406701713246193,69,1555406701712743391,,-2.47942614555,-1.42841613293,-2.72674471971
1555406701713396779,70,1555406701712778552,,-2.4799425602,-1.43281435966,-2.75858402481
1555406701723169784,71,1555406701722932818,,-2.48082017899,-1.43714880943,-2.78532980564
1555406701733721642,72,1555406701733216805,,-2.48150920868,-1.44192838669,-2.82232271309
1555406701744038774,73,1555406701743560961,,-2.48203039169,-1.44676542282,-2.85688009326
1555406701763701836,74,1555406701763197970,,-2.48337936401,-1.45182967186,-2.88058675424
1555406701763864268,75,1555406701763242934,,-2.48410654068,-1.4599814415,-2.93072379749
1555406701773624422,76,1555406701773397362,,-2.48566675186,-1.46517026424,-2.96543074725
1555406701784215435,77,1555406701783700570,,-2.48668265343,-1.46884775162,-2.99000653948
1555406701793619912,78,1555406701793017424,,-2.48811030388,-1.4732644558,-3.01049217658
1555406701803825904,79,1555406701803370771,,-2.4891936779,-1.47816097736,-3.0477406335
1555406701814185740,80,1555406701813736278,,-2.49026679993,-1.48200917244,-3.07413586084
1555406701814380768,81,1555406701813772182,,-2.49067187309,-1.48637962341,-3.09553272695
1555406701823284490,82,1555406701823051290,,-2.49258804321,-1.49062407017,-3.10876564073
1555406701833911228,83,1555406701833432775,,-2.49366307259,-1.49483132362,-3.14032298674
1555406701843170413,84,1555406701842707667,,-2.4946744442,-1.49918925762,3.12973650768
1555406701853545132,85,1555406701853069497,,-2.49590396881,-1.50342833996,3.09043581088
1555406701874088871,86,1555406701873619836,,-2.49759912491,-1.5077624321,3.06892564282
1555406701874225358,87,1555406701873657485,,-2.4984869957,-1.51194131374,3.03736775096
1555406701874342178,88,1555406701873686869,,-2.50022745132,-1.51624321938,3.00971198266
1555406701883059827,89,1555406701882858633,,-2.50187540054,-1.51929879189,2.96038237284
1555406701893625768,90,1555406701893259582,,-2.50373077393,-1.52529764175,2.93895064504
1555406701904096946,91,1555406701903633607,,-2.50533699989,-1.52872061729,2.9096732247
1555406701913488976,92,1555406701912996794,,-2.50749826431,-1.53274047375,2.87250406868
1555406701913607204,93,1555406701913034724,,-2.50940060616,-1.53671944141,2.84564715095
1555406701953582143,94,1555406701953113863,,-2.51892161369,-1.55226111412,2.66762776829
1555406701973228158,95,1555406701972743876,,-2.52037119865,-1.55560827255,2.63822007052
1555406701973462149,96,1555406701972783721,,-2.52366447449,-1.55986404419,2.59333641441
1555406701973470362,97,1555406701972804564,,-2.52591943741,-1.56362378597,2.54599809047
1555406701983568521,98,1555406701983058346,,-2.52872490883,-1.56719970703,2.49697389766
1555406701994207412,99,1555406701993848502,,-2.53060746193,-1.57028961182,2.45855384673
1555406702003334669,100,1555406702003080308,,-2.53348994255,-1.57428908348,2.41357115524
1555406702013791995,101,1555406702013328503,,-2.53536581993,-1.5777837038,2.3566178814
1555406702014005007,102,1555406702013357749,,-2.53794813156,-1.58205008507,2.3284661586
1555406702023777082,103,1555406702023558807,,-2.54089522362,-1.58471846581,2.27995429996
1555406702033295499,104,1555406702032774791,,-2.54350352287,-1.5878932476,2.2331405026
1555406702043599778,105,1555406702043143736,,-2.54587292671,-1.59158492088,2.18836129077
1555406702054007967,106,1555406702053522521,,-2.54812908173,-1.59465694427,2.151243183
1555406702073506353,107,1555406702073015249,,-2.55082607269,-1.59836792946,2.09887127946
1555406702073618005,108,1555406702073054555,,-2.55530691147,-1.6055521965,2.01992435769
1555406702083465821,109,1555406702083210618,,-2.55736255646,-1.60862135887,1.97922659367
1555406702093871336,110,1555406702093473701,,-2.56007933617,-1.61188900471,1.92798630346
1555406702103252135,111,1555406702102754269,,-2.56274533272,-1.61541461945,1.88286057703
1555406702113577469,112,1555406702113101585,,-2.56617712975,-1.61946928501,1.81333147831
1555406702113745320,113,1555406702113139286,,-2.56752109528,-1.62179720402,1.79176122303
1555406702123620210,114,1555406702123332873,,-2.56968164444,-1.62494337559,1.74964475848
1555406702134125083,115,1555406702133613039,,-2.57215595245,-1.62845396996,1.69939886977
1555406702173361687,116,1555406702172894601,,-2.5809366703,-1.64104187489,1.52546921309
1555406702173556405,117,1555406702172925574,,-2.58343219757,-1.64402747154,1.4733663888
1555406702183734627,118,1555406702183269219,,-2.58598780632,-1.64621257782,1.43516761025
1555406702194058630,119,1555406702193653091,,-2.58775877953,-1.64883291721,1.39756673553
1555406702203554624,120,1555406702203023671,,-2.58942222595,-1.65178823471,1.34402798139
1555406702213906307,121,1555406702213400936,,-2.59194993973,-1.65358316898,1.30405864054
1555406702243718278,122,1555406702243284518,,-2.59939002991,-1.65862989426,1.13705818027
1555406702263423937,123,1555406702262938135,,-2.60216069221,-1.66276526451,1.05494059527
1555406702273699529,124,1555406702273230210,,-2.6032204628,-1.66325008869,0.990200030703
1555406702273872429,125,1555406702273259662,,-2.60439682007,-1.66630089283,0.987001167202
1555406702283758145,126,1555406702283481210,,-2.60537385941,-1.66716206074,0.947285696521
1555406702293982343,127,1555406702293701478,,-2.60702800751,-1.6692109108,0.918014037906
1555406702303516368,128,1555406702303018772,,-2.60777068138,-1.67096805573,0.884363177721
1555406702313827138,129,1555406702313364890,,-2.60973596573,-1.67242980003,0.841180865102
1555406702324196521,130,1555406702323704475,,-2.61051726341,-1.67319560051,0.78514416326
1555406702333517329,131,1555406702333027938,,-2.61248850822,-1.67562425137,0.726236656901
1555406702354151906,132,1555406702353679216,,-2.61409950256,-1.67817926407,0.655978800135
1555406702363532449,133,1555406702363045447,,-2.61550283432,-1.67940664291,0.60900396411
1555406702384163775,134,1555406702383667185,,-2.61626935005,-1.6802533865,0.564311992213
1555406702384306585,135,1555406702383708931,,-2.61657428741,-1.68123209476,0.525720112679
1555406702384448736,136,1555406702383741645,,-2.61739802361,-1.6818985939,0.476713397371
1555406702393371188,137,1555406702393108021,,-2.61858487129,-1.68420815468,0.44602528006
1555406702403581315,138,1555406702403303782,,-2.61897301674,-1.68501806259,0.406525039984
1555406702414022282,139,1555406702413571210,,-2.61893558502,-1.68533945084,0.348820440924
1555406702414197588,140,1555406702413608835,,-2.61861276627,-1.68634808064,0.311346875416
1555406702423362233,141,1555406702422901425,,-2.61907505989,-1.68714165688,0.263958286674
1555406702433363984,142,1555406702433120401,,-2.61907982826,-1.68712794781,0.20338632178
1555406702443904229,143,1555406702443448580,,-2.61944127083,-1.68892037868,0.150128949643
1555406702453233843,144,1555406702452686151,,-2.61906218529,-1.68967854977,0.107308455366
1555406702463495158,145,1555406702463021093,,-2.61898374557,-1.6901525259,0.0465934349698
1555406702484249341,146,1555406702483638651,,-2.61844778061,-1.69087040424,-0.00701836309837
1555406702484402901,147,1555406702483685188,,-2.61823439598,-1.69271731377,-0.120898579669
1555406702493557847,148,1555406702492909591,,-2.61783599854,-1.69352984428,-0.166166118842
1555406702503808390,149,1555406702503325333,,-2.61725616455,-1.6949416399,-0.230727570736
1555406702514187140,150,1555406702513705980,,-2.61724925041,-1.6957038641,-0.274572523625
1555406702514354277,151,1555406702513746289,,-2.6171028614,-1.6972900629,-0.327984541278
1555406702523186879,152,1555406702522953664,,-2.61658072472,-1.69790196419,-0.399278880781
1555406702533486004,153,1555406702533237678,,-2.61644911766,-1.69877111912,-0.440992195625
1555406702543984654,154,1555406702543572975,,-2.61581039429,-1.70030617714,-0.501825419893
1555406702553434333,155,1555406702552963463,,-2.61629748344,-1.70179438591,-0.533107927757
1555406702563780774,156,1555406702563330229,,-2.61585140228,-1.70497179031,-0.571685595262
1555406702563940404,157,1555406702563368989,,-2.61507725716,-1.70507335663,-0.645639772006
1555406702583423139,158,1555406702582938135,,-2.61468553543,-1.70620930195,-0.712980698439
1555406702583582805,159,1555406702582979301,,-2.61420440674,-1.70802462101,-0.764978946411
1555406702593637393,160,1555406702593275365,,-2.61386179924,-1.71004617214,-0.805082246608
1555406702603759972,161,1555406702603494065,,-2.61330151558,-1.71264564991,-0.825625166
1555406702613978415,162,1555406702613687251,,-2.61199879646,-1.71414482594,-0.887153151876
1555406702614114452,163,1555406702613709198,,-2.61203551292,-1.71613895893,-0.909489938998
1555406702623211170,164,1555406702622903172,,-2.61113476753,-1.71834540367,-0.954185846342
1555406702633719120,165,1555406702633205165,,-2.61045098305,-1.72068703175,-0.991961679027
1555406702644039855,166,1555406702643574567,,-2.60997343063,-1.72317421436,-1.00115805344
1555406702693586266,167,1555406702693008669,,-2.60601806641,-1.73466086388,-1.10672285582
1555406702693749838,168,1555406702693076617,,-2.60491204262,-1.7403935194,-1.17164626379
1555406702703939393,169,1555406702703421899,,-2.60352683067,-1.74405217171,-1.19712817471
1555406702714020245,170,1555406702713675134,,-2.60356330872,-1.74754416943,-1.22681390461
1555406702714129756,171,1555406702713692089,,-2.60166788101,-1.75104987621,-1.24930614216
1555406702723194941,172,1555406702722854772,,-2.60067486763,-1.75529587269,-1.27459172677
1555406702733694243,173,1555406702733197961,,-2.59968590736,-1.75916838646,-1.29401728363
1555406702744016731,174,1555406702743576746,,-2.59797430038,-1.76346361637,-1.32292605978
1555406702753440397,175,1555406702752927450,,-2.59681177139,-1.76791739464,-1.34464054981
1555406702763887908,176,1555406702763397408,,-2.59701061249,-1.77266156673,-1.37732996304
1555406702764083821,177,1555406702763437997,,-2.59521985054,-1.77719545364,-1.39053129731
1555406702793732025,178,1555406702793246793,,-2.59348225594,-1.78223574162,-1.42496182869
1555406702793895823,179,1555406702793299459,,-2.59214115143,-1.78692018986,-1.43520425423
1555406702794041281,180,1555406702793317909,,-2.59028697014,-1.79241597652,-1.46827303823
1555406702804064609,181,1555406702803597322,,-2.59058427811,-1.79777681828,-1.47957679612
1555406702813439548,182,1555406702812982425,,-2.58884549141,-1.80284035206,-1.50206538836
1555406702813608017,183,1555406702813022156,,-2.5878674984,-1.80846989155,-1.51459680269
1555406702823806542,184,1555406702823337474,,-2.5866765976,-1.81451845169,-1.53483211614
1555406702834138663,185,1555406702833697530,,-2.5851123333,-1.82047486305,-1.55404684467
1555406702843525970,186,1555406702843088653,,-2.5842757225,-1.82649946213,-1.57631325407
1555406702853990249,187,1555406702853482296,,-2.58291935921,-1.83289730549,-1.60553200696
1555406702863368920,188,1555406702862758881,,-2.5811021328,-1.83979988098,-1.62885783255
1555406702863481104,189,1555406702862798182,,-2.58044576645,-1.84629511833,-1.64166905685
1555406702893987663,190,1555406702893586809,,-2.57993388176,-1.85271501541,-1.66449095758
1555406702894125649,191,1555406702893621456,,-2.5770175457,-1.85965573788,-1.70183599528
1555406702894264245,192,1555406702893655499,,-2.57683777809,-1.86722743511,-1.72537424169
1555406702903090859,193,1555406702902843829,,-2.57572770119,-1.87478125095,-1.71615990258
1555406702913668659,194,1555406702913199999,,-2.57522153854,-1.88191771507,-1.76028054199
1555406702913854571,195,1555406702913241019,,-2.57415318489,-1.88939499855,-1.78074021653
1555406702924020254,196,1555406702923558402,,-2.57373762131,-1.89660954475,-1.80498640066
1555406702933400184,197,1555406702932931773,,-2.57228374481,-1.90464377403,-1.8312804041
1555406702943413885,198,1555406702943151773,,-2.57284045219,-1.91302990913,-1.83909854957
1555406702953911615,199,1555406702953450640,,-2.57168745995,-1.92107737064,-1.8633115271
1555406702963203778,200,1555406702962676485,,-2.56973266602,-1.93078541756,-1.9451105339
1555406702963340967,201,1555406702962713470,,-2.56892752647,-1.93843710423,-1.95424402912
1555406702973151149,202,1555406702972903731,,-2.56922292709,-1.94681215286,-1.97642440784
1555406702993967726,203,1555406702993612280,,-2.57064270973,-1.9544557333,-1.96826394748
1555406702994113530,204,1555406702993635860,,-2.56904792786,-1.96241903305,-2.00564035596
1555406703003075371,205,1555406703002818564,,-2.56884908676,-1.97188150883,-2.04571270665
1555406703013278795,206,1555406703013008037,,-2.56727552414,-1.98078751564,-2.07651174387
1555406703013433875,207,1555406703013024261,,-2.5686750412,-1.9901021719,-2.10047309323
1555406703023469111,208,1555406703023192090,,-2.56861424446,-1.9993005991,-2.13768881907
1555406703033953986,209,1555406703033486042,,-2.56824398041,-2.00759792328,-2.17724296074
1555406703043290727,210,1555406703042743856,,-2.56848526001,-2.01768708229,-2.22952627969
1555406703053584680,211,1555406703053082320,,-2.56849718094,-2.02656388283,-2.2612725908
1555406703063833425,212,1555406703063386160,,-2.56852507591,-2.03574824333,-2.3039276159
1555406703063993468,213,1555406703063420732,,-2.56897783279,-2.04487299919,-2.34309056957
1555406703073916474,214,1555406703073652892,,-2.56965780258,-2.05599617958,-2.39363408197
1555406703093598991,215,1555406703093195390,,-2.57034921646,-2.06399703026,-2.41601958913
1555406703093710798,216,1555406703093228814,,-2.57115769386,-2.07300114632,-2.45261145832
1555406703103646444,217,1555406703103383701,,-2.5734500885,-2.08284783363,-2.48840413615
1555406703114151440,218,1555406703113675892,,-2.57426953316,-2.09291601181,-2.53562196905
1555406703114330066,219,1555406703113710183,,-2.5749540329,-2.10179042816,-2.57334946158
1555406703123169256,220,1555406703122896136,,-2.57731151581,-2.11182641983,-2.61321188702
1555406703163525740,221,1555406703163020245,,-2.58408164978,-2.15106964111,-2.79813004364
1555406703163700650,222,1555406703163058001,,-2.58542537689,-2.1604681015,-2.82227514493
1555406703173460178,223,1555406703173212147,,-2.58818030357,-2.17066264153,-2.87068744157
1555406703203265409,224,1555406703202791948,,-2.59110045433,-2.18013453484,-2.91548374691
1555406703203443343,225,1555406703202832704,,-2.59415364265,-2.19873762131,-2.9882852093
1555406703213815129,226,1555406703213182114,,-2.59657001495,-2.20810675621,-3.0369786343
1555406703213824041,227,1555406703213219554,,-2.59811377525,-2.21884417534,-3.06989585035
1555406703223662026,228,1555406703223412281,,-2.60238003731,-2.22758316994,-3.11575095742
1555406703234253107,229,1555406703233766061,,-2.603941679,-2.23610448837,3.12513810508
1555406703243596041,230,1555406703243142207,,-2.60657000542,-2.24542737007,3.08513543579
1555406703254023792,231,1555406703253521343,,-2.60978913307,-2.25468420982,3.02135018497
1555406703263246865,232,1555406703262766537,,-2.61216330528,-2.26402902603,2.99681124338
1555406703263392024,233,1555406703262802465,,-2.61486887932,-2.27328968048,2.95568655696
1555406703273205737,234,1555406703272958260,,-2.61780905724,-2.28287506104,2.906781984
1555406703283739209,235,1555406703283281281,,-2.62065625191,-2.29147696495,2.85964268246
1555406703304206991,236,1555406703303697713,,-2.62380456924,-2.30048823357,2.81592214593
1555406703304376070,237,1555406703303726827,,-2.62696433067,-2.30935168266,2.76269700457
1555406703313545806,238,1555406703313073093,,-2.63002538681,-2.31820130348,2.72663805339
1555406703313696048,239,1555406703313111601,,-2.63334393501,-2.32659840584,2.66091637229
1555406703323509943,240,1555406703323270923,,-2.63653898239,-2.33596873283,2.60166067157
1555406703333994052,241,1555406703333541556,,-2.64060115814,-2.34399056435,2.55822000414
1555406703343283496,242,1555406703342787183,,-2.64434504509,-2.35308670998,2.47132445132
1555406703353625795,243,1555406703353128215,,-2.64624714851,-2.36081266403,2.42950446021
1555406703364044024,244,1555406703363433860,,-2.65150976181,-2.37037682533,2.36856675922
1555406703364055099,245,1555406703363466968,,-2.6550488472,-2.37714338303,2.3082368667
1555406703373908439,246,1555406703373656550,,-2.65903139114,-2.3857254982,2.2390270617
1555406703383577139,247,1555406703383063054,,-2.66245961189,-2.39332389832,2.19032740443
1555406703404148742,248,1555406703403698111,,-2.66624426842,-2.40135812759,2.13495789264
1555406703423841856,249,1555406703423385366,,-2.68006277084,-2.42855572701,1.95360314887
1555406703434179266,250,1555406703433745083,,-2.68307781219,-2.43513345718,1.89673970042
1555406703443586395,251,1555406703443149435,,-2.68748641014,-2.4425342083,1.85872650297
1555406703454002461,252,1555406703453553919,,-2.69015598297,-2.44905185699,1.81808666235
1555406703463454694,253,1555406703462953413,,-2.69432401657,-2.45510292053,1.76800187609
1555406703463612994,254,1555406703462994712,,-2.69673013687,-2.46138525009,1.75286034902
1555406703473420064,255,1555406703473188345,,-2.70081710815,-2.46741557121,1.71803557981
1555406703483952316,256,1555406703483478883,,-2.70392751694,-2.47287321091,1.67015376691
1555406703513884477,257,1555406703513417637,,-2.70716381073,-2.47866153717,1.64763953241
1555406703514088457,258,1555406703513455757,,-2.7087199688,-2.48585677147,1.58940186013
1555406703514323897,259,1555406703513487901,,-2.71257281303,-2.49086594582,1.56417335857
1555406703514333675,260,1555406703513500349,,-2.71634244919,-2.49738311768,1.54442337452
1555406703522973519,261,1555406703522678157,,-2.71812391281,-2.50171375275,1.51851430216
1555406703533497640,262,1555406703533026985,,-2.7201025486,-2.50684332848,1.48235674679
1555406703543877551,263,1555406703543414481,,-2.72497701645,-2.51234006882,1.47633204538
1555406703554203735,264,1555406703553771079,,-2.72719693184,-2.51781105995,1.42567658563
1555406703563655032,265,1555406703563173429,,-2.72882580757,-2.52190995216,1.42101730515
1555406703563827637,266,1555406703563213186,,-2.73344063759,-2.52542662621,1.37610436073
1555406703574034395,267,1555406703573568374,,-2.73561310768,-2.53112673759,-1.35358531681
1555406703614206511,268,1555406703613713428,,-2.74266624451,-2.5466003418,1.35467393737
1555406703614391275,269,1555406703613771328,,-2.74409890175,-2.55110144615,1.34005116663
1555406703614532913,270,1555406703613786728,,-2.74729299545,-2.55609273911,1.30771450905
1555406703623627333,271,1555406703623132269,,-2.74897241592,-2.55981659889,1.29753965232
1555406703633950115,272,1555406703633461538,,-2.75175952911,-2.56517028809,1.27316777982
1555406703643193155,273,1555406703642724388,,-2.75484538078,-2.57026910782,1.27105169587
1555406703653595374,274,1555406703653116704,,-2.75668811798,-2.57476234436,1.24445132038
1555406703663956623,275,1555406703663459389,,-2.75914406776,-2.57883214951,1.24955012522
1555406703664187189,276,1555406703663498540,,-2.76211547852,-2.58352828026,1.23427915896
1555406703673294562,277,1555406703672766489,,-2.76378273964,-2.58825230598,1.21044515269
1555406703683708650,278,1555406703683157456,,-2.76607751846,-2.5932662487,1.17870642591
1555406703693793617,279,1555406703693398975,,-2.76692414284,-2.59645843506,1.16075978992
1555406703713582969,280,1555406703713075536,,-2.77045273781,-2.60119128227,1.15799119169
1555406703713726403,281,1555406703713117004,,-2.77264213562,-2.60557556152,1.12661636146
1555406703713879596,282,1555406703713147637,,-2.77421855927,-2.60885572433,1.09835084533
1555406703813498058,283,1555406703813001360,,-2.79174518585,-2.64783000946,0.803638918134
1555406703813709501,284,1555406703813039528,,-2.79338717461,-2.65109562874,0.783688369883
1555406703823511036,285,1555406703823243828,,-2.7950129509,-2.65497779846,0.76358345638
1555406703833690321,286,1555406703833400577,,-2.79492545128,-2.65718317032,0.750737849667
1555406703844202660,287,1555406703843758184,,-2.79605531693,-2.66051745415,0.739896967489
1555406703853575728,288,1555406703853091982,,-2.79704546928,-2.66325736046,0.727819459342
1555406703863894932,289,1555406703863415800,,-2.7980017662,-2.66686630249,0.712929036556
1555406703864091264,290,1555406703863450965,,-2.79830169678,-2.66989421844,0.704643379277
1555406703873918490,291,1555406703873643291,,-2.79863524437,-2.67246770859,0.686059315378
1555406703883480329,292,1555406703882993800,,-2.79849457741,-2.67565560341,0.696607635101
1555406703914237395,293,1555406703913782753,,-2.80094456673,-2.68694186211,0.658248604566
1555406703923663071,294,1555406703923159027,,-2.80055522919,-2.68855452538,0.649013703336
1555406703934023529,295,1555406703933535902,,-2.80123853683,-2.69158792496,0.614374775366
1555406703943274339,296,1555406703942781731,,-2.80074286461,-2.69382619858,0.616399205907
1555406703953604541,297,1555406703953123793,,-2.80168843269,-2.69763684273,0.617782646798
1555406703963948905,298,1555406703963464497,,-2.80136728287,-2.69976353645,0.608819656407
1555406703964118416,299,1555406703963503888,,-2.80095005035,-2.702064991,0.605074604354
1555406703972902509,300,1555406703972627720,,-2.80232667923,-2.70562958717,0.608165845377
1555406703983240501,301,1555406703982808776,,-2.80259513855,-2.70797634125,0.607011244039
1555406703993611840,302,1555406703993210191,,-2.80328321457,-2.71135163307,0.592182276533
1555406704004009143,303,1555406704003535800,,-2.80282902718,-2.71367311478,0.593626383499
1555406704023595273,304,1555406704023112578,,-2.80398440361,-2.71539258957,0.536095483854
1555406704023773059,305,1555406704023156387,,-2.80394792557,-2.7217373848,0.582416011787
1555406704033573551,306,1555406704033327323,,-2.80345463753,-2.72418618202,0.552638363058
1555406704044160408,307,1555406704043673488,,-2.8041677475,-2.72774672508,0.572039608912
1555406704053439544,308,1555406704052974187,,-2.80481314659,-2.73042440414,0.560417391924
1555406704063835379,309,1555406704063376442,,-2.80387496948,-2.7329685688,0.564791612844
1555406704064014729,310,1555406704063415423,,-2.80398702621,-2.73503875732,0.558335995047
1555406704073845673,311,1555406704073591860,,-2.80399799347,-2.73808050156,0.552303285177
1555406704104111302,312,1555406704103612291,,-2.80234670639,-2.7455573082,0.570575763571
1555406704123671502,313,1555406704123201681,,-2.80191326141,-2.74832582474,0.576912629952
1555406704123814182,314,1555406704123245268,,-2.79992699623,-2.75306034088,0.603885697711
1555406704133979861,315,1555406704133519273,,-2.79858469963,-2.75536417961,0.614456190311
1555406704143269376,316,1555406704142773396,,-2.79846382141,-2.75891590118,0.652811973617
1555406704163891233,317,1555406704163410014,,-2.79473662376,-2.76508402824,0.676131495829
1555406704174166921,318,1555406704173736656,,-2.79399394989,-2.76794147491,0.691257337653
1555406704183606880,319,1555406704183129976,,-2.79232525826,-2.76970243454,0.707518701395
1555406704193906851,320,1555406704193438346,,-2.79157710075,-2.77277731895,0.737232437899
1555406704223846021,321,1555406704223392211,,-2.78738689423,-2.77878046036,0.78354370337
1555406704224013534,322,1555406704223430738,,-2.78610825539,-2.78113412857,0.798476351816
1555406704253704548,323,1555406704253231246,,-2.78322196007,-2.78780674934,0.842503444296
1555406704264113972,324,1555406704263634572,,-2.77965354919,-2.79245352745,0.880865859946
1555406704273159060,325,1555406704272892634,,-2.77813339233,-2.79385304451,0.894762140585
1555406704283773671,326,1555406704283258505,,-2.77685308456,-2.79555940628,0.909099133135
1555406704293964469,327,1555406704293579853,,-2.77551865578,-2.79739069939,0.920164909841
1555406704303437040,328,1555406704302961680,,-2.77374863625,-2.79939579964,0.924273829411
1555406704324075197,329,1555406704323620889,,-2.77208757401,-2.80123901367,0.938090681316
1555406704343713117,330,1555406704343194298,,-2.7652721405,-2.8064994812,0.947351860582
1555406704354017673,331,1555406704353531458,,-2.76478433609,-2.80803489685,0.942844490763
1555406704363275476,332,1555406704362795666,,-2.76217842102,-2.80885767937,0.941215476369
1555406704373627036,333,1555406704373132691,,-2.76017570496,-2.80963945389,0.939950118764
1555406704373816834,334,1555406704373169154,,-2.75896596909,-2.80996966362,0.919453704788
1555406704383977391,335,1555406704383486895,,-2.75737857819,-2.81066632271,0.917594251948
1555406704393220867,336,1555406704392736485,,-2.75569653511,-2.8101940155,0.891568388782
1555406704403567032,337,1555406704403073800,,-2.75313472748,-2.81137609482,0.881043321226
1555406704413950081,338,1555406704413449873,,-2.7507455349,-2.81287360191,0.885933829151
1555406704423296372,339,1555406704422774774,,-2.74765992165,-2.8119058609,0.872024548292
1555406704423509820,340,1555406704422814638,,-2.74551916122,-2.8122355938,0.854382023867
1555406704433669123,341,1555406704433177149,,-2.74312782288,-2.81209278107,0.837169986644
1555406704444012789,342,1555406704443582876,,-2.74215650558,-2.81324481964,0.808989167974
1555406704453441595,343,1555406704452977601,,-2.73823332787,-2.81183600426,0.79228814291
1555406704463823182,344,1555406704463335989,,-2.73592829704,-2.81178879738,0.768379432736
1555406704463995774,345,1555406704463373981,,-2.73325157166,-2.81149840355,0.742187326537
1555406704473875777,346,1555406704473578723,,-2.73170804977,-2.81203198433,0.723540241261
1555406704483446038,347,1555406704482933824,,-2.72870159149,-2.8106174469,0.679857190604
1555406704493663327,348,1555406704493243478,,-2.7256462574,-2.81006217003,0.655035174093
1555406704504008516,349,1555406704503538346,,-2.72271823883,-2.80993747711,0.624293794694
1555406704544103984,350,1555406704543629016,,-2.70783281326,-2.80538368225,0.426494153551
1555406704553423828,351,1555406704552901646,,-2.70445513725,-2.80448293686,0.382620233541
1555406704563710911,352,1555406704563252531,,-2.70091199875,-2.80336284637,0.345609082529
1555406704563870048,353,1555406704563288219,,-2.6976249218,-2.80240249634,0.306873533796
1555406704574077714,354,1555406704573596594,,-2.69411468506,-2.8017706871,0.267616597471
1555406704583445621,355,1555406704582931933,,-2.69029664993,-2.80091071129,0.23053272839
1555406704593636684,356,1555406704593207138,,-2.68599200249,-2.79919910431,0.186831072554
1555406704604003207,357,1555406704603533801,,-2.68241000175,-2.79889845848,0.159174515076
1555406704613415128,358,1555406704612926260,,-2.6780166626,-2.79731893539,0.122195424219
1555406704634130333,359,1555406704633592925,,-2.67418789864,-2.79690861702,0.0895033629379
1555406704634296150,360,1555406704633638092,,-2.66569900513,-2.79514551163,0.0316130707928
1555406704643435665,361,1555406704642958816,,-2.66101956367,-2.79458141327,0.00500498722592
1555406704653754958,362,1555406704653282895,,-2.65728807449,-2.79426431656,-0.0215342635056
1555406704664160651,363,1555406704663661522,,-2.65319871902,-2.79329371452,-0.0512362870988
1555406704664333186,364,1555406704663696555,,-2.6483259201,-2.79281878471,-0.0734087058824
1555406704673477962,365,1555406704672988755,,-2.64415311813,-2.79199528694,-0.0975401426533
1555406704683835057,366,1555406704683335119,,-2.63976883888,-2.79189038277,-0.125528643328
1555406704694065958,367,1555406704693655593,,-2.63532090187,-2.7909142971,-0.149400973914
1555406704703515765,368,1555406704703046662,,-2.6304397583,-2.79048275948,-0.179139711223
1555406704713863836,369,1555406704713353845,,-2.6256737709,-2.78966426849,-0.197600283292
1555406704714023628,370,1555406704713388361,,-2.62188601494,-2.78945922852,-0.228533264581
1555406704732923528,371,1555406704732675550,,-2.61702060699,-2.78889155388,-0.250960018471
1555406704733069011,372,1555406704732692739,,-2.61266946793,-2.78842067719,-0.269225936709
1555406704743098341,373,1555406704742854026,,-2.60846447945,-2.78827381134,-0.28789217732
1555406704753698070,374,1555406704753220522,,-2.6033244133,-2.78762125969,-0.316054053208
1555406704764033819,375,1555406704763547580,,-2.59864282608,-2.78713583946,-0.341857890347
1555406704764196060,376,1555406704763591925,,-2.59440279007,-2.78723907471,-0.350886064506
1555406704773090487,377,1555406704772819991,,-2.58958697319,-2.78725504875,-0.374473979648
1555406704783677607,378,1555406704783186859,,-2.58430409431,-2.78681468964,-0.394481880358
1555406704793860846,379,1555406704793499922,,-2.58045053482,-2.78701090813,-0.400005920691
1555406704803187488,380,1555406704802707607,,-2.57551407814,-2.78689694405,-0.42150712846
1555406704813565614,381,1555406704813115727,,-2.57004880905,-2.78741168976,-0.427572412133
1555406704813710606,382,1555406704813157243,,-2.56503462791,-2.78754448891,-0.437044726156
1555406704843653434,383,1555406704843029167,,-2.56018018723,-2.78799939156,-0.443096041573
1555406704843806882,384,1555406704843072003,,-2.55490446091,-2.78841686249,-0.447295888059
1555406704843960641,385,1555406704843106388,,-2.55054974556,-2.78898572922,-0.456139927646
1555406704853587785,386,1555406704853309751,,-2.54486989975,-2.78954148293,-0.44995489683
1555406704864112038,387,1555406704863641786,,-2.53935861588,-2.79019618034,-0.455076329672
1555406704864255771,388,1555406704863677482,,-2.53402590752,-2.79108405113,-0.446849628816
1555406704873217058,389,1555406704872912523,,-2.52903652191,-2.7916727066,-0.443209953742
1555406704883771476,390,1555406704883263518,,-2.52379202843,-2.79333376884,-0.427732034642
1555406704894042915,391,1555406704893616871,,-2.51836633682,-2.79474878311,-0.411777088734
1555406704903488353,392,1555406704902998783,,-2.51213288307,-2.79488587379,-0.417628599505
1555406704913978923,393,1555406704913406072,,-2.50694894791,-2.79671478271,-0.414168300064
1555406704914160755,394,1555406704913445236,,-2.50164985657,-2.79837989807,-0.399447909896
1555406704943824431,395,1555406704943360336,,-2.495865345,-2.79888153076,-0.385409360794
1555406704943965210,396,1555406704943396660,,-2.48941922188,-2.80016732216,-0.359179126163
1555406704944132036,397,1555406704943427663,,-2.48464822769,-2.80242538452,-0.3477048019
1555406704953880409,398,1555406704953613592,,-2.47761654854,-2.80357503891,-0.322732799942
1555406704963060233,399,1555406704962793959,,-2.471991539,-2.80523347855,-0.309663041653
1555406704973630158,400,1555406704973156896,,-2.46537351608,-2.80697202682,-0.286969452897
1555406704973812658,401,1555406704973194804,,-2.45920538902,-2.80830788612,-0.265280790307
1555406704983825407,402,1555406704983412904,,-2.45264387131,-2.810526371,-0.247606542489
1555406704993537708,403,1555406704992916315,,-2.4459798336,-2.81225442886,-0.225370367515
1555406705003770304,404,1555406705003289830,,-2.4393453598,-2.81445789337,-0.200579449273
1555406705014119530,405,1555406705013676103,,-2.43186640739,-2.81612086296,-0.188596740183
1555406705014261915,406,1555406705013710482,,-2.42482423782,-2.81787347794,-0.168179344007
1555406705044207463,407,1555406705043707577,,-2.41775965691,-2.82012867928,-0.148341582363
1555406705044377973,408,1555406705043749940,,-2.4025478363,-2.82414245605,-0.110673621474
1555406705053614308,409,1555406705053094865,,-2.39516377449,-2.82632017136,-0.0950186681404
1555406705063962208,410,1555406705063469356,,-2.38709044456,-2.82840800285,-0.0711007742322
1555406705064186227,411,1555406705063503842,,-2.37909555435,-2.83074140549,-0.0602950230193
1555406705073209567,412,1555406705072737723,,-2.37064886093,-2.83296465874,-0.0400590857509
1555406705083590806,413,1555406705083104250,,-2.36238765717,-2.83486843109,-0.00994465438051
1555406705093821449,414,1555406705093409415,,-2.35379457474,-2.83699965477,-0.0096541760718
1555406705104184957,415,1555406705103734045,,-2.34533882141,-2.83953380585,0.0215042311092
1555406705104328849,416,1555406705103772382,,-2.33630084991,-2.84138154984,0.032380318644
1555406705113230737,417,1555406705113000361,,-2.32750034332,-2.84365367889,0.0468133640307
1555406705123536370,418,1555406705123283988,,-2.31818675995,-2.84542989731,0.0652123921482
1555406705143402142,419,1555406705142861643,,-2.30881500244,-2.84780573845,0.0877080573107
1555406705143619788,420,1555406705142903327,,-2.29934644699,-2.84992384911,0.10180823244
1555406705153793878,421,1555406705153309103,,-2.28994965553,-2.8520796299,0.11734570996
1555406705164146692,422,1555406705163687234,,-2.28047800064,-2.85394191742,0.133973725691
1555406705164313413,423,1555406705163720777,,-2.27066111565,-2.85569548607,0.153529399911
1555406705173175289,424,1555406705172874328,,-2.26104807854,-2.85796952248,0.166019578996
1555406705183745412,425,1555406705183228392,,-2.25138115883,-2.85986185074,0.187808925907
1555406705193957941,426,1555406705193555724,,-2.24192166328,-2.86218929291,0.202382041868
1555406705203365766,427,1555406705202892571,,-2.23228955269,-2.86394357681,0.224256840275
1555406705213729191,428,1555406705213237268,,-2.22258734703,-2.86636972427,0.23997201214
1555406705213891844,429,1555406705213276146,,-2.21266102791,-2.86794829369,0.252154530284
1555406705264200774,430,1555406705263736904,,-2.15446138382,-2.87948012352,0.360760069284
1555406705273543881,431,1555406705273081669,,-2.14507007599,-2.88197445869,0.37825243745
1555406705283967714,432,1555406705283469532,,-2.13433694839,-2.88288664818,0.401530796543
1555406705293248582,433,1555406705292758084,,-2.12482118607,-2.88480257988,0.419811248449
1555406705303638945,434,1555406705303140072,,-2.11524677277,-2.8864979744,0.43894978341
1555406705313972394,435,1555406705313512192,,-2.10533976555,-2.88820576668,0.459416947586
1555406705314120735,436,1555406705313547045,,-2.09600949287,-2.89024925232,0.477071681882
1555406705322912336,437,1555406705322666030,,-2.0860452652,-2.89186620712,0.493070513716
1555406705354082394,438,1555406705353590444,,-2.07621264458,-2.89333629608,0.51401230067
1555406705354249994,439,1555406705353635789,,-2.05658793449,-2.89649796486,0.549748382067
1555406705363120836,440,1555406705362843860,,-2.04689955711,-2.89778113365,0.560535990578
1555406705363269723,441,1555406705362861184,,-2.03797769547,-2.89965581894,0.586589034221
1555406705373398094,442,1555406705373167527,,-2.02770066261,-2.90076327324,0.596467965747
1555406705383938715,443,1555406705383477491,,-2.01729059219,-2.90173172951,0.612326524436
1555406705393303505,444,1555406705392736198,,-2.0076406002,-2.90307116508,0.623540176211
1555406705403873145,445,1555406705403349962,,-1.9977799654,-2.9038875103,0.633616049022
1555406705414335054,446,1555406705413710774,,-1.98723936081,-2.90494704247,0.642672741048
1555406705414362296,447,1555406705413755555,,-1.97676420212,-2.90526485443,0.655432251748
1555406705423170378,448,1555406705422915478,,-1.96748185158,-2.90617036819,0.656708489163
1555406705433738297,449,1555406705433203195,,-1.95761179924,-2.90686798096,0.654569183784
1555406705453281031,450,1555406705452745081,,-1.94742691517,-2.90716028214,0.656046492363
1555406705453458982,451,1555406705452779264,,-1.93708598614,-2.90817284584,0.66867521
1555406705463595538,452,1555406705463142021,,-1.92670619488,-2.9081890583,0.672303416364
1555406705463758913,453,1555406705463178292,,-1.91627752781,-2.9082069397,0.672629669036
1555406705473636274,454,1555406705473351637,,-1.90541017056,-2.90877175331,0.680902225179
1555406705484237212,455,1555406705483714622,,-1.89535582066,-2.90880155563,0.687470418517
1555406705593557774,456,1555406705593028568,,-1.75594317913,-2.90344977379,0.911799143819
1555406705603904265,457,1555406705603405967,,-1.74492502213,-2.90157103539,0.926605675746
1555406705614215081,458,1555406705613761646,,-1.73329114914,-2.89932227135,0.9361407493
1555406705614387175,459,1555406705613797296,,-1.72242212296,-2.89812707901,0.976464051984
1555406705623630831,460,1555406705623189873,,-1.71044266224,-2.89542984962,0.979260666764
1555406705634019226,461,1555406705633565197,,-1.69970285892,-2.89373850822,1.0069312459
1555406705653804757,462,1555406705653277224,,-1.68902182579,-2.89184522629,1.02860247301
1555406705653974223,463,1555406705653315536,,-1.67726624012,-2.88942742348,1.052441153
1555406705663769433,464,1555406705663488963,,-1.66648340225,-2.88643503189,1.05563932398
1555406705663902522,465,1555406705663506138,,-1.65459251404,-2.88421416283,1.08737500588
1555406705672877509,466,1555406705672636586,,-1.64343321323,-2.8816280365,1.10518504116
1555406705683470130,467,1555406705682986770,,-1.63224637508,-2.87853860855,1.12061411944
1555406705693645338,468,1555406705693276133,,-1.62123739719,-2.8753862381,1.12938507355
1555406705703877199,469,1555406705703566340,,-1.60999107361,-2.87238883972,1.1442977891
1555406705713438528,470,1555406705712957495,,-1.59867930412,-2.86917257309,1.16087651398
1555406705713567318,471,1555406705713000367,,-1.58772742748,-2.86593723297,1.1669981218
1555406705723822703,472,1555406705723374164,,-1.57647883892,-2.86200141907,1.17788507161
1555406705734218712,473,1555406705733769802,,-1.56560397148,-2.85814213753,1.18520903338
1555406705764274257,474,1555406705763734437,,-1.55484569073,-2.85416865349,1.18244065384
1555406705764441851,475,1555406705763787366,,-1.52190089226,-2.84245610237,1.20707384722
1555406705773539902,476,1555406705773073958,,-1.51088643074,-2.83864760399,1.21644250985
1555406705783897965,477,1555406705783421197,,-1.49996387959,-2.83476138115,1.21835995391
1555406705793231703,478,1555406705792675432,,-1.48943185806,-2.83084225655,1.22128830831
1555406705803534692,479,1555406705803050022,,-1.47863698006,-2.82681417465,1.22688273332
1555406705813895687,480,1555406705813385052,,-1.46846675873,-2.82230377197,1.22671483607
1555406705814081345,481,1555406705813423152,,-1.457431674,-2.81879520416,1.23793602989
1555406705824248455,482,1555406705823768743,,-1.44644296169,-2.81484913826,1.24271638051
1555406705833672207,483,1555406705833159301,,-1.43570828438,-2.81067442894,1.24625636375
1555406705844040857,484,1555406705843543975,,-1.42525041103,-2.80595445633,1.24939038434
1555406705869094630,485,1555406705863268606,,-1.41481018066,-2.80162453651,1.25622913162
1555406705869098225,486,1555406705863307525,,-1.40425550938,-2.79728221893,1.26451913333
1555406705869120933,487,1555406705863339798,,-1.39336001873,-2.79304480553,1.27108658653
1555406705874115640,488,1555406705873667613,,-1.38306820393,-2.78853487968,1.28175285436
1555406705883523793,489,1555406705883037052,,-1.37239086628,-2.78384971619,1.29212655878
1555406705893726179,490,1555406705893339451,,-1.36170232296,-2.77926206589,1.30484545405
1555406705904217511,491,1555406705903736924,,-1.35156607628,-2.77393293381,1.31688958415
1555406705904374534,492,1555406705903771118,,-1.34069955349,-2.76953911781,1.33630434988
1555406705913609997,493,1555406705913130780,,-1.33029747009,-2.7639298439,1.34726436033
1555406705923945591,494,1555406705923460859,,-1.31906723976,-2.75989532471,1.36898056863
1555406705933198624,495,1555406705932709926,,-1.30934178829,-2.75403165817,1.39507990212
1555406705943569870,496,1555406705943079397,,-1.29824066162,-2.74922466278,1.42305194347
1555406705964174343,497,1555406705963657111,,-1.28788864613,-2.74319291115,1.44315761444
1555406705964351731,498,1555406705963697696,,-1.26646053791,-2.73217439651,1.48294540555
1555406705973232276,499,1555406705972918048,,-1.2561455965,-2.72603440285,1.52567165517
1555406705983655743,500,1555406705983182058,,-1.24613642693,-2.72005653381,1.55336905301
1555406705994132705,501,1555406705993716053,,-1.23632240295,-2.71442508698,1.58225479905
1555406706003612588,502,1555406706003107121,,-1.22589123249,-2.70759129524,1.61394958076
1555406706013902157,503,1555406706013419036,,-1.21538996696,-2.70080471039,1.63568303155
1555406706014053740,504,1555406706013453459,,-1.20569622517,-2.69460535049,1.66974087186
1555406706023875692,505,1555406706023643029,,-1.19558477402,-2.68788337708,1.69869523016
1555406706033508740,506,1555406706032997670,,-1.18608880043,-2.68031716347,1.71828702284
1555406706043736319,507,1555406706043284116,,-1.17590022087,-2.67385578156,1.75964982343
1555406706063458839,508,1555406706062939324,,-1.16632604599,-2.66600203514,1.78478963188
1555406706063609790,509,1555406706062986071,,-1.14749360085,-2.65143847466,1.86003626735
1555406706073723990,510,1555406706073262573,,-1.13788223267,-2.64402580261,1.8834196399
1555406706084077529,511,1555406706083602773,,-1.12857460976,-2.63625836372,1.91934275228
1555406706093251311,512,1555406706092857047,,-1.11911404133,-2.62826919556,1.96047988616
1555406706103667394,513,1555406706103191291,,-1.11051976681,-2.62104964256,2.00410941862
1555406706114003332,514,1555406706113544475,,-1.10091686249,-2.61301088333,2.03809877018
1555406706114171394,515,1555406706113604229,,-1.09237039089,-2.60506367683,2.0857549268
1555406706123382716,516,1555406706122904337,,-1.08252108097,-2.59714818001,2.12096645224
1555406706133729378,517,1555406706133222895,,-1.0738556385,-2.58923220634,2.16432723936
1555406706144018674,518,1555406706143499176,,-1.06534349918,-2.5806927681,2.22129645748
1555406706153007578,519,1555406706152677346,,-1.05681705475,-2.57277584076,2.27377316718
1555406706176062050,520,1555406706173333561,,-1.04849541187,-2.56500959396,2.32533442776
1555406706176066130,521,1555406706173369271,,-1.04110252857,-2.55620980263,2.36251678536
1555406706176069298,522,1555406706173399107,,-1.03257119656,-2.54780578613,2.42128752623
1555406706184236253,523,1555406706183765246,,-1.02392458916,-2.53873372078,2.45791571528
1555406706193526961,524,1555406706193100360,,-1.01677536964,-2.53054451942,2.50917456959
1555406706203925357,525,1555406706203447412,,-1.00954198837,-2.52163910866,2.56321179577
1555406706213963456,526,1555406706213679819,,-1.00241529942,-2.5137295723,2.61626466703
1555406706214125275,527,1555406706213707452,,-0.996091425419,-2.50407457352,2.66209219945
1555406706223090896,528,1555406706222878392,,-0.988945424557,-2.49596714973,2.71230028196
1555406706233398364,529,1555406706233125251,,-0.982507288456,-2.48719620705,2.77144526781
1555406706243863372,530,1555406706243439311,,-0.9756513834,-2.4790494442,2.81647855384
1555406706254165697,531,1555406706253724700,,-0.969481945038,-2.47030520439,2.86648840955
1555406706273620115,532,1555406706273160206,,-0.963582575321,-2.46132683754,2.92318376795
1555406706273815571,533,1555406706273207536,,-0.95116019249,-2.4444899559,3.01015256307
1555406706283997722,534,1555406706283523531,,-0.94541156292,-2.43617939949,3.0714890703
1555406706293292873,535,1555406706292787962,,-0.93985491991,-2.4271800518,3.12720611485
1555406706303604406,536,1555406706303124199,,-0.93427670002,-2.41935706139,-3.10070261541
1555406706313899476,537,1555406706313451132,,-0.928065001965,-2.41052556038,-3.05920171961
1555406706314052254,538,1555406706313493096,,-0.922441542149,-2.40235304832,-3.00032569639
1555406706324195765,539,1555406706323725063,,-0.916548907757,-2.39384627342,-2.95041486824
1555406706333573008,540,1555406706333089546,,-0.911311209202,-2.38554859161,-2.89774154462
1555406706343906459,541,1555406706343465025,,-0.905590891838,-2.37724900246,-2.84106471232
1555406706353177023,542,1555406706352720526,,-0.900338113308,-2.36891198158,-2.78831826611
1555406706373922222,543,1555406706373430476,,-0.895156264305,-2.36030364037,-2.72791063244
1555406706374083509,544,1555406706373473413,,-0.883997440338,-2.34438633919,-2.62307602641
1555406706383147466,545,1555406706382698930,,-0.878923416138,-2.33643245697,-2.56094007686
1555406706393640359,546,1555406706393039780,,-0.874000370502,-2.32845473289,-2.49874515315
1555406706403904674,547,1555406706403408298,,-0.869402885437,-2.32000136375,-2.42646199306
1555406706414335580,548,1555406706413713050,,-0.864588439465,-2.31204795837,-2.36404758163
1555406706414472920,549,1555406706413747498,,-0.859811604023,-2.30427932739,-2.29038794121
1555406706423247368,550,1555406706422994657,,-0.855344414711,-2.29640769958,-2.22356493616
1555406706433786634,551,1555406706433291607,,-0.850765347481,-2.28892993927,-2.15032277499
1555406706444149024,552,1555406706443665615,,-0.846911430359,-2.28124976158,-2.07702556244
1555406706453528446,553,1555406706453029783,,-0.842244565487,-2.27381396294,-2.00197795219
1555406706483584106,554,1555406706482945852,,-0.838329732418,-2.26612472534,-1.92930863839
1555406706484061994,555,1555406706482999358,,-0.826263308525,-2.24426579475,-1.69657644592
1555406706493681839,556,1555406706493242786,,-0.82232272625,-2.23694372177,-1.61897763683
1555406706504002242,557,1555406706503577668,,-0.818691492081,-2.22991967201,-1.53549522066
1555406706513421029,558,1555406706512919385,,-0.815190374851,-2.2225997448,-1.46533015671
1555406706523755654,559,1555406706523261806,,-0.810900688171,-2.21621537209,-1.37627354407
1555406706523917318,560,1555406706523300322,,-0.80819272995,-2.21019220352,-1.28892070105
1555406706534083246,561,1555406706533652531,,-0.804059505463,-2.20321464539,-1.20730328192
1555406706543494324,562,1555406706543035830,,-0.80038112402,-2.19695329666,-1.11995397163
1555406706553898171,563,1555406706553372469,,-0.796950519085,-2.1909635067,-1.03109230031
1555406706564167318,564,1555406706563679324,,-0.79336565733,-2.18461728096,-0.945131513093
1555406706583879122,565,1555406706583374635,,-0.789641678333,-2.1782207489,-0.865771159893
1555406706584041278,566,1555406706583422418,,-0.782715320587,-2.16700124741,-0.688404765515
1555406706593878020,567,1555406706593616889,,-0.778859913349,-2.16169762611,-0.607059534872
1555406706603413197,568,1555406706602924744,,-0.775409340858,-2.15600681305,-0.527731974809
1555406706613771750,569,1555406706613303094,,-0.771036446095,-2.15042471886,-0.446335475242
1555406706624172696,570,1555406706623679029,,-0.767394900322,-2.14524817467,-0.36716020295
1555406706624311986,571,1555406706623723699,,-0.763566315174,-2.14013981819,-0.284742928076
1555406706633477168,572,1555406706632998981,,-0.759154558182,-2.13505649567,-0.212761036915
1555406706643866679,573,1555406706643374045,,-0.754623651505,-2.12992835045,-0.137245158889
1555406706654201817,574,1555406706653726624,,-0.750714600086,-2.12415957451,-0.0916591814438
1555406706663167247,575,1555406706662918570,,-0.745705366135,-2.11925721169,-0.0113029698775
1555406706684189150,576,1555406706683595775,,-0.740530312061,-2.11417770386,0.0630404921958
1555406706684197970,577,1555406706683643679,,-0.730466604233,-2.10436606407,0.190523481181
1555406706693202979,578,1555406706692856445,,-0.725275993347,-2.09875154495,0.258470433534
1555406706703607209,579,1555406706703137367,,-0.719431340694,-2.09399271011,0.323082899697
1555406706714010789,580,1555406706713507244,,-0.714194118977,-2.08835268021,0.388025981137
1555406706714185958,581,1555406706713540901,,-0.708223283291,-2.08323407173,0.456810231569
1555406706722934032,582,1555406706722640809,,-0.702303886414,-2.07853627205,0.52643800087
1555406706733491965,583,1555406706732982597,,-0.695724248886,-2.07331299782,0.593992247048
1555406706743707866,584,1555406706743253103,,-0.690177440643,-2.06718444824,0.646020593587
1555406706754096794,585,1555406706753640029,,-0.683501005173,-2.0619623661,0.722372464879
1555406706763520326,586,1555406706763018414,,-0.677154779434,-2.05607676506,0.781928178976
1555406706784246735,587,1555406706783713530,,-0.670732796192,-2.05023670197,0.847490582325
1555406706784411977,588,1555406706783759410,,-0.65720140934,-2.03766584396,0.971813132268
1555406706793492261,589,1555406706793011077,,-0.650438129902,-2.03143930435,1.0376822815
1555406706804024760,590,1555406706803520629,,-0.643398582935,-2.02495408058,1.10326316983
1555406706813282448,591,1555406706812779627,,-0.63682705164,-2.01833868027,1.15864654984
1555406706813428649,592,1555406706812818778,,-0.62973690033,-2.01167416573,1.22606025607
1555406706823223466,593,1555406706822993222,,-0.623098015785,-2.00428175926,1.28467910465
1555406706833480464,594,1555406706833220683,,-0.615979850292,-1.99710941315,1.35147738267
1555406706843978659,595,1555406706843534948,,-0.60892790556,-1.98973417282,1.41781099492
1555406706853258587,596,1555406706852777668,,-0.601930081844,-1.98211979866,1.47900471887
1555406706863611891,597,1555406706863157656,,-0.595467686653,-1.97443199158,1.54331796309
1555406706863830738,598,1555406706863197738,,-0.588623702526,-1.96651268005,1.61192895676
1555406706883200725,599,1555406706882712448,,-0.581716060638,-1.95893478394,1.67951839915
1555406706883375317,600,1555406706882750307,,-0.574522852898,-1.950938344,1.74693587765
1555406706893461456,601,1555406706892998064,,-0.568222343922,-1.94266521931,1.81378372129
1555406706903829010,602,1555406706903350531,,-0.561841905117,-1.93462383747,1.88374128334
1555406706914237076,603,1555406706913749887,,-0.554815173149,-1.92621850967,1.96186571984
1555406706923608334,604,1555406706923154710,,-0.548943698406,-1.91809630394,2.035397793
1555406706923743057,605,1555406706923192482,,-0.54220354557,-1.90917778015,2.10819330419
1555406706933691257,606,1555406706933415426,,-0.535965800285,-1.90055382252,2.19073147108
1555406706944270732,607,1555406706943790574,,-0.529279172421,-1.89232778549,2.26325111174
1555406706953659578,608,1555406706953185858,,-0.5239341259,-1.88434195518,2.34002561111
1555406706964010494,609,1555406706963547497,,-0.517575562,-1.87514519691,2.42790528247
1555406706964168274,610,1555406706963581693,,-0.511260867119,-1.86588287354,2.51100104856
1555406706993240702,611,1555406706992715484,,-0.505418121815,-1.85721302032,2.5965717166
1555406706993382090,612,1555406706992767936,,-0.493445396423,-1.83967101574,2.76257846509
1555406707003271289,613,1555406707002982034,,-0.487731188536,-1.83096718788,2.84438927588
1555406707013480837,614,1555406707013206469,,-0.482043236494,-1.82217121124,2.93562233368
1555406707013622674,615,1555406707013222625,,-0.476458072662,-1.81389987469,3.01312289425
1555406707023741739,616,1555406707023484583,,-0.470485150814,-1.80492663383,3.10210169997
1555406707033142341,617,1555406707032678072,,-0.465392202139,-1.79617929459,-3.09122698879
1555406707043493603,618,1555406707043013744,,-0.459376096725,-1.78757178783,-3.00704223183
1555406707053834985,619,1555406707053355625,,-0.454546093941,-1.77880847454,-2.91654413051
1555406707064231159,620,1555406707063751052,,-0.449166119099,-1.77043259144,-2.83199928306
1555406707064385561,621,1555406707063782489,,-0.443244963884,-1.76191198826,-2.7478974308
1555406707093720906,622,1555406707093336942,,-0.438570201397,-1.75333833694,-2.65826137168
1555406707093856003,623,1555406707093375987,,-0.428870856762,-1.73700499535,-2.48797561116
1555406707103913167,624,1555406707103586022,,-0.424085825682,-1.72908627987,-2.39953596484
1555406707113356483,625,1555406707112884156,,-0.419974118471,-1.72088992596,-2.30368684175
1555406707113512344,626,1555406707112919812,,-0.415538936853,-1.71327424049,-2.21744989206
1555406707123377713,627,1555406707123106372,,-0.411088347435,-1.70567798615,-2.13465358861
1555406707133900548,628,1555406707133425430,,-0.406689375639,-1.69822728634,-2.05245625741
1555406707143152330,629,1555406707142669822,,-0.402906447649,-1.69067525864,-1.96150260871
1555406707153519601,630,1555406707153001216,,-0.398656189442,-1.68342685699,-1.87856861646
1555406707163866004,631,1555406707163382123,,-0.394138127565,-1.67633461952,-1.79546402272
1555406707164056469,632,1555406707163420171,,-0.389902532101,-1.6693059206,-1.71707628324
1555406707193650685,633,1555406707193165579,,-0.385689467192,-1.66227972507,-1.63091776934
1555406707197216620,634,1555406707193207819,,-0.37788310647,-1.6482872963,-1.46644228863
1555406707203953007,635,1555406707203499508,,-0.373780161142,-1.64142751694,-1.3848560643
1555406707213169308,636,1555406707212710906,,-0.369036197662,-1.63472080231,-1.30477617833
1555406707213380687,637,1555406707212747919,,-0.364527493715,-1.62778639793,-1.23151962079
1555406707223499033,638,1555406707223054406,,-0.360318899155,-1.62113010883,-1.15074605878
1555406707233866662,639,1555406707233416036,,-0.356530636549,-1.61457419395,-1.0665646609
1555406707244183327,640,1555406707243739988,,-0.352050691843,-1.60778903961,-0.98799177298
1555406707253562355,641,1555406707253111739,,-0.348008424044,-1.60132730007,-0.907100059248
1555406707263963587,642,1555406707263491970,,-0.343806087971,-1.59550201893,-0.825278274937
1555406707264138478,643,1555406707263529234,,-0.339949995279,-1.58965742588,-0.737926970839
1555406707273236736,644,1555406707272779442,,-0.335337966681,-1.58370149136,-0.659507522965
1555406707293884845,645,1555406707293456196,,-0.330475658178,-1.57762181759,-0.589011494394
1555406707294029875,646,1555406707293503838,,-0.325531333685,-1.57178115845,-0.512113842973
1555406707303182276,647,1555406707302724542,,-0.321195155382,-1.56675994396,-0.433308880397
1555406707313554670,648,1555406707313081837,,-0.315751373768,-1.56112265587,-0.351955237968
1555406707313757155,649,1555406707313117277,,-0.31088283658,-1.55613136292,-0.269850874886
1555406707323545623,650,1555406707323284565,,-0.305465400219,-1.55091226101,-0.194295245808
1555406707333805031,651,1555406707333525943,,-0.299802482128,-1.54547715187,-0.123438240349
1555406707343215633,652,1555406707342756592,,-0.294343352318,-1.54063010216,-0.0430984310468
1555406707353580666,653,1555406707353131013,,-0.288619160652,-1.53551876545,0.0264914114313
1555406707363901770,654,1555406707363463580,,-0.282429516315,-1.53053987026,0.0977498510467
1555406707364069063,655,1555406707363501687,,-0.276627510786,-1.52545070648,0.169118083916
1555406707372879469,656,1555406707372654537,,-0.270363897085,-1.52046120167,0.235471959888
1555406707403856519,657,1555406707403427543,,-0.263849884272,-1.51526582241,0.303422852706
1555406707403987659,658,1555406707403467846,,-0.250787377357,-1.50493299961,0.430691225009
1555406707413906237,659,1555406707413655382,,-0.244009464979,-1.499527812,0.492652122364
1555406707414083496,660,1555406707413691750,,-0.237336724997,-1.4940649271,0.557566039764
1555406707423531145,661,1555406707423043886,,-0.230218827724,-1.48881411552,0.620502666011
1555406707433823773,662,1555406707433313712,,-0.223278969526,-1.48333096504,0.67289459721
1555406707444113620,663,1555406707443653616,,-0.216566026211,-1.4777545929,0.723262979504
1555406707453127019,664,1555406707452836939,,-0.209156826138,-1.47203433514,0.782975864769
1555406707463677749,665,1555406707463147055,,-0.20186573267,-1.46622002125,0.831917787387
1555406707463845761,666,1555406707463183938,,-0.19498668611,-1.46016931534,0.873927631773
1555406707473605507,667,1555406707473336630,,-0.187380373478,-1.45423030853,0.92970165155
1555406707503678559,668,1555406707503001821,,-0.180203124881,-1.4482588768,0.973189398128
