%time,field.header.seq,field.header.stamp,field.header.frame_id,field.point.x,field.point.y,field.point.z
1555410569901135421,1,1555410569900560093,,-2.61520981789,-1.26058697701,2.5113390462
1555410569910433226,2,1555410569909959297,,-2.61307382584,-1.26216673851,2.42528193217
1555410569920911659,3,1555410569920301549,,-2.61161422729,-1.26340794563,2.33395465759
1555410569920922293,4,1555410569920334545,,-2.61032533646,-1.26504552364,2.25737598169
1555410569930911515,5,1555410569930515690,,-2.60913062096,-1.26615583897,2.17005629484
1555410569950762325,6,1555410569950153815,,-2.60787463188,-1.26673603058,2.07613083181
1555410569950776042,7,1555410569950188093,,-2.60636496544,-1.26850569248,1.99349199612
1555410569961123982,8,1555410569960531721,,-2.60514998436,-1.26975607872,1.89643431756
1555410569961137727,9,1555410569960565689,,-2.60386562347,-1.27057099342,1.8038194223
1555410569980482347,10,1555410569980001742,,-2.60355234146,-1.27003085613,1.7198370752
1555410569980610604,11,1555410569980035912,,-2.60135006905,-1.2711956501,1.61976678035
1555410569990799816,12,1555410569990331415,,-2.60051631927,-1.27199673653,1.51673205363
1555410570000081229,13,1555410569999573106,,-2.59936857224,-1.27282547951,1.4169022661
1555410570010375147,14,1555410570009897230,,-2.59786272049,-1.27285969257,1.32477526903
1555410570020690398,15,1555410570020197756,,-2.59689640999,-1.27292001247,1.23115566971
1555410570020808937,16,1555410570020231060,,-2.59542703629,-1.27330803871,1.13363431939
1555410570030660209,17,1555410570030431233,,-2.5938873291,-1.27368164062,1.02932593657
1555410570039864942,18,1555410570039535980,,-2.59250712395,-1.27430617809,0.937694172116
1555410570050261188,19,1555410570049798340,,-2.59209275246,-1.27362895012,0.832535228522
1555410570060592612,20,1555410570060121260,,-2.59001708031,-1.27432405949,0.730860647227
1555410570070688647,21,1555410570070416465,,-2.58871746063,-1.27466952801,0.629086837022
1555410570070842761,22,1555410570070432336,,-2.58635520935,-1.27546036243,0.550501492835
1555410570090279383,23,1555410570089809034,,-2.58506274223,-1.27465903759,0.445106134818
1555410570090435405,24,1555410570089845738,,-2.58307218552,-1.27497375011,0.36313727815
1555410570100580511,25,1555410570100115755,,-2.5812253952,-1.27514207363,0.253271774883
1555410570110876345,26,1555410570110397185,,-2.57886910439,-1.27549433708,0.176296743973
1555410570120083014,27,1555410570119600872,,-2.5764439106,-1.27565085888,0.0800315388925
1555410570130255490,28,1555410570129911599,,-2.57395458221,-1.27567100525,-0.0129562600931
1555410570130379711,29,1555410570129934551,,-2.57174706459,-1.27588534355,-0.10322052685
1555410570150962850,30,1555410570150498229,,-2.5692293644,-1.27685904503,-0.185184010215
1555410570151128148,31,1555410570150531469,,-2.56726837158,-1.27731847763,-0.268194601218
1555410570160273348,32,1555410570159795568,,-2.56460762024,-1.27812063694,-0.345395587353
1555410570170567492,33,1555410570170100660,,-2.56176114082,-1.27887713909,-0.434282725993
1555410570180860242,34,1555410570180388265,,-2.55896806717,-1.28025460243,-0.508693804325
1555410570181024295,35,1555410570180421237,,-2.55574417114,-1.28016364574,-0.587304201611
1555410570190115998,36,1555410570189633485,,-2.55390405655,-1.28228187561,-0.655114025997
1555410570200457131,37,1555410570199972247,,-2.55108380318,-1.28382194042,-0.720490314347
1555410570210750794,38,1555410570210302542,,-2.54814195633,-1.28509163857,-0.796457504442
1555410570220009416,39,1555410570219543964,,-2.54565048218,-1.28676402569,-0.852850371618
1555410570230176224,40,1555410570229824809,,-2.54189634323,-1.2887377739,-0.922773246782
1555410570230329998,41,1555410570229853699,,-2.53958559036,-1.29051673412,-0.977598616429
1555410570240325602,42,1555410570240045841,,-2.53609371185,-1.29202795029,-1.04812024134
1555410570250847918,43,1555410570250392174,,-2.53378629684,-1.29410588741,-1.10216440509
1555410570260096765,44,1555410570259630986,,-2.53053116798,-1.29645717144,-1.16265322688
1555410570270137839,45,1555410570269883921,,-2.52828288078,-1.29900848866,-1.21035879369
1555410570270275697,46,1555410570269899646,,-2.5253868103,-1.30120992661,-1.26591293384
1555410570280364960,47,1555410570280085510,,-2.52287983894,-1.30384981632,-1.31182793564
1555410570290896046,48,1555410570290433648,,-2.5196928978,-1.3066920042,-1.36245743391
1555410570300275535,49,1555410570299802898,,-2.51711773872,-1.30953669548,-1.41062404071
1555410570310613929,50,1555410570310175343,,-2.51423478127,-1.31260085106,-1.45931647155
1555410570321081513,51,1555410570320621107,,-2.51191020012,-1.31540417671,-1.50394213251
1555410570350882758,52,1555410570350409526,,-2.50890898705,-1.31880378723,-1.54737562149
1555410570351084800,53,1555410570350461909,,-2.50057697296,-1.3295468092,-1.6889678104
1555410570360215200,54,1555410570359764232,,-2.49839544296,-1.3335505724,-1.73471042247
1555410570370477077,55,1555410570370051795,,-2.49596762657,-1.33710801601,-1.78766789382
1555410570370652545,56,1555410570370085024,,-2.4944460392,-1.34145617485,-1.82767539557
1555410570380557294,57,1555410570380274038,,-2.49188947678,-1.34617114067,-1.87245502938
1555410570391089998,58,1555410570390622998,,-2.48976612091,-1.34915709496,-1.91504849301
1555410570400451587,59,1555410570400001581,,-2.48755884171,-1.35424792767,-1.96385310973
1555410570410829281,60,1555410570410374639,,-2.48515844345,-1.3584356308,-2.01040393915
1555410570410967995,61,1555410570410407064,,-2.48427939415,-1.36343598366,-2.05509831562
1555410570450838983,62,1555410570450380879,,-2.48206543922,-1.36763811111,-2.08278466884
1555410570451004525,63,1555410570450431432,,-2.47856903076,-1.38188004494,-2.19833891793
1555410570459805916,64,1555410570459553644,,-2.47708249092,-1.38683891296,-2.23581383764
1555410570470264970,65,1555410570469830462,,-2.47632169724,-1.39154839516,-2.2723527287
1555410570480651702,66,1555410570480199185,,-2.47512793541,-1.39625608921,-2.29348850879
1555410570480815304,67,1555410570480232593,,-2.47420811653,-1.4018214941,-2.33539805644
1555410570491035976,68,1555410570490572747,,-2.47378087044,-1.40529286861,-2.34641282167
1555410570500415367,69,1555410570499952427,,-2.47352290154,-1.41001355648,-2.36966189289
1555410570510811201,70,1555410570510357984,,-2.47208690643,-1.4154920578,-2.40710385664
1555410570510954738,71,1555410570510392390,,-2.47143554688,-1.42014122009,-2.4376617642
1555410570520052708,72,1555410570519575834,,-2.47103238106,-1.42585766315,-2.46922502035
1555410570550807738,73,1555410570550327939,,-2.47063660622,-1.43044888973,-2.49502449591
1555410570550954237,74,1555410570550373616,,-2.4703567028,-1.43939626217,-2.53147449684
1555410570561125513,75,1555410570560644821,,-2.4699909687,-1.44330716133,-2.55085792932
1555410570561266481,76,1555410570560678585,,-2.46964263916,-1.44848227501,-2.58155908739
1555410570580234642,77,1555410570579985116,,-2.46926569939,-1.45327436924,-2.60405975204
1555410570580406299,78,1555410570580001497,,-2.46910810471,-1.45781135559,-2.62455989009
1555410570590454772,79,1555410570590216261,,-2.46851205826,-1.4631114006,-2.6593093184
1555410570601016043,80,1555410570600552594,,-2.468313694,-1.46682107449,-2.66783372356
1555410570610392616,81,1555410570609923507,,-2.46882796288,-1.47261309624,-2.70690241036
1555410570620747237,82,1555410570620268943,,-2.46944975853,-1.47710514069,-2.73127979458
1555410570620887946,83,1555410570620302375,,-2.4694981575,-1.48193156719,-2.75776861
1555410570650192295,84,1555410570649795955,,-2.47011184692,-1.48649525642,-2.77217619142
1555410570650435811,85,1555410570649824789,,-2.4697034359,-1.49131441116,-2.81526132475
1555410570650445876,86,1555410570649853459,,-2.47008728981,-1.49692595005,-2.85592408142
1555410570660344248,87,1555410570660084170,,-2.47072482109,-1.50140607357,-2.89131730098
1555410570670868714,88,1555410570670428365,,-2.47168684006,-1.50635457039,-2.91716777685
1555410570671001352,89,1555410570670464772,,-2.47225117683,-1.51106214523,-2.96174130701
1555410570680273646,90,1555410570679805776,,-2.47357702255,-1.51601219177,-3.00783448997
1555410570690647532,91,1555410570690173971,,-2.47381997108,-1.52071714401,-3.04332818215
1555410570701005139,92,1555410570700556626,,-2.47511649132,-1.5258487463,-3.09239794212
1555410570710339918,93,1555410570709890173,,-2.47657871246,-1.53051054478,-3.12775259812
1555410570720673164,94,1555410570720216376,,-2.47730970383,-1.53545129299,3.1131476645
1555410570720859726,95,1555410570720249736,,-2.47854924202,-1.54033279419,3.06364064264
1555410570760579493,96,1555410570760158697,,-2.47978997231,-1.54467368126,3.02274207749
1555410570760696068,97,1555410570760190479,,-2.48143959045,-1.55080831051,2.96094922573
1555410570760894891,98,1555410570760208444,,-2.48209834099,-1.55565345287,2.9187727808
1555410570761012314,99,1555410570760222457,,-2.4826438427,-1.55908739567,2.87479460451
1555410570771651298,100,1555410570770524895,,-2.48413467407,-1.56359565258,2.82069779179
1555410570771752316,101,1555410570770556421,,-2.48508548737,-1.5692293644,2.7821083479
1555410570780382756,102,1555410570779925802,,-2.48684692383,-1.57255065441,2.72844537645
1555410570791220759,103,1555410570790304847,,-2.48861670494,-1.57835865021,2.68837987295
1555410570800065838,104,1555410570799617356,,-2.48842787743,-1.58301842213,2.63299465891
1555410570810503501,105,1555410570810007834,,-2.49072575569,-1.58740866184,2.60226283367
1555410570820876766,106,1555410570820428977,,-2.49226236343,-1.59200823307,2.55017209997
1555410570821001188,107,1555410570820464594,,-2.49310302734,-1.59564399719,2.49472309557
1555410570830094920,108,1555410570829738982,,-2.4943356514,-1.60032749176,2.44462541727
1555410570860071829,109,1555410570859601909,,-2.49593544006,-1.60576558113,2.40760395966
1555410570860327741,110,1555410570859637373,,-2.49734592438,-1.61012101173,2.35557645288
1555410570860337243,111,1555410570859657168,,-2.49902892113,-1.61419343948,2.30689016533
1555410570870082604,112,1555410570869856080,,-2.50037717819,-1.61831641197,2.26572961684
1555410570880640781,113,1555410570880180849,,-2.50162410736,-1.62320148945,2.22569792312
1555410570880786247,114,1555410570880220617,,-2.50302219391,-1.62682521343,2.16968409912
1555410570890720778,115,1555410570890446694,,-2.50414443016,-1.63133573532,2.12717730525
1555410570900232835,116,1555410570899765628,,-2.50507998466,-1.63612210751,2.07821491578
1555410570910536482,117,1555410570910083586,,-2.50663638115,-1.64008080959,2.03503130239
1555410570920903575,118,1555410570920422817,,-2.50809812546,-1.64388716221,1.98329631064
1555410570921053563,119,1555410570920460129,,-2.5093934536,-1.64775550365,1.93652500433
1555410570930089675,120,1555410570929725999,,-2.5105907917,-1.65087628365,1.90143047984
1555410570961035957,121,1555410570960551031,,-2.51262784004,-1.65465307236,1.84554824222
1555410570961168067,122,1555410570960602240,,-2.51625561714,-1.66342377663,1.71679950968
1555410570970041471,123,1555410570969760028,,-2.51819372177,-1.66677892208,1.66489747385
1555410570980538562,124,1555410570980069223,,-2.51939606667,-1.67018270493,1.61451994082
1555410570990872292,125,1555410570990399046,,-2.52145957947,-1.67255949974,1.56850678053
1555410571020704519,126,1555410571020224566,,-2.52657818794,-1.68303537369,1.39699589037
1555410571031059473,127,1555410571030539257,,-2.52790856361,-1.6858394146,1.35200463948
1555410571061090387,128,1555410571060490663,,-2.52957129478,-1.6886677742,1.2841770062
1555410571061273771,129,1555410571060542336,,-2.53313922882,-1.69565272331,1.17393715065
1555410571070017583,130,1555410571069717767,,-2.53428030014,-1.69745659828,1.12946394836
1555410571080548155,131,1555410571080085849,,-2.53627204895,-1.69941186905,1.07960284696
1555410571090981480,132,1555410571090471599,,-2.53721761703,-1.70214271545,1.04428754734
1555410571100328572,133,1555410571099870361,,-2.53810214996,-1.70417881012,0.991155106836
1555410571110659223,134,1555410571110185341,,-2.53927230835,-1.70667564869,0.934481785613
1555410571130215786,135,1555410571129810629,,-2.54076957703,-1.71119654179,0.810729086179
1555410571160105701,136,1555410571159645923,,-2.54265570641,-1.71301817894,0.730609829706
1555410571160262656,137,1555410571159686111,,-2.54359436035,-1.71573293209,0.63207048198
1555410571170468521,138,1555410571169975854,,-2.54413199425,-1.71723628044,0.573710851551
1555410571170736888,139,1555410571170014229,,-2.54470038414,-1.7193877697,0.518460469683
1555410571180481178,140,1555410571180233863,,-2.54568910599,-1.71979379654,0.441927616779
1555410571191070569,141,1555410571190598239,,-2.54618191719,-1.72169864178,0.393990581413
1555410571200432368,142,1555410571200003543,,-2.5468184948,-1.72415578365,0.350586149436
1555410571210622933,143,1555410571210333773,,-2.54611563683,-1.72435104847,0.282573704573
1555410571210783038,144,1555410571210364141,,-2.54632711411,-1.72469460964,0.224635555807
1555410571220794457,145,1555410571220561219,,-2.54686713219,-1.72655510902,0.156378270756
1555410571230026084,146,1555410571229785793,,-2.54709362984,-1.72789204121,0.110167853431
1555410571250964173,147,1555410571250484698,,-2.54717493057,-1.72956109047,0.0493101761914
1555410571251121217,148,1555410571250524121,,-2.547311306,-1.7308037281,-0.014295917564
1555410571270542064,149,1555410571270085435,,-2.54758882523,-1.73184490204,-0.0759899701026
1555410571270674419,150,1555410571270124398,,-2.54822540283,-1.73329997063,-0.14375498806
1555410571270835502,151,1555410571270156308,,-2.54808354378,-1.73491942883,-0.189345113348
1555410571280930595,152,1555410571280490674,,-2.54784274101,-1.73615217209,-0.263023781771
1555410571290292046,153,1555410571289858542,,-2.54856991768,-1.73843896389,-0.319896153597
1555410571300716299,154,1555410571300259654,,-2.54773306847,-1.73885524273,-0.380530419471
1555410571311099212,155,1555410571310599925,,-2.54833292961,-1.74096155167,-0.429523014371
1555410571311254187,156,1555410571310638552,,-2.54794311523,-1.74251663685,-0.496101107368
1555410571320122036,157,1555410571319863476,,-2.54802107811,-1.74421095848,-0.551841526498
1555410571340947878,158,1555410571340487549,,-2.5482878685,-1.74634122849,-0.612802373845
1555410571360684534,159,1555410571360185848,,-2.54815077782,-1.74850428104,-0.662373657183
1555410571360931166,160,1555410571360225864,,-2.54761552811,-1.7499178648,-0.709453790516
1555410571360984991,161,1555410571360256218,,-2.54654765129,-1.75219166279,-0.756844350381
1555410571380144157,162,1555410571379666375,,-2.54626750946,-1.7542091608,-0.803491001969
1555410571380302299,163,1555410571379705877,,-2.54685783386,-1.75739443302,-0.858587802127
1555410571380425060,164,1555410571379735337,,-2.54655265808,-1.75960874557,-0.903030398496
1555410571390174573,165,1555410571389949226,,-2.54629230499,-1.76285541058,-0.907633198125
1555410571400770321,166,1555410571400295161,,-2.54530954361,-1.76498329639,-0.94914291971
1555410571410029544,167,1555410571409564224,,-2.54432559013,-1.76714098454,-1.00479050138
1555410571420366198,168,1555410571419907780,,-2.54436373711,-1.77081286907,-1.02694226637
1555410571420582166,169,1555410571419978331,,-2.54297614098,-1.77333557606,-1.06801361389
1555410571430574940,170,1555410571430205159,,-2.54322648048,-1.77651870251,-1.09906869948
1555410571441065723,171,1555410571440600616,,-2.5428647995,-1.7802863121,-1.13014088998
1555410571471016261,172,1555410571470569395,,-2.5420396328,-1.78347337246,-1.18065331178
1555410571471304713,173,1555410571470607833,,-2.5417945385,-1.78738486767,-1.20474798201
1555410571471427016,174,1555410571470640140,,-2.54125952721,-1.79152810574,-1.24549996366
1555410571471435491,175,1555410571470653232,,-2.54078531265,-1.79469609261,-1.27155455486
1555410571480082449,176,1555410571479848707,,-2.53871440887,-1.79935443401,-1.31170731785
1555410571490653856,177,1555410571490214902,,-2.53792667389,-1.8036866188,-1.36287528359
1555410571500774322,178,1555410571500507826,,-2.53799343109,-1.80754172802,-1.3820499995
1555410571510354644,179,1555410571509885968,,-2.53664159775,-1.81216847897,-1.42439821536
1555410571520718469,180,1555410571520239904,,-2.53611278534,-1.8168053627,-1.43864573974
1555410571520885251,181,1555410571520278552,,-2.53540825844,-1.82108294964,-1.46862970625
1555410571529939398,182,1555410571529531679,,-2.53358054161,-1.82654571533,-1.51059911306
1555410571540320441,183,1555410571539891341,,-2.53269672394,-1.83148920536,-1.54135170656
1555410571550690122,184,1555410571550253693,,-2.53353667259,-1.83694529533,-1.57015436282
1555410571570391884,185,1555410571569928266,,-2.53204512596,-1.84266400337,-1.59866551859
1555410571570544625,186,1555410571569965834,,-2.53174734116,-1.84760344028,-1.62653521247
1555410571570672128,187,1555410571569992279,,-2.53141093254,-1.8535015583,-1.66059429425
1555410571580429733,188,1555410571580174263,,-2.53036475182,-1.85913002491,-1.69759159891
1555410571591018966,189,1555410571590521774,,-2.52865362167,-1.86534500122,-1.73924894282
1555410571600413466,190,1555410571599919361,,-2.52930402756,-1.87080323696,-1.74610430634
1555410571610866814,191,1555410571610284705,,-2.52898788452,-1.87700772285,-1.7872175418
1555410571611057360,192,1555410571610323165,,-2.52864384651,-1.88325762749,-1.81594949031
1555410571620042626,193,1555410571619569070,,-2.52744889259,-1.89006793499,-1.85816066149
1555410571630287563,194,1555410571629877931,,-2.52776932716,-1.89664673805,-1.88629570081
1555410571642662977,195,1555410571640205072,,-2.52692961693,-1.90358054638,-1.93056709372
1555410571651021208,196,1555410571650576728,,-2.52686285973,-1.91027331352,-1.94086773538
1555410571680855887,197,1555410571680308145,,-2.52738213539,-1.91839623451,-1.99615632509
1555410571680912374,198,1555410571680347244,,-2.5290389061,-1.92440402508,-1.99256500307
1555410571681123484,199,1555410571680374901,,-2.52827167511,-1.9313929081,-2.03565122997
1555410571681130525,200,1555410571680390168,,-2.52976679802,-1.93911707401,-2.05612573279
1555410571689757223,201,1555410571689538935,,-2.53004980087,-1.94629561901,-2.0965893446
1555410571699981406,202,1555410571699736331,,-2.52989697456,-1.95413517952,-2.13663607621
1555410571710230879,203,1555410571709932398,,-2.53102135658,-1.96158075333,-2.15090121948
1555410571720758158,204,1555410571720296057,,-2.53225636482,-1.96940088272,-2.20430512509
1555410571720930379,205,1555410571720336365,,-2.53285741806,-1.97607111931,-2.22986892395
1555410571729994127,206,1555410571729582578,,-2.53399395943,-1.98431491852,-2.26400654168
1555410571740438018,207,1555410571739969303,,-2.53503227234,-1.99215734005,-2.30736699311
1555410571750831341,208,1555410571750348689,,-2.53503131866,-2.00002098083,-2.33907691641
1555410571791166439,209,1555410571790669976,,-2.53684639931,-2.00757813454,-2.39612887464
1555410571791318395,210,1555410571790722637,,-2.53918409348,-2.03134775162,-2.55200040648
1555410571791449409,211,1555410571790750407,,-2.54225325584,-2.04015517235,-2.58408523635
1555410571800291533,212,1555410571800007174,,-2.54354333878,-2.04753375053,-2.63751926117
1555410571810473731,213,1555410571810196896,,-2.54606246948,-2.05589365959,-2.69018781344
1555410571810667651,214,1555410571810212282,,-2.54817509651,-2.06386804581,-2.72465018204
1555410571820970438,215,1555410571820515695,,-2.55030655861,-2.07204914093,-2.77986857344
1555410571830182709,216,1555410571829813034,,-2.55272531509,-2.08002781868,-2.82732483011
1555410571840656727,217,1555410571840170778,,-2.55546474457,-2.08816576004,-2.87964794759
1555410571850989499,218,1555410571850541894,,-2.55781745911,-2.09630870819,-2.91720906199
1555410571881035610,219,1555410571880538848,,-2.5615375042,-2.10374927521,-2.98592279717
1555410571881208782,220,1555410571880592059,,-2.56993889809,-2.12787866592,-3.13403315392
1555410571890412233,221,1555410571889940228,,-2.57252430916,-2.13520359993,3.09990666659
1555410571900761351,222,1555410571900288805,,-2.57613182068,-2.1423895359,3.04848208732
1555410571910787984,223,1555410571910503385,,-2.58013629913,-2.15017652512,3.00102178148
1555410571910920181,224,1555410571910520464,,-2.58374476433,-2.1575293541,2.95393553248
1555410571919950685,225,1555410571919700692,,-2.58848023415,-2.16574263573,2.89911626683
1555410571930204093,226,1555410571929884243,,-2.59146595001,-2.17319250107,2.83643505689
1555410571940720741,227,1555410571940239043,,-2.59494566917,-2.1809322834,2.79966009292
1555410571951052614,228,1555410571950587755,,-2.59863305092,-2.18793559074,2.73717743073
1555410571960382878,229,1555410571959912620,,-2.6025633812,-2.19522356987,2.70288507355
1555410571981077852,230,1555410571980570965,,-2.60585403442,-2.20193171501,2.62857399849
1555410571981238816,231,1555410571980614198,,-2.61402773857,-2.21680879593,2.53376866191
1555410571989977247,232,1555410571989771460,,-2.61795210838,-2.22319960594,2.47206087192
1555410572000207352,233,1555410571999963698,,-2.62135314941,-2.22982263565,2.43845828645
1555410572010771513,234,1555410572010283786,,-2.62611055374,-2.23723959923,2.36524148114
1555410572010929940,235,1555410572010318599,,-2.62895226479,-2.24386453629,2.3076890379
1555410572020759501,236,1555410572020509570,,-2.63309574127,-2.25037264824,2.26908148033
1555410572030178499,237,1555410572029799851,,-2.63662075996,-2.25670289993,2.20638350487
1555410572040673363,238,1555410572040139672,,-2.64048600197,-2.26270484924,2.15520703995
1555410572050993518,239,1555410572050512702,,-2.64543557167,-2.26917910576,2.08432009046
1555410572060351054,240,1555410572059893140,,-2.64930081367,-2.27638459206,2.00279597125
1555410572081005128,241,1555410572080505996,,-2.6528942585,-2.28217744827,1.93835299823
1555410572081177502,242,1555410572080549430,,-2.66284179688,-2.29396557808,1.80482744552
1555410572090344264,243,1555410572089886739,,-2.66626358032,-2.29957056046,1.74642904013
1555410572100406946,244,1555410572100112518,,-2.66928052902,-2.30499196053,1.67254312606
1555410572110924027,245,1555410572110435403,,-2.67354655266,-2.30913949013,1.63207968055
1555410572111081629,246,1555410572110471081,,-2.67786121368,-2.31479740143,1.56904171901
1555410572119894988,247,1555410572119667515,,-2.6816163063,-2.3195514679,1.51013203022
1555410572130324163,248,1555410572129898970,,-2.68393278122,-2.32393431664,1.45732997977
1555410572140716161,249,1555410572140249965,,-2.68805480003,-2.32877278328,1.40147963702
1555410572151065380,250,1555410572150617919,,-2.69204831123,-2.33560466766,1.31743468069
1555410572160473126,251,1555410572160008599,,-2.69555497169,-2.34014630318,1.25249693867
1555410572190298955,252,1555410572189808584,,-2.69905996323,-2.34481739998,1.21693007309
1555410572190514290,253,1555410572189845397,,-2.70245289803,-2.34928393364,1.16171848075
1555410572270738215,254,1555410572270227954,,-2.72855949402,-2.39233875275,0.735302945877
1555410572270888690,255,1555410572270263397,,-2.73103713989,-2.39562726021,0.711992379359
1555410572280753835,256,1555410572280437260,,-2.73393201828,-2.40007567406,0.685794469059
1555410572290122628,257,1555410572289664512,,-2.7351436615,-2.40312695503,0.635809041703
1555410572300523387,258,1555410572300034694,,-2.73678779602,-2.40665578842,0.642852202742
1555410572310923953,259,1555410572310401237,,-2.74016737938,-2.41106104851,0.612898479366
1555410572320121667,260,1555410572319631428,,-2.74057340622,-2.41458559036,0.600251161218
1555410572320267988,261,1555410572319677914,,-2.74216485023,-2.41759943962,0.580064202691
1555410572330343663,262,1555410572329919196,,-2.74358582497,-2.42128825188,0.55090755423
1555410572340472240,263,1555410572340168374,,-2.74446320534,-2.42459344864,0.539719026243
1555410572351023912,264,1555410572350506837,,-2.74717831612,-2.42893409729,0.519482786227
1555410572370675664,265,1555410572370186910,,-2.75095367432,-2.43960022926,0.454580860929
1555410572380968415,266,1555410572380495507,,-2.75384449959,-2.4437084198,0.468551208647
1555410572390320315,267,1555410572389828142,,-2.75396037102,-2.44586133957,0.416925142136
1555410572400646363,268,1555410572400174217,,-2.75514245033,-2.44967865944,0.395473067252
1555410572411111823,269,1555410572410520455,,-2.7566049099,-2.4526553154,0.372747463504
1555410572411297055,270,1555410572410556245,,-2.75706028938,-2.45631885529,0.356655366769
1555410572420327501,271,1555410572419845973,,-2.75998401642,-2.45959043503,0.31949009632
1555410572430343667,272,1555410572430059352,,-2.75990891457,-2.46316885948,0.314462490204
1555410572440875529,273,1555410572440356996,,-2.76136636734,-2.46602344513,0.286523150383
1555410572450032376,274,1555410572449563394,,-2.76319932938,-2.46947669983,0.253230985479
1555410572460315368,275,1555410572459790953,,-2.76325798035,-2.47224712372,0.239060335726
1555410572470629652,276,1555410572470120263,,-2.76421332359,-2.47530913353,0.212183384526
1555410572470805099,277,1555410572470154147,,-2.76480793953,-2.47850990295,0.183192522851
1555410572480927277,278,1555410572480455354,,-2.76545238495,-2.48149609566,0.154418913847
1555410572510815861,279,1555410572510317840,,-2.7667324543,-2.49355697632,0.0459156089662
1555410572521100617,280,1555410572520649048,,-2.76675391197,-2.49632430077,0.0195702921492
1555410572540703485,281,1555410572540233089,,-2.76667428017,-2.49933052063,0.000107391446467
1555410572540895304,282,1555410572540264991,,-2.76667928696,-2.50201797485,-0.0240742854288
1555410572550648476,283,1555410572550422092,,-2.76651549339,-2.50557661057,-0.0404778961306
1555410572560132107,284,1555410572559637803,,-2.7656648159,-2.50806093216,-0.0654955559461
1555410572570473144,285,1555410572569981194,,-2.76551532745,-2.51094317436,-0.0776525357976
1555410572580860817,286,1555410572580358760,,-2.76515173912,-2.5142147541,-0.0930121571893
1555410572581058112,287,1555410572580395656,,-2.76476359367,-2.51690340042,-0.10643220226
1555410572590012495,288,1555410572589567545,,-2.76447987556,-2.51997876167,-0.109754189068
1555410572600028603,289,1555410572599744544,,-2.76397395134,-2.52292370796,-0.117789435637
1555410572610198252,290,1555410572609903137,,-2.76212859154,-2.52605938911,-0.135441868688
1555410572620721889,291,1555410572620252491,,-2.7618086338,-2.52906918526,-0.144233474418
1555410572620894840,292,1555410572620289413,,-2.76182699203,-2.53256201744,-0.144832800251
1555410572630690163,293,1555410572630446524,,-2.76141738892,-2.53548765182,-0.152784382708
1555410572639911856,294,1555410572639602375,,-2.7607126236,-2.53866553307,-0.159484235222
1555410572650433841,295,1555410572649945775,,-2.75965857506,-2.54171013832,-0.165067769373
1555410572660737817,296,1555410572660252466,,-2.7588531971,-2.54481291771,-0.177223530608
1555410572660875081,297,1555410572660288269,,-2.75802183151,-2.54781341553,-0.178361305645
1555410572670753681,298,1555410572670462698,,-2.75702571869,-2.55098438263,-0.182057406981
1555410572680254897,299,1555410572679781271,,-2.75664401054,-2.55409622192,-0.1896716961
1555410572690580207,300,1555410572690102647,,-2.75566005707,-2.55715703964,-0.196003053251
1555410572700891995,301,1555410572700426156,,-2.75438809395,-2.55969929695,-0.210577675568
1555410572710162802,302,1555410572709724669,,-2.75343489647,-2.56317424774,-0.211398241291
1555410572720478626,303,1555410572720021832,,-2.75319361687,-2.56608319283,-0.216564169097
1555410572730645754,304,1555410572730226311,,-2.75239372253,-2.56928801537,-0.218242692649
1555410572730769501,305,1555410572730257934,,-2.75128173828,-2.57268738747,-0.224865248286
1555410572740685990,306,1555410572740409830,,-2.75061178207,-2.57535600662,-0.226967361715
1555410572750112199,307,1555410572749628708,,-2.75008153915,-2.57870292664,-0.232093115724
1555410572760128650,308,1555410572759834239,,-2.74890494347,-2.58172941208,-0.246693834066
1555410572770677695,309,1555410572770235970,,-2.74822211266,-2.58469247818,-0.251070518987
1555410572770821858,310,1555410572770273021,,-2.74686098099,-2.5875723362,-0.250376297928
1555410572790384305,311,1555410572789893541,,-2.74620223045,-2.59076619148,-0.254579005112
1555410572790580368,312,1555410572789929197,,-2.74527406693,-2.59387135506,-0.264408326758
1555410572800625353,313,1555410572800161202,,-2.74445867538,-2.59709477425,-0.258817818153
1555410572810637796,314,1555410572810353881,,-2.74273109436,-2.59986758232,-0.269779245998
1555410572810777100,315,1555410572810371057,,-2.7415189743,-2.60301208496,-0.265366470355
1555410572820049277,316,1555410572819580715,,-2.74093389511,-2.60679626465,-0.262070429799
1555410572830005126,317,1555410572829745325,,-2.74021959305,-2.60968375206,-0.270759387699
1555410572840203035,318,1555410572839903305,,-2.73783278465,-2.61299777031,-0.262895950534
1555410572850693647,319,1555410572850220690,,-2.7370569706,-2.61637020111,-0.256966107753
1555410572861023771,320,1555410572860551506,,-2.73546361923,-2.6197822094,-0.239346637928
1555410572861178329,321,1555410572860586712,,-2.73478293419,-2.62287092209,-0.246042818794
1555410572870316998,322,1555410572869854864,,-2.73250770569,-2.62626242638,-0.224135429056
1555410572890971201,323,1555410572890496134,,-2.73100471497,-2.62957811356,-0.21295476805
1555410572891095333,324,1555410572890531906,,-2.72916245461,-2.63294959068,-0.208711787576
1555410572899983738,325,1555410572899724749,,-2.72685909271,-2.63579201698,-0.195267928067
1555410572910516906,326,1555410572910030462,,-2.72532367706,-2.6396214962,-0.178728044117
1555410572920871120,327,1555410572920404025,,-2.72415995598,-2.64336776733,-0.159081672453
1555410572921028054,328,1555410572920440671,,-2.72221922874,-2.6464548111,-0.149629292937
1555410572929952474,329,1555410572929571954,,-2.720713377,-2.64966654778,-0.133588612323
1555410572940405220,330,1555410572939902047,,-2.71887087822,-2.65350723267,-0.109999643972
1555410572950759430,331,1555410572950262169,,-2.7173538208,-2.65720391273,-0.0985033621247
1555410572961035106,332,1555410572960561757,,-2.71526789665,-2.66022562981,-0.0875299329839
1555410572961188437,333,1555410572960597388,,-2.71366906166,-2.66369700432,-0.0648948085867
1555410572970367794,334,1555410572969916479,,-2.71171569824,-2.6671090126,-0.0515023726641
1555410572980382048,335,1555410572980100003,,-2.71037793159,-2.67062401772,-0.0373453645876
1555410572990916184,336,1555410572990446769,,-2.70794034004,-2.67419695854,-0.0203989688848
1555410573000277623,337,1555410572999819580,,-2.7062394619,-2.67768383026,-0.00420229773214
1555410573010629617,338,1555410573010169336,,-2.70395588875,-2.68077969551,0.00682103597214
1555410573010778362,339,1555410573010204983,,-2.70186114311,-2.68395066261,0.0166691078235
1555410573020952002,340,1555410573020498695,,-2.6990878582,-2.68711471558,0.0297054723549
1555410573030278699,341,1555410573029859491,,-2.69720888138,-2.69048833847,0.0424917039058
1555410573040370588,342,1555410573040082713,,-2.69489336014,-2.69356012344,0.0522918674577
1555410573050855040,343,1555410573050386872,,-2.69286298752,-2.69719362259,0.0582152724509
1555410573060078820,344,1555410573059622859,,-2.69002914429,-2.6999669075,0.0581872925275
1555410573090929915,345,1555410573090419891,,-2.67890787125,-2.71240305901,0.0668653054351
1555410573100266490,346,1555410573099789847,,-2.67567324638,-2.71528363228,0.0562483819364
1555410573110586791,347,1555410573110113163,,-2.67307591438,-2.71871209145,0.0612656511775
1555410573110733053,348,1555410573110147968,,-2.66939759254,-2.7211689949,0.0543610591715
1555410573120908797,349,1555410573120433236,,-2.66585040092,-2.72396683693,0.047275777653
1555410573130524589,350,1555410573129773870,,-2.66269731522,-2.72748875618,0.0372678840489
1555410573140491110,351,1555410573140094543,,-2.65931415558,-2.7297141552,0.0214079961794
1555410573150908793,352,1555410573150452270,,-2.65533185005,-2.73245596886,0.00958163871321
1555410573160279191,353,1555410573159821679,,-2.65183138847,-2.73517823219,-0.00175225404706
1555410573170662028,354,1555410573170191388,,-2.64817619324,-2.73823595047,-0.0242425037683
1555410573170813479,355,1555410573170228370,,-2.64475750923,-2.74112319946,-0.0405420674345
1555410573180979349,356,1555410573180506698,,-2.6406724453,-2.74420928955,-0.0500223429123
1555410573190336160,357,1555410573189875955,,-2.63648843765,-2.74638271332,-0.0771244258221
1555410573200723316,358,1555410573200246382,,-2.63272452354,-2.74944138527,-0.100719479795
1555410573211046911,359,1555410573210552686,,-2.62795948982,-2.75162935257,-0.125959827386
1555410573211200041,360,1555410573210586754,,-2.62347269058,-2.75433421135,-0.155185385369
1555410573219965401,361,1555410573219738850,,-2.61918234825,-2.75696492195,-0.182713514164
1555410573240621801,362,1555410573240196337,,-2.61461091042,-2.75953292847,-0.209439854701
1555410573240789433,363,1555410573240224059,,-2.61006736755,-2.76211643219,-0.238568215491
1555410573260153399,364,1555410573259658038,,-2.60546827316,-2.76494312286,-0.274417746616
1555410573260326025,365,1555410573259694501,,-2.60105419159,-2.76747393608,-0.313974485275
1555410573270472040,366,1555410573269987502,,-2.59560012817,-2.77016925812,-0.342172644748
1555410573270613271,367,1555410573270021227,,-2.59045100212,-2.77269506454,-0.387072456234
1555410573280820456,368,1555410573280329178,,-2.58548378944,-2.77555513382,-0.424349892041
1555410573290082984,369,1555410573289571615,,-2.58020710945,-2.77828669548,-0.466037522168
1555410573310697958,370,1555410573310110553,,-2.57512974739,-2.78101849556,-0.502838476002
1555410573310794328,371,1555410573310149125,,-2.57003855705,-2.78389406204,-0.556281602216
1555410573320714727,372,1555410573320345031,,-2.56486153603,-2.78717899323,-0.593859973634
1555410573331081718,373,1555410573330581354,,-2.55947685242,-2.79009699821,-0.625244973652
1555410573331237288,374,1555410573330613872,,-2.5541639328,-2.79328179359,-0.674152964703
1555410573340477791,375,1555410573339966737,,-2.54866814613,-2.79612851143,-0.698295024254
1555410573350778671,376,1555410573350275471,,-2.54349589348,-2.79981231689,-0.738082292817
1555410573361105566,377,1555410573360596591,,-2.53737306595,-2.8032283783,-0.772415108962
1555410573361281867,378,1555410573360632845,,-2.53237438202,-2.80670976639,-0.804171399909
1555410573370452357,379,1555410573369939541,,-2.52724742889,-2.81018280983,-0.818729531309
1555410573380743865,380,1555410573380268456,,-2.52129268646,-2.81368231773,-0.858865642442
1555410573391123067,381,1555410573390591640,,-2.5159432888,-2.81727004051,-0.888360348625
1555410573421007465,382,1555410573420520168,,-2.51096439362,-2.82125687599,-0.922229641085
1555410573421153220,383,1555410573420570609,,-2.49419236183,-2.83206915855,-0.997808724243
1555410573430076919,384,1555410573429788090,,-2.49013352394,-2.83606266975,-1.02528832257
1555410573450842101,385,1555410573450369891,,-2.48375797272,-2.83989429474,-1.05344179799
1555410573451014165,386,1555410573450406873,,-2.47814297676,-2.84407997131,-1.08728733357
1555410573460080419,387,1555410573459573007,,-2.47380113602,-2.84755659103,-1.09950682393
1555410573470374333,388,1555410573469901524,,-2.46829533577,-2.85155129433,-1.12458583464
1555410573470543350,389,1555410573469939730,,-2.46274018288,-2.85543513298,-1.15716577339
1555410573480753973,390,1555410573480251844,,-2.45779514313,-2.8597099781,-1.17865959333
1555410573491085251,391,1555410573490589307,,-2.45274329185,-2.86391639709,-1.19617366257
1555410573521025297,392,1555410573520526223,,-2.44688558578,-2.86739826202,-1.22836090249
1555410573521176984,393,1555410573520579548,,-2.43155264854,-2.87968969345,-1.27365162825
1555410573540411716,394,1555410573539958027,,-2.42639088631,-2.88435983658,-1.30644828615
1555410573540420269,395,1555410573539974530,,-2.42182374001,-2.88905858994,-1.32179718848
1555410573550510635,396,1555410573550164286,,-2.41696023941,-2.89392161369,-1.34265718885
1555410573560947275,397,1555410573560462407,,-2.41178798676,-2.89841890335,-1.34650064403
1555410573561164428,398,1555410573560498251,,-2.40675926208,-2.90259623528,-1.35550510418
1555410573580612235,399,1555410573580128491,,-2.40122938156,-2.90691137314,-1.36702999058
1555410573580819042,400,1555410573580164269,,-2.39715147018,-2.91220021248,-1.3779517234
1555410573590641258,401,1555410573590358772,,-2.39323091507,-2.91742372513,-1.37089796704
1555410573620737033,402,1555410573620190926,,-2.38868021965,-2.92232990265,-1.37831427196
1555410573621012578,403,1555410573620242533,,-2.37387132645,-2.93751573563,-1.38786626675
1555410573630848530,404,1555410573630425512,,-2.37018036842,-2.94322991371,-1.38758566052
1555410573642140143,405,1555410573639657937,,-2.36662697792,-2.9493124485,-1.38542095591
1555410573650481308,406,1555410573649996472,,-2.3608880043,-2.95407295227,-1.3933455971
1555410573660790164,407,1555410573660318825,,-2.35742592812,-2.95983886719,-1.383869707
1555410573660946816,408,1555410573660354445,,-2.35202717781,-2.96478366852,-1.3750170715
1555410573670838861,409,1555410573670506422,,-2.34891867638,-2.97113013268,-1.37154767932
1555410573680298604,410,1555410573679818089,,-2.34426116943,-2.9766895771,-1.35201693465
1555410573690633238,411,1555410573690149497,,-2.33961176872,-2.9827811718,-1.35605182137
1555410573700985525,412,1555410573700478023,,-2.33639383316,-2.98861718178,-1.34257389599
1555410573720588384,413,1555410573720113085,,-2.33211040497,-2.99487185478,-1.31339938847
1555410573720761727,414,1555410573720158874,,-2.32419276237,-3.00747585297,-1.3076225646
1555410573731281128,415,1555410573730390634,,-2.31926417351,-3.01349377632,-1.3017815672
1555410573740032236,416,1555410573739731508,,-2.31592845917,-3.02044177055,-1.29195137875
1555410573750556957,417,1555410573750079503,,-2.31054067612,-3.02710199356,-1.27704069836
1555410573760709781,418,1555410573760294780,,-2.30632734299,-3.03418827057,-1.27368212817
1555410573760901082,419,1555410573760326780,,-2.30233240128,-3.04135918617,-1.25905069999
1555410573770230218,420,1555410573769789398,,-2.29899907112,-3.04838943481,-1.25482466509
1555410573780590343,421,1555410573780154235,,-2.29504203796,-3.05601167679,-1.24283262572
1555410573790940035,422,1555410573790489505,,-2.2896707058,-3.06310105324,-1.23646840642
1555410573800320981,423,1555410573799855687,,-2.28600311279,-3.07083296776,-1.22027210175
1555410573830347555,424,1555410573829863900,,-2.28095960617,-3.07817625999,-1.21941165514
1555410573830518383,425,1555410573829911402,,-2.2685406208,-3.10263347626,-1.19053817979
1555410573840753564,426,1555410573840229597,,-2.26368045807,-3.11038780212,-1.19423696239
1555410573851060021,427,1555410573850599779,,-2.259516716,-3.11849737167,-1.18605454021
1555410573860416587,428,1555410573859978551,,-2.25545978546,-3.12730717659,-1.17686750007
1555410573870834327,429,1555410573870306644,,-2.25106573105,-3.13570594788,-1.17098945345
1555410573871059948,430,1555410573870341272,,-2.24639034271,-3.14434576035,-1.17867467234
1555410573880023249,431,1555410573879565601,,-2.24209356308,-3.15339541435,-1.15583961213
1555410573890303300,432,1555410573889859613,,-2.23678851128,-3.16157841682,-1.1607375041
1555410573900668131,433,1555410573900226156,,-2.23194766045,-3.17068696022,-1.15473228236
1555410573920414137,434,1555410573919846907,,-2.22752356529,-3.17962265015,-1.14585388928
1555410573920588138,435,1555410573919889826,,-2.21884274483,-3.19718503952,-1.14385688554
1555410573930475422,436,1555410573930090458,,-2.21414279938,-3.20647859573,-1.12722111826
1555410573940858975,437,1555410573940406173,,-2.21014666557,-3.21519732475,-1.1266113125
1555410573950102936,438,1555410573949656664,,-2.20506596565,-3.223954916,-1.12256294367
1555410573960212399,439,1555410573959902674,,-2.20151138306,-3.23371100426,-1.11978960943
1555410573960387209,440,1555410573959939086,,-2.19618082047,-3.24187684059,-1.10887918301
1555410573970685030,441,1555410573970240598,,-2.19180679321,-3.25146603584,-1.10153990252
1555410573981057497,442,1555410573980620405,,-2.18684196472,-3.25984787941,-1.10491366511
1555410573990438996,443,1555410573989998160,,-2.18240857124,-3.26861834526,-1.09267181411
1555410574000827606,444,1555410574000387198,,-2.1778190136,-3.27777433395,-1.09359308779
1555410574010017323,445,1555410574009582909,,-2.17296767235,-3.28703260422,-1.08759420555
1555410574030631296,446,1555410574030140219,,-2.168156147,-3.29549074173,-1.08381406245
1555410574030791234,447,1555410574030183905,,-2.15959715843,-3.31384849548,-1.07366129604
1555410574040694082,448,1555410574040402980,,-2.15556621552,-3.32262349129,-1.0698879171
1555410574050103265,449,1555410574049636721,,-2.15067434311,-3.33149862289,-1.06108507833
1555410574060458072,450,1555410574060006244,,-2.14599657059,-3.34061837196,-1.05999125815
1555410574070854491,451,1555410574070399840,,-2.14183855057,-3.34922981262,-1.060699751
1555410574071006723,452,1555410574070435517,,-2.13709187508,-3.35827898979,-1.04736161638
1555410574080121982,453,1555410574079659361,,-2.13298654556,-3.36716485023,-1.04978752789
1555410574090421129,454,1555410574089980937,,-2.1281683445,-3.37631464005,-1.04477084408
1555410574100772733,455,1555410574100341215,,-2.12370204926,-3.38535952568,-1.04113867021
1555410574109803460,456,1555410574109535182,,-2.11918568611,-3.39475154877,-1.03681231297
1555410574130497295,457,1555410574130073146,,-2.11417078972,-3.40374350548,-1.03968727549
1555410574130638481,458,1555410574130112645,,-2.10497117043,-3.42184972763,-1.05220055427
1555410574140843919,459,1555410574140369560,,-2.10017204285,-3.43110704422,-1.05813909754
1555410574150058954,460,1555410574149604721,,-2.09573435783,-3.44120573997,-1.0532058895
1555410574160433014,461,1555410574159956241,,-2.09055757523,-3.44978380203,-1.07276660082
1555410574160586138,462,1555410574159989913,,-2.08534145355,-3.45949172974,-1.0875672193
1555410574170434517,463,1555410574170175908,,-2.08118247986,-3.46908378601,-1.09128369169
1555410574180943181,464,1555410574180488496,,-2.07590079308,-3.47845602036,-1.11272294975
1555410574190281030,465,1555410574189814018,,-2.07056117058,-3.48839879036,-1.11331157727
1555410574200576560,466,1555410574200125724,,-2.06610417366,-3.49780464172,-1.13720622268
1555410574210920031,467,1555410574210459432,,-2.06079673767,-3.50763821602,-1.14332631022
1555410574230403636,468,1555410574229985358,,-2.05551338196,-3.51702475548,-1.1597957623
1555410574230556708,469,1555410574230016938,,-2.05070257187,-3.52722334862,-1.16690071991
1555410574230694878,470,1555410574230081780,,-2.04633378983,-3.53710865974,-1.18205457129
1555410574240491538,471,1555410574240257878,,-2.04051113129,-3.54714989662,-1.18404345829
1555410574251037519,472,1555410574250572908,,-2.03588247299,-3.55714344978,-1.19102974202
1555410574260317847,473,1555410574259865490,,-2.03101015091,-3.56733942032,-1.19071240366
1555410574270694618,474,1555410574270163337,,-2.0265750885,-3.5774769783,-1.20151445455
1555410574270866130,475,1555410574270197676,,-2.02151560783,-3.58771204948,-1.20088525238
1555410574280842843,476,1555410574280420836,,-2.0161113739,-3.59816241264,-1.19622399442
1555410574290135878,477,1555410574289659871,,-2.01126337051,-3.60887861252,-1.19964566645
1555410574300489923,478,1555410574300005550,,-2.00626468658,-3.61938858032,-1.20128171645
1555410574310794338,479,1555410574310341861,,-2.00153017044,-3.63030409813,-1.20199836084
1555410574330215893,480,1555410574329816005,,-1.99662673473,-3.64107227325,-1.20295503678
1555410574330358961,481,1555410574329854952,,-1.98631834984,-3.66305875778,-1.20127692147
1555410574340409061,482,1555410574340075851,,-1.98124349117,-3.6742503643,-1.20200284367
1555410574350841520,483,1555410574350369800,,-1.97637033463,-3.6856944561,-1.20031854176
1555410574360063535,484,1555410574359613256,,-1.97116363049,-3.69711470604,-1.20204804313
1555410574370238588,485,1555410574369867639,,-1.96612679958,-3.7088124752,-1.20285814925
1555410574370358135,486,1555410574369885886,,-1.96108734608,-3.72053837776,-1.20457739003
1555410574380607159,487,1555410574380161638,,-1.95584118366,-3.73225212097,-1.20493816403
1555410574390979997,488,1555410574390484699,,-1.95071685314,-3.7438788414,-1.21483068549
1555410574400268816,489,1555410574399804442,,-1.94537055492,-3.75597548485,-1.21776733165
1555410574410607640,490,1555410574410139423,,-1.94021785259,-3.76780533791,-1.2167961332
1555410574420919029,491,1555410574420467759,,-1.93559539318,-3.78013420105,-1.23410056061
1555410574440474306,492,1555410574440023745,,-1.92967820168,-3.7922642231,-1.24069606006
1555410574440629787,493,1555410574440062425,,-1.91950857639,-3.81695055962,-1.26305648587
1555410574450915301,494,1555410574450371569,,-1.91389274597,-3.82937145233,-1.27526410071
1555410574460070104,495,1555410574459547515,,-1.90835297108,-3.84172201157,-1.2963248448
1555410574470346943,496,1555410574469821868,,-1.90320038795,-3.85425710678,-1.31129040515
1555410574470522431,497,1555410574469856500,,-1.89780759811,-3.86674189568,-1.32511940401
1555410574480579258,498,1555410574480130622,,-1.89255726337,-3.87964367867,-1.34703997384
1555410574490945077,499,1555410574490430907,,-1.88791286945,-3.89252281189,-1.38165252806
1555410574500260912,500,1555410574499803332,,-1.88198268414,-3.90485668182,-1.39431220398
1555410574510554257,501,1555410574510101258,,-1.87682163715,-3.91750264168,-1.41784957646
1555410574510798849,502,1555410574510137076,,-1.87160277367,-3.93014597893,-1.44326897217
1555410574540336008,503,1555410574539761616,,-1.86633217335,-3.94295668602,-1.46006208647
1555410574540505595,504,1555410574539800272,,-1.85618448257,-3.96846699715,-1.51257663163
1555410574550269008,505,1555410574549954623,,-1.85047078133,-3.98077535629,-1.53607881523
1555410574560697516,506,1555410574560246926,,-1.84573161602,-3.99371743202,-1.56147139687
1555410574560882898,507,1555410574560281169,,-1.84040093422,-4.00613451004,-1.58027459702
1555410574571035903,508,1555410574570581793,,-1.8355486393,-4.01918411255,-1.60764654013
1555410574580421828,509,1555410574579960827,,-1.83053791523,-4.03194952011,-1.63005055716
1555410574590769202,510,1555410574590328183,,-1.82535052299,-4.04440164566,-1.65634946847
1555410574600109549,511,1555410574599584760,,-1.82063984871,-4.05766201019,-1.67762736959
1555410574610149786,512,1555410574609864912,,-1.81568300724,-4.07045841217,-1.69643981018
1555410574610256566,513,1555410574609886940,,-1.81097018719,-4.08327865601,-1.71897694855
1555410574642749994,514,1555410574642241137,,-1.80624198914,-4.09606313705,-1.73875106403
1555410574642919414,515,1555410574642287544,,-1.79738306999,-4.12229681015,-1.7696822311
1555410574651154130,516,1555410574650620440,,-1.79337906837,-4.13533210754,-1.78140992174
1555410574660424403,517,1555410574659938881,,-1.78872108459,-4.14839172363,-1.79890488117
1555410574660558495,518,1555410574659971352,,-1.78463220596,-4.16167974472,-1.80801242577
1555410574670445795,519,1555410574670161723,,-1.78073477745,-4.17486810684,-1.81703790722
1555410574680993093,520,1555410574680523919,,-1.77669131756,-4.18767261505,-1.82872894082
1555410574690291291,521,1555410574689853382,,-1.77265751362,-4.2013502121,-1.83934906626
1555410574700651441,522,1555410574700174062,,-1.76914215088,-4.21483421326,-1.84638018554
1555410574711097963,523,1555410574710569688,,-1.76536500454,-4.228328228,-1.85631490409
1555410574711249374,524,1555410574710607994,,-1.76192200184,-4.24176740646,-1.86482546854
1555410574720188160,525,1555410574719868699,,-1.75858712196,-4.2555398941,-1.87433805684
1555410574750420087,526,1555410574749837163,,-1.75509774685,-4.26899433136,-1.87647313388
1555410574750580468,527,1555410574749880881,,-1.74932074547,-4.29730463028,-1.889891767
1555410574760354536,528,1555410574760055112,,-1.74572324753,-4.31105279922,-1.90454743603
1555410574760501396,529,1555410574760089826,,-1.74315834045,-4.32560586929,-1.91009131607
1555410574770757749,530,1555410574770446134,,-1.74000930786,-4.33895349503,-1.92224243574
1555410574960694802,531,1555410574960234103,,-1.70417737961,-4.67891454697,-1.93157659759
1555410574971025420,532,1555410574970565272,,-1.70387148857,-4.69370079041,-1.90917912799
1555410574980398966,533,1555410574979948960,,-1.70355033875,-4.70885467529,-1.91735264187
1555410575060968697,534,1555410575060464920,,-1.70327198505,-4.81844139099,-1.8874727117
1555410575061141891,535,1555410575060501970,,-1.70347285271,-4.83469200134,-1.89931802909
1555410575061263226,536,1555410575060513527,,-1.70349359512,-4.84978199005,-1.88677462138
