%time,field.header.seq,field.header.stamp,field.header.frame_id,field.point.x,field.point.y,field.point.z
1554974606323557082,1,1554974606322995696,,-0.789812862873,-1.46460437775,-0.463427292707
1554974606333941697,2,1554974606333448279,,-0.791656970978,-1.46588718891,-0.462506525766
1554974606344338399,3,1554974606343823533,,-0.793353676796,-1.46710717678,-0.459028428214
1554974606353682921,4,1554974606353194212,,-0.794960200787,-1.46823334694,-0.463835380256
1554974606364238356,5,1554974606363586290,,-0.796803355217,-1.46938586235,-0.461063655841
1554974606364249678,6,1554974606363625400,,-0.798488378525,-1.47057664394,-0.460634893385
1554974606374197167,7,1554974606373913738,,-0.800507605076,-1.47194433212,-0.459567304243
1554974606383749304,8,1554974606383287868,,-0.802047789097,-1.47306799889,-0.4645919183
1554974606394079577,9,1554974606393623476,,-0.803964436054,-1.47417616844,-0.472163709596
1554974606413845957,10,1554974606413202079,,-0.805866241455,-1.47542071342,-0.472930774692
1554974606413858879,11,1554974606413246663,,-0.809550106525,-1.47817003727,-0.487408743428
1554974606424070810,12,1554974606423570972,,-0.811625123024,-1.47938370705,-0.495277499908
1554974606434447382,13,1554974606433952385,,-0.813515424728,-1.48068523407,-0.507342811112
1554974606443843505,14,1554974606443329474,,-0.815585136414,-1.48216927052,-0.517412510218
1554974606453806684,15,1554974606453540898,,-0.817647576332,-1.48350024223,-0.529859661924
1554974606464375042,16,1554974606463886953,,-0.81927138567,-1.48513197899,-0.547616686906
1554974606464542748,17,1554974606463922867,,-0.821557700634,-1.48664271832,-0.562429625885
1554974606473694464,18,1554974606473186838,,-0.823776423931,-1.48816347122,-0.577401267446
1554974606484064062,19,1554974606483551084,,-0.825780630112,-1.4896017313,-0.596494052561
1554974606494225099,20,1554974606493798007,,-0.828194022179,-1.4912058115,-0.614454560776
1554974606514204922,21,1554974606513125775,,-0.830576121807,-1.49272537231,-0.633534830357
1554974606514235530,22,1554974606513154151,,-0.832752764225,-1.49436604977,-0.656520133377
1554974606514246924,23,1554974606513173956,,-0.835171937943,-1.49587333202,-0.680201656578
1554974606524060845,24,1554974606523525244,,-0.837465047836,-1.4975206852,-0.70213589842
1554974606534390632,25,1554974606533916006,,-0.840046584606,-1.49918305874,-0.728274585247
1554974606543892345,26,1554974606543295200,,-0.842658698559,-1.50088906288,-0.753779619328
1554974606554195170,27,1554974606553672298,,-0.844842374325,-1.50242197514,-0.785681584314
1554974606564666300,28,1554974606564013225,,-0.847576797009,-1.5040602684,-0.814252471947
1554974606564677550,29,1554974606564051263,,-0.849874258041,-1.50562369823,-0.844127243142
1554974606573623541,30,1554974606573324216,,-0.852678418159,-1.50725448132,-0.875050662241
1554974606584169438,31,1554974606583700953,,-0.855080783367,-1.50853931904,-0.900638101884
1554974606593322947,32,1554974606592907718,,-0.857516407967,-1.51036918163,-0.937897016017
1554974606614016987,33,1554974606613468805,,-0.859992921352,-1.51178026199,-0.967291569979
1554974606614138736,34,1554974606613513963,,-0.864634275436,-1.51434147358,-1.03053337414
1554974606624060824,35,1554974606623769436,,-0.867133498192,-1.51551008224,-1.06228081066
1554974606633547095,36,1554974606633012672,,-0.869754910469,-1.51673936844,-1.08945270733
1554974606643936752,37,1554974606643384378,,-0.871940851212,-1.51822638512,-1.12518242277
1554974606654266155,38,1554974606653723241,,-0.874560832977,-1.51926708221,-1.15827265329
1554974606663481962,39,1554974606662941960,,-0.876969695091,-1.52052640915,-1.18696534604
1554974606663618912,40,1554974606662976325,,-0.879608094692,-1.52163338661,-1.22061229306
1554974606673543466,41,1554974606673212292,,-0.882268965244,-1.52286732197,-1.25299687607
1554974606684079652,42,1554974606683576495,,-0.885074675083,-1.52394425869,-1.28355883063
1554974606694122835,43,1554974606693828683,,-0.887947142124,-1.52500522137,-1.31272979721
1554974606703608392,44,1554974606703132068,,-0.89096570015,-1.52615940571,-1.34288515376
1554974606724363382,45,1554974606723851869,,-0.894390702248,-1.52709233761,-1.37325226339
1554974606724553890,46,1554974606723897464,,-0.900830745697,-1.52918767929,-1.43447474166
1554974606733627256,47,1554974606733121198,,-0.904286384583,-1.53018057346,-1.46426981983
1554974606743994313,48,1554974606743485677,,-0.908017575741,-1.53098630905,-1.49561216777
1554974606754400537,49,1554974606753856749,,-0.911535084248,-1.53187692165,-1.52471805801
1554974606763744925,50,1554974606763237231,,-0.91548037529,-1.53249776363,-1.55510516032
1554974606763894134,51,1554974606763273653,,-0.919488549232,-1.53331840038,-1.58174012447
1554974606773785657,52,1554974606773520696,,-0.923530042171,-1.53390800953,-1.61223828982
1554974606784360334,53,1554974606783873139,,-0.927485704422,-1.53462815285,-1.64169608049
1554974606793658631,54,1554974606793194087,,-0.931688427925,-1.53491806984,-1.67572807371
1554974606804053631,55,1554974606803543715,,-0.936146020889,-1.53548014164,-1.70085246514
1554974606823702377,56,1554974606823216889,,-0.940674424171,-1.53586626053,-1.72958003473
1554974606823869312,57,1554974606823257989,,-0.949829936028,-1.53636729717,-1.78467209065
1554974606834076851,58,1554974606833574428,,-0.954512298107,-1.53641998768,-1.81270516227
1554974606844497043,59,1554974606843950675,,-0.959228515625,-1.53677511215,-1.84146854374
1554974606853838615,60,1554974606853314118,,-0.964127182961,-1.53663492203,-1.86616918965
1554974606864256985,61,1554974606863753941,,-0.968962490559,-1.53672873974,-1.89003084055
1554974606864402859,62,1554974606863787897,,-0.973695218563,-1.53647553921,-1.9129520196
1554974606873519023,63,1554974606873007279,,-0.978400886059,-1.53622806072,-1.93763269228
1554974606883537728,64,1554974606883221625,,-0.983421683311,-1.53581130505,-1.95773615666
1554974606893852870,65,1554974606893448493,,-0.988396346569,-1.53546690941,-1.97788196382
1554974606904246899,66,1554974606903714136,,-0.993285000324,-1.5350496769,-1.99677411071
1554974606923793878,67,1554974606923268573,,-0.99819278717,-1.53451454639,-2.01493922593
1554974606923961326,68,1554974606923312106,,-1.00813305378,-1.53326237202,-2.04261458021
1554974606933700481,69,1554974606933463367,,-1.01309323311,-1.53261113167,-2.0562971272
1554974606943909878,70,1554974606943617815,,-1.01806354523,-1.53196895123,-2.06754758832
1554974606954435010,71,1554974606953901683,,-1.02302408218,-1.53119575977,-2.07918683176
1554974606963946274,72,1554974606963291785,,-1.02785015106,-1.53056550026,-2.09218158993
1554974606963957858,73,1554974606963327236,,-1.0328347683,-1.5297447443,-2.10111904921
1554974606974068621,74,1554974606973618055,,-1.03772008419,-1.529063344,-2.11098069185
1554974606984493645,75,1554974606983982569,,-1.04235339165,-1.5282407999,-2.12233559001
1554974606993801391,76,1554974606993332033,,-1.04720234871,-1.52742528915,-2.13061465897
1554974607004175452,77,1554974607003663119,,-1.05193388462,-1.52652287483,-2.14071339999
1554974607023835562,78,1554974607023343215,,-1.05657064915,-1.52573657036,-2.14954479192
1554974607024002493,79,1554974607023386521,,-1.06583416462,-1.52418041229,-2.1628959253
1554974607034220994,80,1554974607033716605,,-1.07035601139,-1.52330124378,-2.17124244395
1554974607043492557,81,1554974607042966688,,-1.07484304905,-1.52245771885,-2.17801571693
1554974607053831378,82,1554974607053328524,,-1.07947874069,-1.52151012421,-2.18266197246
1554974607064180485,83,1554974607063664304,,-1.08412790298,-1.52035927773,-2.18566182608
1554974607064345678,84,1554974607063700688,,-1.08849167824,-1.51953136921,-2.18967811419
1554974607074173814,85,1554974607073889079,,-1.09320497513,-1.5184725523,-2.1903682336
1554974607083742845,86,1554974607083240583,,-1.09792232513,-1.51715326309,-2.18825924007
1554974607093700803,87,1554974607093429362,,-1.10251772404,-1.51607811451,-2.18786539438
1554974607104270298,88,1554974607103700633,,-1.10718226433,-1.51452696323,-2.18315088124
1554974607114519145,89,1554974607113961812,,-1.11183798313,-1.51331269741,-2.18099922729
1554974607134056032,90,1554974607133553308,,-1.11666023731,-1.511890769,-2.17496236053
1554974607134202449,91,1554974607133589428,,-1.1213965416,-1.51024723053,-2.16613144741
1554974607134292042,92,1554974607133614720,,-1.12615346909,-1.50878596306,-2.15998468615
1554974607144089045,93,1554974607143824390,,-1.13092386723,-1.50733482838,-2.14817749428
1554974607153624118,94,1554974607153146950,,-1.13561677933,-1.50584459305,-2.13734103402
1554974607163768025,95,1554974607163382684,,-1.14040505886,-1.50401318073,-2.12707506647
1554974607163948108,96,1554974607163413596,,-1.14529359341,-1.50237667561,-2.1133609188
1554974607174120734,97,1554974607173653524,,-1.14968693256,-1.5008149147,-2.10781100765
1554974607184531160,98,1554974607183977758,,-1.15444326401,-1.49907279015,-2.0935416992
1554974607193792270,99,1554974607193375651,,-1.15916776657,-1.49765384197,-2.08158719224
1554974607204161212,100,1554974607203657941,,-1.16376757622,-1.49595868587,-2.06866834066
1554974607214458870,101,1554974607213975776,,-1.16851484776,-1.49458515644,-2.05486042132
1554974607234162996,102,1554974607233644803,,-1.17305219173,-1.49289405346,-2.04140344201
1554974607234342876,103,1554974607233686472,,-1.18216860294,-1.48970270157,-2.01406767099
1554974607244524108,104,1554974607244015669,,-1.18676912785,-1.48814606667,-2.00076415794
1554974607253899754,105,1554974607253375445,,-1.19108974934,-1.48657178879,-1.98778769891
1554974607264146886,106,1554974607263656592,,-1.19542860985,-1.48504793644,-1.97640500561
1554974607264318141,107,1554974607263689715,,-1.19983327389,-1.48353683949,-1.96069698813
1554974607273406001,108,1554974607272929915,,-1.2044788599,-1.48211467266,-1.94106050687
1554974607283816648,109,1554974607283294178,,-1.20867371559,-1.48067724705,-1.92655153707
1554974607294084752,110,1554974607293580235,,-1.21288752556,-1.47911953926,-1.916584585
1554974607304215357,111,1554974607303882098,,-1.21713864803,-1.47765672207,-1.90196119942
1554974607313700850,112,1554974607313184387,,-1.22136759758,-1.47621870041,-1.88492516057
1554974607334256957,113,1554974607333765511,,-1.22555649281,-1.47459340096,-1.87677336126
1554974607334458802,114,1554974607333810199,,-1.23382925987,-1.47154009342,-1.84711398534
1554974607343574411,115,1554974607343024865,,-1.23791325092,-1.47018826008,-1.83326466512
1554974607353840591,116,1554974607353350553,,-1.24187445641,-1.4687693119,-1.8247562113
1554974607364138908,117,1554974607363657772,,-1.2460552454,-1.46706473827,-1.80754440153
1554974607364343613,118,1554974607363687822,,-1.25006783009,-1.46529209614,-1.78924926339
1554974607373401454,119,1554974607372909174,,-1.25465130806,-1.46378719807,-1.77060672899
1554974607383771229,120,1554974607383289269,,-1.25870382786,-1.46210181713,-1.75243840609
1554974607394043125,121,1554974607393559626,,-1.26295375824,-1.46026599407,-1.72907962363
1554974607404378020,122,1554974607403844976,,-1.26742708683,-1.45861291885,-1.70776325837
1554974607413707030,123,1554974607413197578,,-1.27155303955,-1.45665371418,-1.68359846923
1554974607413880243,124,1554974607413236229,,-1.27604615688,-1.45476555824,-1.66178951667
1554974607434360673,125,1554974607433879670,,-1.28042030334,-1.4529607296,-1.63442065451
1554974607434502830,126,1554974607433914630,,-1.28466546535,-1.45111775398,-1.61079571749
1554974607443376618,127,1554974607443067930,,-1.28928303719,-1.44912970066,-1.58017783868
1554974607453890928,128,1554974607453349952,,-1.29393351078,-1.4474260807,-1.55079162785
1554974607464165361,129,1554974607463678469,,-1.29820120335,-1.44547939301,-1.53115086965
1554974607464348294,130,1554974607463712500,,-1.30269551277,-1.4437135458,-1.50298963509
1554974607474504533,131,1554974607474014856,,-1.30743205547,-1.44200742245,-1.47777553821
1554974607483860580,132,1554974607483380573,,-1.31212067604,-1.44002318382,-1.45113248985
1554974607494101654,133,1554974607493672281,,-1.31661391258,-1.43823730946,-1.43004541063
1554974607504565495,134,1554974607504010167,,-1.32136178017,-1.43636929989,-1.4036592936
1554974607504752160,135,1554974607504052735,,-1.32598316669,-1.43452906609,-1.38567135728
1554974607513524363,136,1554974607513259131,,-1.33072316647,-1.43271100521,-1.36373636853
1554974607534347477,137,1554974607533828798,,-1.33540868759,-1.43116164207,-1.34515347187
1554974607534528919,138,1554974607533861234,,-1.34014308453,-1.42933833599,-1.32567379935
1554974607543707449,139,1554974607543203756,,-1.34498953819,-1.42766368389,-1.30712254804
1554974607554074104,140,1554974607553502183,,-1.34976136684,-1.42598569393,-1.2897999991
1554974607564273622,141,1554974607563814579,,-1.3544113636,-1.42404747009,-1.2732944869
1554974607564500349,142,1554974607563853593,,-1.35907173157,-1.42235267162,-1.25937952424
1554974607573659676,143,1554974607573187987,,-1.36354732513,-1.42074203491,-1.24364646908
1554974607584132966,144,1554974607583569718,,-1.36821079254,-1.41904890537,-1.22852052693
1554974607594237772,145,1554974607593829283,,-1.37288665771,-1.41728317738,-1.21746356665
1554974607603621449,146,1554974607603155367,,-1.37719583511,-1.41559898853,-1.20124786178
1554974607614007767,147,1554974607613502403,,-1.38172340393,-1.41414415836,-1.1879414714
1554974607614165229,148,1554974607613536135,,-1.3862310648,-1.41248822212,-1.17239411694
1554974607644051978,149,1554974607643516154,,-1.39060854912,-1.41092395782,-1.16177006247
1554974607644232177,150,1554974607643563731,,-1.39916980267,-1.40758132935,-1.13584427075
1554974607654392010,151,1554974607653893990,,-1.40359735489,-1.40584993362,-1.12037990951
1554974607663771388,152,1554974607663188849,,-1.40763199329,-1.40419721603,-1.10915362358
1554974607663956558,153,1554974607663222146,,-1.41173326969,-1.40254151821,-1.09964078651
1554974607674029529,154,1554974607673524081,,-1.41599953175,-1.4008513689,-1.08773698126
1554974607684393540,155,1554974607683904062,,-1.42003846169,-1.39909005165,-1.07417562904
1554974607693727002,156,1554974607693260898,,-1.42416918278,-1.39754843712,-1.06039452233
1554974607704077926,157,1554974607703593052,,-1.42828941345,-1.39577531815,-1.04700311931
1554974607714406357,158,1554974607713930648,,-1.43185997009,-1.39396989346,-1.04061790567
1554974607714558059,159,1554974607713966880,,-1.43588328362,-1.3923791647,-1.02887623208
1554974607744320715,160,1554974607743788870,,-1.43961942196,-1.39084196091,-1.02076439941
1554974607744538536,161,1554974607743831998,,-1.44360637665,-1.38915038109,-1.00933509702
1554974607744651736,162,1554974607743861540,,-1.44747841358,-1.3876324892,-0.9972702228
1554974607753667945,163,1554974607753203785,,-1.45115411282,-1.38585448265,-0.989018235451
1554974607763723043,164,1554974607763398799,,-1.45518422127,-1.3843010664,-0.981359264513
1554974607763879867,165,1554974607763430829,,-1.45929384232,-1.38298499584,-0.96906308189
1554974607774233018,166,1554974607773777621,,-1.46331954002,-1.38144731522,-0.961403830664
1554974607783519405,167,1554974607783035016,,-1.46744382381,-1.3802138567,-0.950450915593
1554974607793785208,168,1554974607793299922,,-1.47167479992,-1.3788087368,-0.946052930955
1554974607804173356,169,1554974607803658313,,-1.47609674931,-1.37769961357,-0.927910389213
1554974607814473797,170,1554974607813959775,,-1.48041594028,-1.37649083138,-0.918581152896
1554974607814684209,171,1554974607813994187,,-1.48488712311,-1.3753490448,-0.908073623131
1554974607823798021,172,1554974607823290435,,-1.48937034607,-1.37433588505,-0.89740402192
1554974607844420550,173,1554974607843913325,,-1.49428641796,-1.3733124733,-0.887314676644
1554974607844628948,174,1554974607843948727,,-1.49905204773,-1.37243330479,-0.875306609859
1554974607853415751,175,1554974607853132229,,-1.50367331505,-1.3716468811,-0.860493305194
1554974607863947106,176,1554974607863433063,,-1.50886821747,-1.37063741684,-0.842299305537
1554974607864133219,177,1554974607863470525,,-1.51358509064,-1.37001562119,-0.83227113303
1554974607873878008,178,1554974607873651624,,-1.51831388474,-1.36926269531,-0.814070083743
1554974607884147981,179,1554974607883858761,,-1.52351665497,-1.36841714382,-0.798089640876
1554974607893618568,180,1554974607893160095,,-1.5284255743,-1.36788594723,-0.777571308956
1554974607904083161,181,1554974607903541166,,-1.53348219395,-1.36714732647,-0.76126964507
1554974607914344922,182,1554974607913847862,,-1.5385838747,-1.36669480801,-0.743064548286
1554974607914542768,183,1554974607913882025,,-1.54361641407,-1.36610555649,-0.718525367477
1554974607923425104,184,1554974607923070692,,-1.54903185368,-1.36561667919,-0.700499962896
1554974607944239562,185,1554974607943720669,,-1.55397212505,-1.36490404606,-0.677144831014
1554974607944426039,186,1554974607943758872,,-1.55912518501,-1.36450314522,-0.652661368053
1554974607953171574,187,1554974607952874360,,-1.56445682049,-1.36411941051,-0.629869805786
1554974607963691798,188,1554974607963166159,,-1.56978523731,-1.3638459444,-0.605370036075
1554974607963882540,189,1554974607963201998,,-1.57512104511,-1.36362361908,-0.587062032276
1554974607973751951,190,1554974607973371311,,-1.58026897907,-1.36342847347,-0.565028146222
1554974607984225879,191,1554974607983733794,,-1.58548951149,-1.36325287819,-0.547957084124
1554974607993382805,192,1554974607992896403,,-1.59091186523,-1.36335980892,-0.528019467451
1554974608003694834,193,1554974608003182244,,-1.59593904018,-1.36295056343,-0.516849535377
1554974608013965429,194,1554974608013501716,,-1.60145354271,-1.36307919025,-0.497689967357
1554974608014223908,195,1554974608013539576,,-1.60676753521,-1.36325502396,-0.486812401103
1554974608024018912,196,1554974608023757962,,-1.61199867725,-1.36345970631,-0.469835060762
1554974608054123891,197,1554974608053601257,,-1.61731910706,-1.36352276802,-0.460874210461
1554974608054281901,198,1554974608053639980,,-1.62818539143,-1.36413764954,-0.441483511929
1554974608064087528,199,1554974608063792046,,-1.63375353813,-1.36481571198,-0.430785772098
1554974608064231690,200,1554974608063820604,,-1.63919401169,-1.36525213718,-0.423087183396
1554974608073166784,201,1554974608072942458,,-1.64496123791,-1.36639761925,-0.412545714533
1554974608083762858,202,1554974608083258001,,-1.65043365955,-1.36692559719,-0.403739643726
1554974608094024112,203,1554974608093549564,,-1.65616166592,-1.36820435524,-0.399261717742
1554974608104408086,204,1554974608103868219,,-1.66186392307,-1.36894631386,-0.385588010781
1554974608113762990,205,1554974608113228954,,-1.66778826714,-1.37029767036,-0.375134419627
1554974608113921683,206,1554974608113266622,,-1.67352664471,-1.37167406082,-0.36089012823
1554974608123814019,207,1554974608123486437,,-1.67949259281,-1.37288367748,-0.354395331074
1554974608134295171,208,1554974608133821724,,-1.68545746803,-1.37460255623,-0.347629688677
1554974608153936942,209,1554974608153364355,,-1.69126868248,-1.37625157833,-0.340611597079
1554974608154093414,210,1554974608153411215,,-1.69726777077,-1.37762665749,-0.329222685467
1554974608164139154,211,1554974608163665459,,-1.70329558849,-1.37933623791,-0.320197367678
1554974608164303066,212,1554974608163700378,,-1.70915830135,-1.38100624084,-0.309815660353
1554974608174127633,213,1554974608173853218,,-1.71483790874,-1.38238525391,-0.303181107942
1554974608183664909,214,1554974608183159306,,-1.72082912922,-1.38413691521,-0.294546321601
1554974608194193238,215,1554974608193715463,,-1.72677493095,-1.38572084904,-0.28017300444
1554974608203273518,216,1554974608202887151,,-1.7322794199,-1.38740026951,-0.276467106564
1554974608213705345,217,1554974608213192363,,-1.73807156086,-1.38906431198,-0.26953905324
1554974608213889424,218,1554974608213227942,,-1.743745327,-1.39028513432,-0.264890933614
1554974608224048532,219,1554974608223525668,,-1.74930942059,-1.39203846455,-0.256167911986
1554974608234338256,220,1554974608233854983,,-1.75510418415,-1.39366745949,-0.246504407868
1554974608253919041,221,1554974608253379395,,-1.76066374779,-1.39530622959,-0.242581253889
1554974608254118048,222,1554974608253421661,,-1.76669371128,-1.39726042747,-0.230138152033
1554974608264265128,223,1554974608263673190,,-1.77215611935,-1.39887619019,-0.22456378117
1554974608264488367,224,1554974608263708993,,-1.77800261974,-1.40081119537,-0.222345519805
1554974608274430952,225,1554974608273962524,,-1.78344023228,-1.4030020237,-0.211463989116
1554974608283848918,226,1554974608283321956,,-1.78922712803,-1.40507256985,-0.203964319045
1554974608294073592,227,1554974608293629771,,-1.79507875443,-1.40747582912,-0.195946947421
1554974608304249411,228,1554974608303876841,,-1.80085122585,-1.40969741344,-0.189545701505
1554974608314035124,229,1554974608313180525,,-1.8063942194,-1.41212189198,-0.187141815423
1554974608314223808,230,1554974608313217191,,-1.81250011921,-1.41493606567,-0.180644190874
1554974608324016472,231,1554974608323461770,,-1.81816518307,-1.41770029068,-0.168077694051
1554974608334289670,232,1554974608333790250,,-1.82384622097,-1.42077195644,-0.164572877911
1554974608353735135,233,1554974608353230180,,-1.82979404926,-1.42388868332,-0.150406894059
1554974608353942138,234,1554974608353263490,,-1.83553373814,-1.42693448067,-0.148084673589
1554974608363997735,235,1554974608363498654,,-1.84152114391,-1.43037343025,-0.135000609957
1554974608364203061,236,1554974608363535374,,-1.84703159332,-1.43375551701,-0.130735164452
1554974608374396575,237,1554974608373859911,,-1.8530973196,-1.43712389469,-0.125172638971
1554974608383764095,238,1554974608383240803,,-1.85872149467,-1.44093549252,-0.113155137333
1554974608394059845,239,1554974608393561573,,-1.86439979076,-1.44473314285,-0.111117925756
1554974608404439886,240,1554974608403915852,,-1.87029147148,-1.44871771336,-0.101277526804
1554974608404621184,241,1554974608403954243,,-1.87608110905,-1.4526283741,-0.0936352138745
1554974608413834330,242,1554974608413289759,,-1.88202893734,-1.45712780952,-0.0931001110056
1554974608424075678,243,1554974608423608067,,-1.88775753975,-1.46118104458,-0.0796357340616
1554974608434474453,244,1554974608433981723,,-1.8936573267,-1.46587705612,-0.0742594151783
1554974608464414128,245,1554974608463900911,,-1.89955747128,-1.47013866901,-0.0673981977892
1554974608464592006,246,1554974608463952102,,-1.91702854633,-1.48371100426,-0.042663028513
1554974608473499269,247,1554974608473183408,,-1.92286169529,-1.48816633224,-0.037662265171
1554974608483996857,248,1554974608483530759,,-1.92851889133,-1.4928508997,-0.0261805470785
1554974608494245162,249,1554974608493818796,,-1.93419122696,-1.49710965157,-0.0196836540596
1554974608503313568,250,1554974608503008267,,-1.94024538994,-1.50171351433,-0.0155632854393
1554974608513825425,251,1554974608513353326,,-1.94577515125,-1.50616335869,-0.00594185302432
1554974608514015530,252,1554974608513435318,,-1.9515402317,-1.51055920124,-0.00333920894767
1554974608524251257,253,1554974608523745672,,-1.95712351799,-1.51495444775,0.0029131650158
1554974608533482352,254,1554974608532996568,,-1.96251106262,-1.51949930191,0.00597543641531
1554974608543791769,255,1554974608543278702,,-1.9681340456,-1.52383959293,0.0167291052824
1554974608564252463,256,1554974608563774703,,-1.97386956215,-1.52827680111,0.02121277687
1554974608564393971,257,1554974608563816801,,-1.98517012596,-1.53758561611,0.0326096170189
1554974608573173743,258,1554974608572912377,,-1.99039208889,-1.54249727726,0.0379073560574
1554974608583664375,259,1554974608583179499,,-1.99596130848,-1.54727745056,0.0440464508085
1554974608593878182,260,1554974608593441966,,-2.00148129463,-1.55251073837,0.0497180791463
1554974608603986001,261,1554974608603708181,,-2.00705480576,-1.55769014359,0.0574694756778
1554974608613481007,262,1554974608612934111,,-2.01261854172,-1.56309270859,0.0636817266125
1554974608613643425,263,1554974608612975176,,-2.01813721657,-1.56859183311,0.0704158222478
1554974608623531411,264,1554974608623221622,,-2.02321243286,-1.57407236099,0.0780369923061
1554974608633997670,265,1554974608633508415,,-2.02862238884,-1.57983005047,0.0846460051966
1554974608644332742,266,1554974608643853493,,-2.03397846222,-1.58581423759,0.0955458087303
1554974608664004181,267,1554974608663495963,,-2.03927111626,-1.59174919128,0.101668508374
1554974608664148988,268,1554974608663555150,,-2.04428958893,-1.59762537479,0.110157101992
1554974608664317171,269,1554974608663571159,,-2.04974722862,-1.60432446003,0.117677868445
1554974608674412988,270,1554974608673921111,,-2.05496573448,-1.61052894592,0.126306892531
1554974608683724750,271,1554974608683264014,,-2.05985569954,-1.61706542969,0.132453610654
1554974608694017685,272,1554974608693488592,,-2.06511330605,-1.62361252308,0.13876560268
1554974608704245824,273,1554974608703738392,,-2.07011508942,-1.63038885593,0.1491704258
1554974608713494686,274,1554974608712975836,,-2.07526063919,-1.63702213764,0.152728503115
1554974608713690130,275,1554974608713015667,,-2.08043670654,-1.64457368851,0.164332551005
1554974608723741108,276,1554974608723261361,,-2.08509159088,-1.65159773827,0.169843922178
1554974608734107941,277,1554974608733630149,,-2.09011888504,-1.6588255167,0.17869408802
1554974608744491655,278,1554974608743993348,,-2.09503149986,-1.66614246368,0.191250489504
1554974608764310717,279,1554974608763651693,,-2.0995194912,-1.6737293005,0.195538989896
1554974608764318257,280,1554974608763692013,,-2.10419511795,-1.68117296696,0.207006286613
1554974608764494713,281,1554974608763719189,,-2.10903763771,-1.68870902061,0.218866127468
1554974608773491658,282,1554974608772958872,,-2.11387705803,-1.69644141197,0.231839970935
1554974608783843015,283,1554974608783339064,,-2.11859083176,-1.70422017574,0.245214001937
1554974608794204239,284,1554974608793775207,,-2.12306022644,-1.71177899837,0.256252865691
1554974608803527909,285,1554974608803022681,,-2.12771892548,-1.71983397007,0.274786554499
1554974608814049416,286,1554974608813411090,,-2.13228917122,-1.72769916058,0.289427351274
1554974608814058877,287,1554974608813451398,,-2.13680672646,-1.73572611809,0.309052868924
1554974608823954218,288,1554974608823657355,,-2.1414167881,-1.74365627766,0.331064182184
1554974608834459186,289,1554974608833992082,,-2.14567327499,-1.75174331665,0.349488054344
1554974608843871223,290,1554974608843362450,,-2.15018343925,-1.75967156887,0.375059308165
1554974608854229724,291,1554974608853670352,,-2.15409874916,-1.76765561104,0.394284564103
1554974608873839598,292,1554974608873279867,,-2.15845942497,-1.7758295536,0.41535496302
1554974608874003840,293,1554974608873326541,,-2.16709923744,-1.79201686382,0.471625477473
1554974608883813063,294,1554974608883516095,,-2.17120242119,-1.80025613308,0.50159360704
1554974608894172355,295,1554974608893729168,,-2.17520570755,-1.80841815472,0.533609222332
1554974608904273729,296,1554974608903996536,,-2.17934751511,-1.81671583652,0.566239521008
1554974608913838346,297,1554974608913356187,,-2.18340229988,-1.82501316071,0.598879658119
1554974608913994414,298,1554974608913441995,,-2.18764567375,-1.83312273026,0.633536584554
1554974608924143170,299,1554974608923708003,,-2.19132637978,-1.8413567543,0.671178433358
1554974608933489551,300,1554974608932955487,,-2.19550323486,-1.85001373291,0.70547232808
1554974608943837682,301,1554974608943319526,,-2.19938206673,-1.8581931591,0.743871332552
1554974608954133469,302,1554974608953635371,,-2.20260858536,-1.86662089825,0.784749642976
1554974608983949261,303,1554974608983474718,,-2.206387043,-1.87528061867,0.824406939727
1554974608984163893,304,1554974608983523082,,-2.21657681465,-1.90033054352,0.949392730378
1554974608994263781,305,1554974608993808517,,-2.21972632408,-1.90873324871,0.985527363181
1554974609003678922,306,1554974609003200250,,-2.22268176079,-1.91766273975,1.02461347452
1554974609014017700,307,1554974609013503285,,-2.22544932365,-1.92597210407,1.06651085503
1554974609014189656,308,1554974609013539651,,-2.22804355621,-1.93473851681,1.10873355983
1554974609024323336,309,1554974609023820749,,-2.23051404953,-1.94335412979,1.15488291058
1554974609033709836,310,1554974609033220269,,-2.23302435875,-1.9517441988,1.19407194067
1554974609044079584,311,1554974609043585991,,-2.23525285721,-1.96041142941,1.23496899167
1554974609054465958,312,1554974609053927737,,-2.23749232292,-1.96883392334,1.27485513286
1554974609074135704,313,1554974609073583017,,-2.23972702026,-1.97736275196,1.31753194229
1554974609074321387,314,1554974609073627107,,-2.24444293976,-1.99384689331,1.39384004003
1554974609084453088,315,1554974609083970416,,-2.24639439583,-2.00214624405,1.43865294508
1554974609093701151,316,1554974609093271644,,-2.24861216545,-2.01039266586,1.4776814168
1554974609104158878,317,1554974609103637699,,-2.25078892708,-2.01839613914,1.51555466116
1554974609114434724,318,1554974609113973543,,-2.25295901299,-2.02654266357,1.55781604408
1554974609114607686,319,1554974609114010685,,-2.25524687767,-2.03447532654,1.59551091209
1554974609123429799,320,1554974609123200752,,-2.25737762451,-2.04236483574,1.62947424798
1554974609134015087,321,1554974609133544008,,-2.25940012932,-2.05032396317,1.66946448414
1554974609144420297,322,1554974609143917058,,-2.26173114777,-2.05827069283,1.70522298851
1554974609153777620,323,1554974609153267394,,-2.26362013817,-2.06600475311,1.75144536538
1554974609163786661,324,1554974609163499855,,-2.26571297646,-2.07361388206,1.79500776032
1554974609183708061,325,1554974609183229302,,-2.2679028511,-2.08124804497,1.83359279469
1554974609183872193,326,1554974609183271317,,-2.26985740662,-2.08865380287,1.87652132273
1554974609184010459,327,1554974609183298383,,-2.27185487747,-2.09624814987,1.9247449382
1554974609193950113,328,1554974609193633289,,-2.27377438545,-2.10404253006,1.97315578738
1554974609204452748,329,1554974609203928348,,-2.27557086945,-2.11119174957,2.01828090974
1554974609204611948,330,1554974609203965275,,-2.27735733986,-2.1186375618,2.07244809394
1554974609223961309,331,1554974609223436720,,-2.2791223526,-2.12591576576,2.11924868829
1554974609224122769,332,1554974609223472091,,-2.28078055382,-2.13279032707,2.16784328297
1554974609234262056,333,1554974609233773905,,-2.28291106224,-2.14026260376,2.22078724331
1554974609243571470,334,1554974609243046766,,-2.28454709053,-2.14701080322,2.28134872108
1554974609253869915,335,1554974609253376823,,-2.28619456291,-2.15424799919,2.33305055424
1554974609264208663,336,1554974609263703639,,-2.28766751289,-2.16065812111,2.39486652376
1554974609283929813,337,1554974609283298401,,-2.28940629959,-2.16795802116,2.44908484917
1554974609283934285,338,1554974609283345068,,-2.29301714897,-2.18114280701,2.57373820164
1554974609294026228,339,1554974609293585296,,-2.29455113411,-2.18787741661,2.63242155859
1554974609304435120,340,1554974609303926127,,-2.29607462883,-2.19406962395,2.7034733125
1554974609304589505,341,1554974609303961972,,-2.29777765274,-2.20059990883,2.76445297111
1554974609313480441,342,1554974609313159049,,-2.29931950569,-2.20724225044,2.83727510644
1554974609323970164,343,1554974609323489997,,-2.30077075958,-2.21327137947,2.90972979325
1554974609333962455,344,1554974609333668007,,-2.30260133743,-2.21962404251,2.97928533011
1554974609344128298,345,1554974609343855682,,-2.30452728271,-2.22576999664,3.05050418432
1554974609353633004,346,1554974609353147296,,-2.30603790283,-2.23201847076,3.12514868471
1554974609363961090,347,1554974609363440717,,-2.30765080452,-2.23811244965,-3.08080659535
1554974609403949956,348,1554974609403423387,,-2.30958986282,-2.24465513229,-3.01245471305
1554974609404124334,349,1554974609403468133,,-2.31494021416,-2.26304078102,-2.78339293564
1554974609404285559,350,1554974609403514211,,-2.31705880165,-2.26952004433,-2.71253070254
1554974609413982954,351,1554974609413717298,,-2.31873369217,-2.27607893944,-2.63539267433
1554974609414189121,352,1554974609413752581,,-2.32081055641,-2.2824947834,-2.56144615157
1554974609423222486,353,1554974609422920144,,-2.32259631157,-2.28880786896,-2.48161907463
1554974609433740147,354,1554974609433265139,,-2.32447886467,-2.29512405396,-2.40693931301
1554974609444115217,355,1554974609443611875,,-2.3262348175,-2.30152082443,-2.33087047496
1554974609454500681,356,1554974609453980207,,-2.32821774483,-2.30803608894,-2.25308168258
1554974609454670048,357,1554974609454014097,,-2.33007884026,-2.3144774437,-2.17720055528
1554974609484507298,358,1554974609483988249,,-2.33194971085,-2.32104158401,-2.09786296005
1554974609484675468,359,1554974609484033506,,-2.33542537689,-2.33365869522,-1.9430744544
1554974609504228067,360,1554974609503688445,,-2.33701968193,-2.3400657177,-1.86622453253
1554974609504448588,361,1554974609503724585,,-2.33856678009,-2.34648704529,-1.79180998014
1554974609514153266,362,1554974609513896754,,-2.34052348137,-2.35295510292,-1.71179885252
1554974609514333482,363,1554974609513934371,,-2.341558218,-2.35955882072,-1.63611526686
1554974609523620552,364,1554974609523214569,,-2.34372591972,-2.36592793465,-1.55610078016
1554974609534045892,365,1554974609533564784,,-2.3450961113,-2.37210202217,-1.48034635811
1554974609544440203,366,1554974609543926752,,-2.34668207169,-2.37838745117,-1.4026951101
1554974609553783265,367,1554974609553253563,,-2.34816932678,-2.38463521004,-1.32125450779
1554974609564106411,368,1554974609563570821,,-2.34982895851,-2.39088511467,-1.24108881831
1554974609564392905,369,1554974609563606042,,-2.35152101517,-2.39691019058,-1.16046236225
1554974609583653639,370,1554974609583148632,,-2.35324573517,-2.40314888954,-1.0747310339
1554974609583824356,371,1554974609583181854,,-2.35466361046,-2.40931558609,-0.994804754917
1554974609604211921,372,1554974609603665851,,-2.35651826859,-2.41512608528,-0.904018067277
1554974609604483975,373,1554974609603711055,,-2.35848379135,-2.42128825188,-0.815081670272
1554974609604491790,374,1554974609603745349,,-2.36002445221,-2.42737603188,-0.734292926102
1554974609614202788,375,1554974609613917716,,-2.36204266548,-2.43352103233,-0.642540410228
1554974609623754157,376,1554974609623277755,,-2.36386704445,-2.4395468235,-0.554093979677
1554974609634169850,377,1554974609633663440,,-2.36563634872,-2.4456012249,-0.461857213586
1554974609644512262,378,1554974609644052769,,-2.3677084446,-2.45175552368,-0.371197600797
1554974609653967709,379,1554974609653428603,,-2.36952781677,-2.45776414871,-0.278103561279
1554974609664232105,380,1554974609663734364,,-2.37193226814,-2.46378874779,-0.189015871784
1554974609664384811,381,1554974609663769885,,-2.37420988083,-2.46996188164,-0.0924949901596
1554974609694018249,382,1554974609693563661,,-2.37611818314,-2.47602677345,0.000107818111414
1554974609694159620,383,1554974609693604622,,-2.37972998619,-2.4883813858,0.187538388094
1554974609704159144,384,1554974609703835398,,-2.38165831566,-2.49476265907,0.286017476977
1554974609704328268,385,1554974609703857301,,-2.38375091553,-2.50086116791,0.379238035849
1554974609713380528,386,1554974609713115110,,-2.38571739197,-2.50733375549,0.475484829247
1554974609723963384,387,1554974609723454014,,-2.3873565197,-2.5135641098,0.569596726786
1554974609734337403,388,1554974609733845325,,-2.38931655884,-2.5205218792,0.66329189328
1554974609743779518,389,1554974609743247836,,-2.39105343819,-2.52691912651,0.760071680706
1554974609754152029,390,1554974609753641014,,-2.39319348335,-2.53306984901,0.840206517808
1554974609764455531,391,1554974609763944082,,-2.39444851875,-2.53991508484,0.93981114216
1554974609764636466,392,1554974609763984128,,-2.39636087418,-2.54637432098,1.02335426294
1554974609794537821,393,1554974609793944401,,-2.39750695229,-2.55258011818,1.10911216948
1554974609794738750,394,1554974609793989724,,-2.40061807632,-2.56572914124,1.27546030957
1554974609803826820,395,1554974609803286695,,-2.40164399147,-2.57189059258,1.35669415858
1554974609814114195,396,1554974609813639556,,-2.40269303322,-2.57783079147,1.42988279319
1554974609814291397,397,1554974609813672898,,-2.40389990807,-2.5839612484,1.52046643644
1554974609824509507,398,1554974609824005555,,-2.40523052216,-2.59007930756,1.59203718612
1554974609844136859,399,1554974609843628733,,-2.40731596947,-2.60269999504,1.73940187483
1554974609854429496,400,1554974609853939344,,-2.40834927559,-2.60794639587,1.80080912815
1554974609863859258,401,1554974609863351842,,-2.4093375206,-2.61420893669,1.87408731082
1554974609864018499,402,1554974609863392609,,-2.41139507294,-2.62008452415,1.94686033975
1554974609874269676,403,1554974609873765116,,-2.41162085533,-2.62572264671,2.01900358215
1554974609893821583,404,1554974609893337143,,-2.4130589962,-2.63123345375,2.08752648914
1554974609893976622,405,1554974609893375938,,-2.41434073448,-2.63763666153,2.17036793638
1554974609904295233,406,1554974609903797121,,-2.41494584084,-2.64268684387,2.22797694885
1554974609904467683,407,1554974609903833860,,-2.41737270355,-2.64819359779,2.31356481578
1554974609913324085,408,1554974609913088369,,-2.4181034565,-2.65471506119,2.39698658889
1554974609923938159,409,1554974609923413052,,-2.41919159889,-2.65935349464,2.44226817431
1554974609934286787,410,1554974609933814480,,-2.42028713226,-2.66469144821,2.52436023224
1554974609943693480,411,1554974609943199046,,-2.42188858986,-2.6707546711,2.59814263711
1554974609954050390,412,1554974609953539747,,-2.4232480526,-2.67632508278,2.67022480561
1554974609964366813,413,1554974609963870319,,-2.42425632477,-2.68143129349,2.72962079184
1554974609964549353,414,1554974609963909270,,-2.42640304565,-2.68655896187,2.79944935053
1554974609973347047,415,1554974609973102709,,-2.42882418633,-2.69112372398,2.87785210551
1554974609994093579,416,1554974609993639273,,-2.42935442924,-2.69648528099,2.92889017777
1554974609994234268,417,1554974609993677150,,-2.43091964722,-2.70106458664,2.99096144847
1554974610004150849,418,1554974610003868666,,-2.43235206604,-2.70612621307,3.05010021927
1554974610004309645,419,1554974610003902735,,-2.43396520615,-2.71055841446,3.11303938981
1554974610013350462,420,1554974610013100297,,-2.43529653549,-2.71554780006,-3.11716020083
1554974610023936786,421,1554974610023466123,,-2.4372754097,-2.72013568878,-3.06409538982
1554974610034021255,422,1554974610033720470,,-2.43871021271,-2.72445702553,-3.00880031455
1554974610043510269,423,1554974610042964720,,-2.44048118591,-2.72887372971,-2.95364439896
1554974610053890480,424,1554974610053334712,,-2.44296216965,-2.73346400261,-2.8953399592
1554974610063849082,425,1554974610063555283,,-2.44417214394,-2.73787260056,-2.84672832175
1554974610063982919,426,1554974610063587480,,-2.44631576538,-2.74182367325,-2.78075438499
1554974610074431179,427,1554974610073923797,,-2.44827032089,-2.74605512619,-2.72489787242
1554974610104353412,428,1554974610103813048,,-2.45021009445,-2.75027441978,-2.6686016586
1554974610104504323,429,1554974610103856089,,-2.45182776451,-2.75455212593,-2.60861765679
1554974610104644004,430,1554974610103882765,,-2.45405626297,-2.75849175453,-2.5444465599
1554974610104753638,431,1554974610103897688,,-2.45601677895,-2.76295495033,-2.47699602109
1554974610113316988,432,1554974610113106488,,-2.45849180222,-2.76657605171,-2.41501676249
1554974610123996241,433,1554974610123453279,,-2.46050667763,-2.77060937881,-2.35230365794
1554974610134354807,434,1554974610133859077,,-2.46223807335,-2.77486848831,-2.28853705447
1554974610143799793,435,1554974610143256421,,-2.46433448792,-2.77845907211,-2.21887835655
1554974610154149097,436,1554974610153635306,,-2.46650624275,-2.78231549263,-2.15223177752
1554974610164144289,437,1554974610163850487,,-2.46802592278,-2.78630542755,-2.08661174572
1554974610164293834,438,1554974610163884811,,-2.46988224983,-2.79060459137,-2.02274295007
1554974610173411578,439,1554974610173163028,,-2.47188615799,-2.79445099831,-1.94597748641
1554974610203976459,440,1554974610203450633,,-2.47366166115,-2.79844450951,-1.88399661184
1554974610204176899,441,1554974610203485606,,-2.47556018829,-2.80252408981,-1.81543371032
1554974610204345743,442,1554974610203513825,,-2.47848391533,-2.80606412888,-1.77020091925
1554974610213962999,443,1554974610213703204,,-2.47859621048,-2.81005358696,-1.68475859832
1554974610214142783,444,1554974610213736778,,-2.48074603081,-2.81446671486,-1.61376124553
1554974610223459136,445,1554974610222961866,,-2.4818239212,-2.81779408455,-1.55382844414
1554974610233864911,446,1554974610233342289,,-2.48401045799,-2.82251667976,-1.47388556907
1554974610244229701,447,1554974610243745767,,-2.48593831062,-2.826212883,-1.41098860515
1554974610253515543,448,1554974610252993587,,-2.48766469955,-2.82992696762,-1.34942324827
1554974610263819943,449,1554974610263330017,,-2.48931694031,-2.83402109146,-1.27382172454
1554974610264014980,450,1554974610263369869,,-2.49127793312,-2.83785367012,-1.20635096983
1554974610274134946,451,1554974610273639475,,-2.49311542511,-2.84171485901,-1.13164005483
1554974610284515173,452,1554974610284036795,,-2.49473905563,-2.84573101997,-1.0649299813
1554974610304058184,453,1554974610303555012,,-2.49720478058,-2.84931588173,-0.997948671505
1554974610304353263,454,1554974610303591173,,-2.49911856651,-2.85359239578,-0.925950812326
1554974610314302418,455,1554974610313816392,,-2.50092577934,-2.8570971489,-0.861379576394
1554974610314524238,456,1554974610313854448,,-2.50341176987,-2.86155581474,-0.789159234658
1554974610323730134,457,1554974610323238255,,-2.5055603981,-2.86578154564,-0.717146738529
1554974610334110996,458,1554974610333617642,,-2.50775790215,-2.86978197098,-0.654398073807
1554974610344438438,459,1554974610343953025,,-2.51016306877,-2.87390327454,-0.577975548559
1554974610353757019,460,1554974610353236592,,-2.51237845421,-2.87830781937,-0.498348795138
1554974610363776660,461,1554974610363453231,,-2.51487112045,-2.88247346878,-0.429867474652
1554974610363944419,462,1554974610363470692,,-2.51800131798,-2.886739254,-0.360451801714
1554974610374256234,463,1554974610373729013,,-2.51962828636,-2.8912088871,-0.282318263136
1554974610383487434,464,1554974610382985346,,-2.5228164196,-2.89542770386,-0.215625247677
1554974610404144922,465,1554974610403628740,,-2.52562880516,-2.89970469475,-0.14080052603
1554974610404298868,466,1554974610403665174,,-2.52843809128,-2.90421247482,-0.0663553925233
1554974610414099838,467,1554974610413838911,,-2.53072857857,-2.90868592262,0.00907204190035
1554974610414246753,468,1554974610413856455,,-2.53322577477,-2.91283535957,0.088296303357
1554974610423275198,469,1554974610423039053,,-2.53594517708,-2.91728758812,0.167001709328
1554974610433891523,470,1554974610433386213,,-2.53839302063,-2.92171382904,0.257993200185
1554974610444284508,471,1554974610443804260,,-2.54004836082,-2.92647194862,0.330237892047
1554974610453706187,472,1554974610453189190,,-2.54353833199,-2.93052124977,0.417443768994
1554974610464026729,473,1554974610463556825,,-2.54647183418,-2.93509721756,0.502019850095
1554974610464190959,474,1554974610463595773,,-2.5476629734,-2.93960785866,0.577056442681
1554974610474461068,475,1554974610473920667,,-2.55091381073,-2.94414567947,0.650266564161
1554974610483810332,476,1554974610483306625,,-2.5530898571,-2.95005607605,0.757899747524
1554974610504422404,477,1554974610503922915,,-2.55659103394,-2.9549767971,0.857219356349
1554974610504603792,478,1554974610503961065,,-2.55855226517,-2.95972967148,0.921841079138
1554974610513543149,479,1554974610513247400,,-2.56255340576,-2.96904611588,1.08669136233
1554974610524123029,480,1554974610523614139,,-2.56442308426,-2.97286748886,1.15050920408
1554974610534476828,481,1554974610534009063,,-2.56602835655,-2.97782301903,1.21984305613
1554974610543817854,482,1554974610543287131,,-2.56831884384,-2.98379397392,1.32949233018
1554974610554055111,483,1554974610553566845,,-2.57000803947,-2.98791003227,1.38661201193
1554974610564435345,484,1554974610563933487,,-2.5714969635,-2.9924325943,1.46755236944
1554974610564599448,485,1554974610563969267,,-2.5732254982,-2.99685692787,1.54737327452
1554974610573755012,486,1554974610573274727,,-2.57524895668,-3.00150728226,1.62410780016
1554974610584183155,487,1554974610583648221,,-2.57694172859,-3.00616931915,1.70375657032
1554974610594485372,488,1554974610593952264,,-2.57856535912,-3.0105266571,-1.62252755516
1554974610614119462,489,1554974610613609803,,-2.58046984673,-3.01525616646,-1.70481331874
1554974610644112328,490,1554974610643565073,,-2.59026646614,-3.03732419014,-2.07945368768
1554974610654454458,491,1554974610653939812,,-2.5923678875,-3.04103970528,-2.17005910189
1554974610663766297,492,1554974610663280803,,-2.59682679176,-3.04977059364,-2.31010438918
1554974610693828338,493,1554974610693314596,,-2.60267901421,-3.06252074242,-2.55920007065
1554974610723625738,494,1554974610723136619,,-2.6066300869,-3.07291197777,-2.79127498282
1554974610723865228,495,1554974610723166618,,-2.61154699326,-3.07716202736,-2.83986246238
1554974610733699996,496,1554974610733378700,,-2.61331987381,-3.08037471771,3.05731126469
1554974610744217367,497,1554974610743705603,,-2.6157078743,-3.08411741257,-2.9726315229
1554974610763805742,498,1554974610763309617,,-2.61974716187,-3.09035086632,-3.04190354615
1554974610774196442,499,1554974610773695979,,-2.62377524376,-3.0966219902,-2.94068052199
1554974610783449501,500,1554974610782953887,,-2.62632083893,-3.09958982468,-2.88444056451
1554974610793738611,501,1554974610793284410,,-2.62915802002,-3.10239338875,-2.82798681083
1554974610814387454,502,1554974610813895881,,-2.63113427162,-3.1053481102,-2.78346319216
1554974610814570595,503,1554974610813944493,,-2.63642930984,-3.11074090004,-2.67581775351
1554974610823669531,504,1554974610823181457,,-2.63845348358,-3.11306715012,-2.63216014836
1554974610833982276,505,1554974610833474267,,-2.64143776894,-3.11592078209,-2.58867427356
1554974610844292520,506,1554974610843814691,,-2.64455962181,-3.11807322502,-2.54184130547
1554974610863917127,507,1554974610863406809,,-2.64954519272,-3.12246632576,-2.4633010575
1554974610864105653,508,1554974610863443519,,-2.65268921852,-3.12472987175,-2.420985583
1554974610874332462,509,1554974610873758491,,-2.65573763847,-3.12672758102,-2.38397565153
1554974610883601862,510,1554974610883039350,,-2.65852308273,-3.12887191772,-2.34905181062
1554974610893770915,511,1554974610893331361,,-2.66203260422,-3.13083934784,-2.31570409843
1554974610914421510,512,1554974610913896367,,-2.66523480415,-3.13259673119,-2.2826062632
1554974610914599946,513,1554974610913937099,,-2.66783380508,-3.13440489769,-2.25716860129
1554974610914762602,514,1554974610913965083,,-2.67153143883,-3.13622570038,-2.2214440099
1554974610923368603,515,1554974610923137143,,-2.67550039291,-3.13832402229,-2.20178888629
1554974610933931567,516,1554974610933444174,,-2.67807197571,-3.13984751701,-2.16227374252
1554974610944308737,517,1554974610943819708,,-2.68159627914,-3.14129948616,-2.13820764679
1554974610953680569,518,1554974610953168999,,-2.68469166756,-3.1430747509,-2.11644981312
1554974610964026257,519,1554974610963507815,,-2.68839454651,-3.144292593,-2.0876937524
1554974610964192210,520,1554974610963547756,,-2.69131207466,-3.14565134048,-2.06863502451
1554974610974058928,521,1554974610973755723,,-2.69556236267,-3.14731550217,-2.04916769233
1554974610983466423,522,1554974610982994758,,-2.69903063774,-3.14860057831,-2.02611434715
1554974610993792532,523,1554974610993311252,,-2.70263171196,-3.14990186691,-2.00957259704
1554974611004105910,524,1554974611003586439,,-2.70701622963,-3.1514081955,-1.98751829939
1554974611023513490,525,1554974611023020785,,-2.71549153328,-3.15384101868,-1.97340914391
1554974611023717288,526,1554974611023058119,,-2.7186768055,-3.15495467186,-1.93749655639
1554974611033538392,527,1554974611033209919,,-2.72310352325,-3.15620923042,-1.94411835459
1554974611044068922,528,1554974611043514943,,-2.72677445412,-3.15767455101,-1.9171395201
1554974611063638202,529,1554974611063136014,,-2.73572921753,-3.15964508057,-1.89165183872
1554974611063907079,530,1554974611063170425,,-2.73962783813,-3.16079354286,-1.87602143081
1554974611073959389,531,1554974611073471691,,-2.74387764931,-3.16156220436,-1.86422389128
1554974611084341086,532,1554974611083846492,,-2.74774122238,-3.16228342056,-1.85181008904
1554974611103822700,533,1554974611103330153,,-2.75694513321,-3.16464924812,-1.81738041694
1554974611124412720,534,1554974611123879667,,-2.7615609169,-3.16564750671,-1.79148769122
1554974611124581035,535,1554974611123929955,,-2.77041625977,-3.16695713997,-1.75524263473
1554974611133414984,536,1554974611133085016,,-2.77558493614,-3.16743063927,-1.73449270214
1554974611143907783,537,1554974611143390265,,-2.77948689461,-3.16816973686,-1.7126035161
1554974611164347828,538,1554974611163934651,,-2.79599642754,-3.17095661163,1.82231581222
1554974611173782028,539,1554974611173261862,,-2.79982161522,-3.17184114456,-1.62265507985
1554974611193448640,540,1554974611192987373,,-2.81017351151,-3.17260599136,-1.59124331254
1554974611203708145,541,1554974611203198804,,-2.81498861313,-3.1730697155,-1.56988046723
1554974611224258677,542,1554974611223746013,,-2.82062792778,-3.17438006401,-1.55194117582
1554974611224411470,543,1554974611223779695,,-2.83062267303,-3.17488121986,-1.53030629345
1554974611233194521,544,1554974611232876637,,-2.8368062973,-3.17561578751,-1.51628825563
1554974611274572176,545,1554974611274019182,,-2.86379003525,-3.1776804924,-1.47395324947
1554974611283840881,546,1554974611283313589,,-2.86932420731,-3.17934012413,-1.43571844751
1554974611294050490,547,1554974611293571843,,-2.87453961372,-3.18011713028,-1.43351024142
1554974611323663770,548,1554974611323181452,,-2.89424586296,-3.182035923,-1.38652262749
1554974611333963802,549,1554974611333466016,,-2.90026473999,-3.18151307106,-1.3743454094
1554974611344302599,550,1554974611343800883,,-2.90519738197,-3.18212008476,-1.37436563472
1554974611353679361,551,1554974611353120518,,-2.91056251526,-3.18248224258,-1.37651882732
1554974611363948028,552,1554974611363439353,,-2.91506004333,-3.18236732483,-1.36136194126
1554974611374297114,553,1554974611373781351,,-2.92656898499,-3.1829893589,-1.36125446349
1554974611383602844,554,1554974611383106948,,-2.93062376976,-3.18356442451,-1.35170263175
1554974611393871777,555,1554974611393436435,,-2.93599224091,-3.18388175964,-1.34637535554
1554974611404291182,556,1554974611403810761,,-2.94152712822,-3.18435549736,-1.35079237906
1554974611434151809,557,1554974611433646179,,-2.95200634003,-3.18470239639,-1.34905421587
1554974611464217900,558,1554974611463726185,,-2.98070764542,-3.18601322174,-1.39859691719
1554974611464490942,559,1554974611463765171,,-2.98535299301,-3.18632555008,-1.40038996995
1554974611473508439,560,1554974611473004552,,-2.99052262306,-3.18471956253,-1.41823832501
1554974611483870191,561,1554974611483369644,,-2.99672293663,-3.18595027924,-1.42997597018
1554974611494024927,562,1554974611493601660,,-3.00200128555,-3.18528485298,-1.4539252471
1554974611543772191,563,1554974611543237402,,-3.03781247139,-3.18611931801,-1.57431177077
1554974611553978970,564,1554974611553505087,,-3.04407000542,-3.18584227562,-1.59552461142
1554974611564361033,565,1554974611563878809,,-3.05094385147,-3.1858458519,-1.6238267306
1554974611564544212,566,1554974611563913618,,-3.05722236633,-3.18596243858,-1.64980068886
1554974611573734812,567,1554974611573214050,,-3.06284809113,-3.18471765518,-1.6844724084
1554974611584047947,568,1554974611583539517,,-3.07003569603,-3.1854121685,-1.71011130095
1554974611594225961,569,1554974611593758272,,-3.07515740395,-3.18457007408,-1.72404784468
1554974611613765804,570,1554974611613229702,,-3.08884978294,-3.18312501907,-1.77806942072
1554974611634349706,571,1554974611633854695,,-3.095962286,-3.1830508709,-1.8057071199
1554974611634532154,572,1554974611633900291,,-3.10978531837,-3.1811850071,-1.85838864083
1554974611643743661,573,1554974611643206614,,-3.11683773994,-3.18050312996,-1.87810612923
1554974611654109713,574,1554974611653535921,,-3.12392044067,-3.17942047119,-1.90418037294
1554974611664380912,575,1554974611663863166,,-3.13078808784,-3.17828607559,-1.92861871561
1554974611664535341,576,1554974611663933624,,-3.13874292374,-3.17690324783,-1.97244021138
1554974611673684487,577,1554974611673181933,,-3.14527368546,-3.17559027672,-1.97916094459
1554974611684096981,578,1554974611683560076,,-3.15220665932,-3.17417526245,-1.99868000784
1554974611694281540,579,1554974611693841061,,-3.15970373154,-3.1728117466,-2.01719472813
1554974611703630787,580,1554974611703131901,,-3.16736483574,-3.17137694359,-2.02968550133
1554974611714040437,581,1554974611713529303,,-3.17472410202,-3.17001247406,-2.04534990183
1554974611724432552,582,1554974611723893927,,-3.18122458458,-3.16826152802,-2.06123441452
1554974611733735507,583,1554974611733214062,,-3.18922638893,-3.16696310043,-2.07017720721
1554974611733926881,584,1554974611733253962,,-3.19660353661,-3.16497612,-2.07897861505
1554974611744085006,585,1554974611743618164,,-3.20464658737,-3.16332244873,-2.10459543368
1554974611754464291,586,1554974611753939836,,-3.21164083481,-3.16132712364,-2.1067209711
1554974611763772419,587,1554974611763265376,,-3.22614312172,-3.15707492828,-2.13713535389
1554974611784440247,588,1554974611783966228,,-3.24197387695,-3.15248584747,-2.14804167117
1554974611804116517,589,1554974611803580460,,-3.25765371323,-3.14717960358,-2.1563604053
1554974611814423253,590,1554974611813917247,,-3.26507425308,-3.14461064339,-2.17165783263
1554974611814577403,591,1554974611813953413,,-3.27225351334,-3.14151549339,-2.18628491353
1554974611843811861,592,1554974611843505987,,-3.28921222687,-3.13601446152,-2.20139664747
1554974611854366582,593,1554974611853839498,,-3.30523324013,-3.12949419022,-2.21285757925
1554974611854544775,594,1554974611853875847,,-3.31358551979,-3.12623596191,-2.21880778656
1554974611863330311,595,1554974611863041356,,-3.32151722908,-3.12255477905,-2.2303838518
1554974611873799136,596,1554974611873296203,,-3.33024692535,-3.11928272247,-2.23978201136
1554974611884149481,597,1554974611883667207,,-3.33850121498,-3.11540579796,-2.2483068432
1554974611903605633,598,1554974611903093476,,-3.35492444038,-3.10764241219,-2.264931415
1554974611913912059,599,1554974611913428340,,-3.36357021332,-3.10348796844,-2.26809062208
1554974611943843917,600,1554974611943313852,,-3.38070225716,-3.09470486641,-2.28273303503
1554974611944013333,601,1554974611943351655,,-3.39772367477,-3.0858643055,-2.29923208145
1554974611964498149,602,1554974611964007538,,-3.41571259499,-3.07686376572,-2.29832264183
1554974611973898480,603,1554974611973415818,,-3.43301224709,-3.06762814522,-2.29873331298
1554974612014039223,604,1554974612013554601,,-3.46818113327,-3.04768657684,-2.29203481742
1554974612043901726,605,1554974612043407070,,-3.50368595123,-3.02711009979,-2.26079273735
1554974612054176440,606,1554974612053702853,,-3.52147746086,-3.01651024818,-2.23756005808
1554974612073754860,607,1554974612073279004,,-3.53886723518,-3.00617384911,-2.20684018586
1554974612094397199,608,1554974612093938511,,-3.5561068058,-2.9957678318,-2.18664786632
1554974612103751497,609,1554974612103268520,,-3.56481981277,-2.99073958397,-2.16777188907
1554974612144084664,610,1554974612143565149,,-3.59862494469,-2.97012090683,-2.11613519205
1554974612163554269,611,1554974612163090539,,-3.62363243103,-2.95518827438,-2.07650417565
1554974612173904113,612,1554974612173423453,,-3.63934278488,-2.94506788254,-2.04730863375
1554974612214164424,613,1554974612213685990,,-3.67098999023,-2.9246275425,-1.98462838013
1554974612214299605,614,1554974612213723380,,-3.67833948135,-2.91915225983,-1.99205402313
1554974612254300860,615,1554974612253804398,,-3.70134568214,-2.90443396568,-1.95145848682
1554974612254473408,616,1554974612253843059,,-3.71003723145,-2.89967799187,-1.91505952573
1554974612263218719,617,1554974612262996649,,-3.72498178482,-2.89045405388,-1.89507288782
1554974612313856466,618,1554974612313379520,,-3.77148723602,-2.86027812958,-1.85406778781
1554974612354143714,619,1554974612353607216,,-3.79500389099,-2.84523892403,-1.84770438942
1554974612373768410,620,1554974612373260715,,-3.82539844513,-2.82426786423,-1.85979267553
1554974612413897079,621,1554974612413418003,,-3.86450624466,-2.79984498024,-1.86178604338
1554974612424301022,622,1554974612423798297,,-3.87191295624,-2.79507255554,-1.85727154884
1554974612454110482,623,1554974612453586999,,-3.8867559433,-2.78540039062,-1.86650633486
1554974612464459188,624,1554974612463977896,,-3.90098285675,-2.77589726448,-1.87187322117
1554974612554063682,625,1554974612553566354,,-3.97081780434,-2.7276301384,-1.9038180358
1554974612573772113,626,1554974612573246582,,-3.99873518944,-2.70895695686,-1.90873976321
1554974612603437052,627,1554974612602974144,,-4.01965522766,-2.69535088539,-1.94022153004
1554974612624138491,628,1554974612623625591,,-4.04072380066,-2.68140435219,-1.9737992803
1554974612713790257,629,1554974612713288887,,-4.12101888657,-2.62692475319,-2.21503040058
1554974612734450640,630,1554974612733963549,,-4.13632154465,-2.61705064774,-2.26846887459
1554974612814482137,631,1554974612813993283,,-4.20993804932,-2.5665705204,-2.57819977553
1554974612864148672,632,1554974612863640241,,-4.23822402954,-2.54718399048,-2.7047972305
1554974612864301703,633,1554974612863676757,,-4.2531747818,-2.53689932823,-2.76333074572
1554974612904265527,634,1554974612903750539,,-4.28743219376,-2.51126551628,-2.94862506187
1554974612993619475,635,1554974612993145504,,-4.35349845886,-2.45739579201,2.90881819359
1554974613044145228,636,1554974613043650722,,-4.39036083221,-2.42450761795,2.69753085611
1554974613063753877,637,1554974613063241505,,-4.39610910416,-2.41899895668,2.67005520853
1554974613103769948,638,1554974613103229441,,-4.42842054367,-2.3853161335,2.53194866481
1554974613114025856,639,1554974613113561564,,-4.43357753754,-2.37905812263,2.51846907439
1554974613124949302,640,1554974613123861964,,-4.44412755966,-2.36741638184,2.5040516946
1554974613133795537,641,1554974613133274827,,-4.4481844902,-2.36166572571,2.47138436567
1554974613154492105,642,1554974613153895980,,-4.45748138428,-2.34979581833,2.4557151847
1554974613174092390,643,1554974613173537368,,-4.46216726303,-2.34415507317,2.44066583649
1554974613174272925,644,1554974613173573679,,-4.47055578232,-2.33267831802,2.42448313183
1554974613184275126,645,1554974613183823514,,-4.47423791885,-2.32485246658,2.44955686596
1554974613203972957,646,1554974613203464045,,-4.48300361633,-2.31505656242,2.4209724145
1554974613214333975,647,1554974613213843659,,-4.49047756195,-2.30271792412,2.42835000513
1554974613234024395,648,1554974613233526118,,-4.49787378311,-2.29076147079,2.44525006667
1554974613244405777,649,1554974613243917959,,-4.50121688843,-2.28554725647,2.44026206015
1554974613253798660,650,1554974613253281503,,-4.50507068634,-2.27944469452,2.45824427139
1554974613274501138,651,1554974613273992201,,-4.50802564621,-2.27295923233,2.468485326
1554974613283815557,652,1554974613283318738,,-4.51752996445,-2.25501203537,2.50911447641
1554974613313741126,653,1554974613313216742,,-4.52879571915,-2.23019576073,2.58218754183
1554974613324023945,654,1554974613323517333,,-4.53132820129,-2.22446846962,2.60728262872
1554974613373541351,655,1554974613372993338,,-4.54132652283,-2.19941306114,2.70565787151
1554974613383773425,656,1554974613383308366,,-4.54804086685,-2.18241763115,2.78922143999
1554974613404384496,657,1554974613403863996,,-4.55329561234,-2.16997265816,2.85106858388
1554974613404567764,658,1554974613403896780,,-4.5561003685,-2.16372227669,2.8716132306
1554974613423927728,659,1554974613423444454,,-4.56057786942,-2.15211486816,2.93533218511
1554974613443488730,660,1554974613442979583,,-4.56442594528,-2.13982844353,2.99486101828
1554974613584440798,661,1554974613583975344,,-4.60343837738,-2.04649949074,-2.92003337765
1554974613604176147,662,1554974613603634565,,-4.60884046555,-2.02703905106,-2.88954774908
1554974613683392744,663,1554974613682921390,,-4.62989187241,-1.96896278858,-2.85096467615
1554974613754485921,664,1554974613753970919,,-4.65295362473,-1.90524721146,-2.82346862001
1554974614503437831,665,1554974614502904382,,-4.92051935196,-1.19944310188,-2.35197022024
1554974614503448750,666,1554974614502934527,,-4.92452859879,-1.19049727917,2.47286908744
1554974614523977998,667,1554974614523460843,,-4.93794441223,-1.15747129917,2.37059475975
