%time,field.header.seq,field.header.stamp,field.header.frame_id,field.point.x,field.point.y,field.point.z
1555407358348595801,1,1555407358348154226,,-2.60635495186,-1.27946519852,2.40576832525
1555407358358990608,2,1555407358358524356,,-2.60450649261,-1.28120696545,2.31958485594
1555407358369352077,3,1555407358368889273,,-2.60314941406,-1.2821341753,2.22226060896
1555407358378838796,4,1555407358378276815,,-2.60107398033,-1.28372049332,2.14456338518
1555407358378850610,5,1555407358378312559,,-2.59994578362,-1.28440129757,2.05669197741
1555407358388712599,6,1555407358388484886,,-2.59824681282,-1.28602290154,1.95781525355
1555407358398989562,7,1555407358398678831,,-2.5973675251,-1.28549480438,1.87410724265
1555407358409492407,8,1555407358409004608,,-2.59561014175,-1.28737592697,1.77453012374
1555407358418858680,9,1555407358418387838,,-2.59423995018,-1.28768920898,1.6791030653
1555407358429372787,10,1555407358428748692,,-2.59316849709,-1.28826773167,1.58151793989
1555407358429384918,11,1555407358428786772,,-2.59141635895,-1.28903388977,1.47861889902
1555407358439168946,12,1555407358438958834,,-2.5901119709,-1.28871881962,1.38106378883
1555407358448352189,13,1555407358448130948,,-2.58853626251,-1.28939497471,1.28290956747
1555407358458643539,14,1555407358458368295,,-2.58762216568,-1.2894102335,1.18900542715
1555407358469153310,15,1555407358468687398,,-2.58551812172,-1.28970050812,1.08006614444
1555407358479563295,16,1555407358479053765,,-2.58449459076,-1.28968274593,0.985346700457
1555407358479728264,17,1555407358479091410,,-2.58270359039,-1.28941202164,0.875295723929
1555407358488860720,18,1555407358488388260,,-2.58085465431,-1.2894102335,0.769226419714
1555407358499247019,19,1555407358498766261,,-2.57866001129,-1.28985929489,0.679782190026
1555407358508501678,20,1555407358508028787,,-2.57740449905,-1.29009079933,0.575397731675
1555407358518818115,21,1555407358518349427,,-2.57567429543,-1.28963625431,0.485920038207
1555407358529226355,22,1555407358528709900,,-2.57276844978,-1.28974318504,0.384801020624
1555407358529388165,23,1555407358528749166,,-2.57155013084,-1.28923583031,0.285701665609
1555407358539586602,24,1555407358539088453,,-2.56891536713,-1.28953385353,0.184268913945
1555407358548947720,25,1555407358548458471,,-2.56688308716,-1.28959071636,0.0848602690212
1555407358559503420,26,1555407358558811166,,-2.56515407562,-1.28980445862,-0.00513668456057
1555407358568378553,27,1555407358568051962,,-2.56251049042,-1.29032981396,-0.104366232987
1555407358578861224,28,1555407358578371826,,-2.5599322319,-1.2902148962,-0.210052176157
1555407358578987477,29,1555407358578406188,,-2.55753135681,-1.2910592556,-0.290612833448
1555407358588828112,30,1555407358588597239,,-2.55490922928,-1.29105782509,-0.389176078041
1555407358608726201,31,1555407358608240340,,-2.55277132988,-1.29256701469,-0.473866887401
1555407358608872297,32,1555407358608275851,,-2.54946184158,-1.2922513485,-0.574456464737
1555407358618664131,33,1555407358618447665,,-2.5460793972,-1.29366397858,-0.656547375271
1555407358629435146,34,1555407358628813400,,-2.54419374466,-1.29498672485,-0.728108348116
1555407358629448140,35,1555407358628851645,,-2.54213762283,-1.29635763168,-0.809903513068
1555407358638171072,36,1555407358637970935,,-2.53901267052,-1.29784035683,-0.891759376335
1555407358648767695,37,1555407358648282251,,-2.53573846817,-1.29923725128,-0.968553213813
1555407358659111822,38,1555407358658625324,,-2.53323221207,-1.30095946789,-1.0494935464
1555407358669462480,39,1555407358668993805,,-2.53126811981,-1.30311286449,-1.10700313477
1555407358678798962,40,1555407358678320955,,-2.52870607376,-1.3052084446,-1.17273087721
1555407358678905671,41,1555407358678355111,,-2.52594923973,-1.30685281754,-1.24376181098
1555407358688764475,42,1555407358688547711,,-2.5228843689,-1.30933058262,-1.31634939491
1555407358699353598,43,1555407358698814554,,-2.52037405968,-1.31165754795,-1.37344396776
1555407358708524537,44,1555407358708046545,,-2.51786184311,-1.31417405605,-1.4319529316
1555407358718832453,45,1555407358718336583,,-2.51524996758,-1.31722533703,-1.49427989015
1555407358729091235,46,1555407358728587276,,-2.51268076897,-1.32026815414,-1.55055521644
1555407358739418520,47,1555407358738930733,,-2.51083374023,-1.32289791107,-1.60466367979
1555407358739608301,48,1555407358738969094,,-2.50843143463,-1.32597005367,-1.658720051
1555407358748772506,49,1555407358748283637,,-2.50546884537,-1.32891857624,-1.71627390568
1555407358759103366,50,1555407358758618518,,-2.50369334221,-1.33238685131,-1.75982325476
1555407358769448818,51,1555407358768957753,,-2.50261926651,-1.33569049835,-1.80602235146
1555407358778828174,52,1555407358778351363,,-2.50025677681,-1.3388081789,-1.86703271938
1555407358778924342,53,1555407358778385633,,-2.49886202812,-1.34284305573,-1.89986488325
1555407358789140329,54,1555407358788684042,,-2.49692606926,-1.34694170952,-1.95207435082
1555407358799509504,55,1555407358799020536,,-2.49540233612,-1.35094690323,-2.01411809733
1555407358808849772,56,1555407358808362626,,-2.49370741844,-1.35532617569,-2.05236251993
1555407358819116870,57,1555407358818646715,,-2.49313688278,-1.35933375359,-2.1021382055
1555407358829426141,58,1555407358828925460,,-2.49173140526,-1.36397922039,-2.1540803524
1555407358849061444,59,1555407358848557556,,-2.49168300629,-1.36800861359,-2.19564764451
1555407358849216383,60,1555407358848605718,,-2.48983716965,-1.3770673275,-2.29366902166
1555407358859011220,61,1555407358858763389,,-2.48957276344,-1.38145303726,-2.34261001567
1555407358869585742,62,1555407358869073362,,-2.48990988731,-1.38611471653,-2.38986058774
1555407358878937589,63,1555407358878447293,,-2.48950886726,-1.39117145538,-2.43159165159
1555407358879125317,64,1555407358878482729,,-2.48989963531,-1.39529716969,-2.45882599551
1555407358889242742,65,1555407358888782566,,-2.49025273323,-1.40027725697,-2.50689365586
1555407358898509552,66,1555407358898024478,,-2.49022197723,-1.40497946739,-2.5450660581
1555407358908895457,67,1555407358908395259,,-2.4910633564,-1.40934550762,-2.5695307486
1555407358919207664,68,1555407358918732166,,-2.49132847786,-1.41425251961,-2.61804992106
1555407358929515302,69,1555407358929016164,,-2.49170255661,-1.41912186146,-2.64875880326
1555407358929645818,70,1555407358929051010,,-2.49247384071,-1.42324531078,-2.6780719574
1555407358948967343,71,1555407358948455491,,-2.49406003952,-1.42894363403,-2.7187582536
1555407358949059779,72,1555407358948491394,,-2.49513912201,-1.43326735497,-2.74925293908
1555407358958944090,73,1555407358958645088,,-2.49600505829,-1.43761444092,-2.77368726867
1555407358969498164,74,1555407358968993191,,-2.49783015251,-1.44206905365,-2.79788328957
1555407358978940566,75,1555407358978434260,,-2.49863004684,-1.44711732864,-2.8394166574
1555407358979034079,76,1555407358978468612,,-2.49966526031,-1.45129370689,-2.8547448402
1555407358988861913,77,1555407358988624745,,-2.50157976151,-1.4557993412,-2.8937058772
1555407358999432928,78,1555407358998969370,,-2.50292944908,-1.45984065533,-2.90419475322
1555407359008814523,79,1555407359008337423,,-2.50339341164,-1.46475815773,-2.93095797197
1555407359019063846,80,1555407359018596084,,-2.50535035133,-1.46900701523,-2.97482959476
1555407359029399304,81,1555407359028904641,,-2.50638222694,-1.47334480286,-2.988982955
1555407359029590352,82,1555407359028940429,,-2.5084002018,-1.47755813599,-3.02501378892
1555407359059351940,83,1555407359058838746,,-2.50931024551,-1.48183763027,-3.04920647985
1555407359059514008,84,1555407359058883474,,-2.51238822937,-1.4904845953,-3.09929424147
1555407359068183394,85,1555407359067987383,,-2.51484632492,-1.49474072456,-3.12103500807
1555407359078454975,86,1555407359078174687,,-2.51639986038,-1.49893307686,3.12002581621
1555407359088972319,87,1555407359088485906,,-2.51883459091,-1.50277304649,3.07870032714
1555407359089118916,88,1555407359088523476,,-2.52033352852,-1.50733745098,3.04100944729
1555407359099350812,89,1555407359098871492,,-2.52222418785,-1.51180803776,3.00582236373
1555407359108518075,90,1555407359108041677,,-2.52370595932,-1.51534855366,2.94715929664
1555407359118840102,91,1555407359118363119,,-2.52649235725,-1.51967978477,2.92053995984
1555407359129227665,92,1555407359128737710,,-2.52841854095,-1.52326071262,2.85571961488
1555407359129377252,93,1555407359128772214,,-2.53128433228,-1.52779877186,2.82102245446
1555407359159221805,94,1555407359158735293,,-2.53376126289,-1.53193092346,2.76862943927
1555407359159366677,95,1555407359158779164,,-2.53815984726,-1.5394423008,2.69271091819
1555407359169360079,96,1555407359169012649,,-2.54106760025,-1.54373931885,2.63441181412
1555407359178861227,97,1555407359178373248,,-2.54434657097,-1.54688417912,2.58648246661
1555407359178985605,98,1555407359178407884,,-2.54656863213,-1.55099141598,2.52023706324
1555407359188791792,99,1555407359188564870,,-2.54941892624,-1.55514204502,2.48009713645
1555407359199153027,100,1555407359198769410,,-2.55188894272,-1.55888962746,2.42213099823
1555407359209403445,101,1555407359208976360,,-2.55452823639,-1.56187534332,2.37257506288
1555407359218960644,102,1555407359218193268,,-2.55707454681,-1.56596636772,2.32378621637
1555407359229388420,103,1555407359228762780,,-2.55973386765,-1.56955695152,2.26902417668
1555407359229399830,104,1555407359228798171,,-2.56147122383,-1.57231676579,2.22977827015
1555407359239448945,105,1555407359239050902,,-2.56513595581,-1.57605242729,2.16483507584
1555407359259218047,106,1555407359258713506,,-2.56809520721,-1.57964885235,2.11383381193
1555407359259368329,107,1555407359258747910,,-2.5704574585,-1.58333981037,2.06300916546
1555407359309477840,108,1555407359308999465,,-2.5859913826,-1.6032333374,1.75509052979
1555407359318838354,109,1555407359318368734,,-2.5882935524,-1.60616099834,1.70165644039
1555407359329245390,110,1555407359328729109,,-2.59134626389,-1.61004710197,1.63839797911
1555407359329435340,111,1555407359328772637,,-2.59300899506,-1.61270654202,1.5924253068
1555407359338500880,112,1555407359337994353,,-2.59587669373,-1.61632049084,1.54565028594
1555407359359148480,113,1555407359358666962,,-2.59883356094,-1.61952853203,1.48313400202
1555407359359337026,114,1555407359358704298,,-2.60113716125,-1.62258088589,1.4366324207
1555407359369509214,115,1555407359369038375,,-2.60321950912,-1.62538814545,1.38508972782
1555407359378846303,116,1555407359378398266,,-2.6057164669,-1.62819099426,1.32998153164
1555407359408963455,117,1555407359408450848,,-2.61496353149,-1.6354688406,1.09804452375
1555407359419355337,118,1555407359418906248,,-2.61591863632,-1.63918828964,1.05408428474
1555407359428702938,119,1555407359428221500,,-2.61826825142,-1.64043986797,1.01341324538
1555407359428838893,120,1555407359428257646,,-2.61939358711,-1.64211809635,0.952116871567
1555407359469217342,121,1555407359468959029,,-2.62255620956,-1.64610552788,0.825373497442
1555407359478804360,122,1555407359478309531,,-2.62631678581,-1.64915525913,0.700532193919
1555407359478939519,123,1555407359478346100,,-2.62645721436,-1.65067493916,0.664592367896
1555407359488816316,124,1555407359488541086,,-2.62816810608,-1.65241277218,0.613338724232
1555407359508485512,125,1555407359508028631,,-2.62937855721,-1.65317940712,0.552832448713
1555407359508622873,126,1555407359508065582,,-2.63054513931,-1.65487802029,0.517384815885
1555407359518491421,127,1555407359518234364,,-2.63106584549,-1.65540039539,0.467913805206
1555407359528671150,128,1555407359528405074,,-2.63164114952,-1.65685236454,0.416620954479
1555407359528827679,129,1555407359528433499,,-2.63383412361,-1.65979218483,0.383329499901
1555407359538872130,130,1555407359538647202,,-2.63306522369,-1.6597776413,0.311428537418
1555407359568903989,131,1555407359568431025,,-2.63461208344,-1.6609044075,0.291046655481
1555407359569089130,132,1555407359568477393,,-2.63594222069,-1.66369473934,0.179298070068
1555407359579001883,133,1555407359578670980,,-2.63674712181,-1.66530108452,0.141700798341
1555407359579137104,134,1555407359578688536,,-2.63797020912,-1.66702699661,0.0959499553437
1555407359589076229,135,1555407359588841144,,-2.63783955574,-1.66709268093,0.0325619445924
1555407359608972274,136,1555407359608293399,,-2.63783669472,-1.66848552227,-0.0280095544766
1555407359608979504,137,1555407359608329604,,-2.63802742958,-1.66949081421,-0.0963178703341
1555407359618724679,138,1555407359618498314,,-2.6384704113,-1.67105090618,-0.142696592385
1555407359628940069,139,1555407359628672061,,-2.63824391365,-1.67228186131,-0.206326952414
1555407359629089680,140,1555407359628708911,,-2.63901209831,-1.67336964607,-0.276544320433
1555407359639186852,141,1555407359638888218,,-2.63815259933,-1.67589771748,-0.314638048499
1555407359648733675,142,1555407359648258249,,-2.63801431656,-1.67637777328,-0.404425188895
1555407359669428927,143,1555407359668931174,,-2.63744306564,-1.67758131027,-0.460440797765
1555407359669629589,144,1555407359668968018,,-2.63645410538,-1.67859041691,-0.537382072146
1555407359678460813,145,1555407359678161467,,-2.63631272316,-1.68054771423,-0.601284185187
1555407359678605925,146,1555407359678178894,,-2.6368689537,-1.68251848221,-0.671297802899
1555407359688640203,147,1555407359688330290,,-2.63605952263,-1.6840493679,-0.747041733578
1555407359698973588,148,1555407359698569906,,-2.6364338398,-1.68591439724,-0.799987105698
1555407359709358533,149,1555407359708900373,,-2.63465261459,-1.68758237362,-0.871967230658
1555407359718717561,150,1555407359718232614,,-2.63507509232,-1.68937814236,-0.939185630977
1555407359729093489,151,1555407359728609933,,-2.63608407974,-1.69206368923,-1.00032548407
1555407359729271465,152,1555407359728647000,,-2.63502883911,-1.69364619255,-1.05570190918
1555407359739433016,153,1555407359738948148,,-2.63471364975,-1.69494926929,-1.13570440783
1555407359748741605,154,1555407359748280462,,-2.63508939743,-1.69772517681,-1.18911328807
1555407359769303901,155,1555407359768833216,,-2.63410115242,-1.69968271255,-1.25393243265
1555407359769493299,156,1555407359768866612,,-2.63326048851,-1.70151746273,-1.33594937417
1555407359778296897,157,1555407359778015423,,-2.63403940201,-1.70392489433,-1.40098368305
1555407359778445361,158,1555407359778054727,,-2.63466238976,-1.70648229122,-1.44740172762
1555407359788522210,159,1555407359788246646,,-2.63442134857,-1.70955431461,-1.51281435091
1555407359799015179,160,1555407359798545333,,-2.63219618797,-1.71300160885,-1.59615330045
1555407359809281087,161,1555407359808814902,,-2.63303232193,-1.71414959431,-1.63044805683
1555407359818533655,162,1555407359818053653,,-2.63325238228,-1.71783018112,-1.69514559156
1555407359828914105,163,1555407359828412491,,-2.63403367996,-1.71974778175,-1.7295883466
1555407359829074882,164,1555407359828450092,,-2.63472342491,-1.72287869453,-1.76687127279
1555407359839211622,165,1555407359838748699,,-2.63430356979,-1.7261941433,-1.81918910129
1555407359848443437,166,1555407359848006742,,-2.63473749161,-1.72899782658,-1.85770164267
1555407359879406822,167,1555407359878908337,,-2.63561224937,-1.73293948174,-1.92452773271
1555407359879612216,168,1555407359878965121,,-2.6383638382,-1.74343645573,-2.04389853392
1555407359888429875,169,1555407359888196689,,-2.63925814629,-1.74735558033,-2.09328220058
1555407359898676593,170,1555407359898386590,,-2.64045333862,-1.75214982033,-2.1249360292
1555407359909094207,171,1555407359908631372,,-2.64166903496,-1.75534594059,-2.17029367482
1555407359919420301,172,1555407359918966085,,-2.64234042168,-1.76019597054,-2.23389211237
1555407359928777576,173,1555407359928311182,,-2.64453339577,-1.76384544373,-2.26192571894
1555407359928934857,174,1555407359928346993,,-2.64605212212,-1.76801073551,-2.30817769387
1555407359948963487,175,1555407359948712636,,-2.64774847031,-1.77390730381,-2.33900948249
1555407359949108165,176,1555407359948748604,,-2.649777174,-1.77837455273,-2.40755854879
1555407359959256571,177,1555407359958972532,,-2.65155482292,-1.78312802315,-2.45105995627
1555407359979078907,178,1555407359978586976,,-2.65341091156,-1.7875944376,-2.49917681733
1555407359979242559,179,1555407359978625254,,-2.65678048134,-1.79256165028,-2.52585474029
1555407359989333422,180,1555407359988882704,,-2.65987205505,-1.79739737511,-2.56530104226
1555407359989511328,181,1555407359988919261,,-2.66272854805,-1.80142772198,-2.61431823019
1555407359998707876,182,1555407359998233282,,-2.6651904583,-1.80673062801,-2.65321257551
1555407360009021097,183,1555407360008539247,,-2.66689372063,-1.81118941307,-2.69737389441
1555407360019337541,184,1555407360018867686,,-2.67193365097,-1.81704115868,-2.74697773289
1555407360028708639,185,1555407360028186026,,-2.67541527748,-1.82203936577,-2.78654531744
1555407360039048603,186,1555407360038570376,,-2.67922306061,-1.82651007175,-2.8139961145
1555407360049170581,187,1555407360048853745,,-2.68292140961,-1.83227610588,-2.88493504927
1555407360049338456,188,1555407360048871169,,-2.68800234795,-1.83760893345,-2.94004431094
1555407360058351791,189,1555407360058006446,,-2.69291567802,-1.84253144264,-2.9737460696
1555407360079215351,190,1555407360078691576,,-2.69694423676,-1.84765052795,-3.02050272398
1555407360079366288,191,1555407360078730771,,-2.70213985443,-1.85272955894,-3.07349702508
1555407360089231456,192,1555407360088923347,,-2.70578455925,-1.85716617107,-3.11949894904
1555407360089389366,193,1555407360088941555,,-2.71233081818,-1.86173987389,3.12116013021
1555407360108932615,194,1555407360108465390,,-2.71627902985,-1.86664688587,3.08532556603
1555407360109177076,195,1555407360108497680,,-2.7226369381,-1.87119758129,3.00466263953
1555407360118983422,196,1555407360118713333,,-2.72762107849,-1.87579810619,2.99632991949
1555407360129654466,197,1555407360129051881,,-2.73367881775,-1.88064205647,2.92789373442
1555407360129664953,198,1555407360129090203,,-2.7388279438,-1.88524055481,2.89324301349
1555407360148758896,199,1555407360148473174,,-2.74563121796,-1.88956260681,2.83993551402
1555407360178916215,200,1555407360178435603,,-2.77235603333,-1.90629386902,2.62997748936
1555407360179068848,201,1555407360178485887,,-2.77859520912,-1.90974402428,2.56991062982
1555407360189351568,202,1555407360188758909,,-2.78560829163,-1.91380047798,2.52719768868
1555407360198466731,203,1555407360198002117,,-2.79274606705,-1.91695785522,2.45348242044
1555407360209129956,204,1555407360208272049,,-2.79968309402,-1.9205673933,2.40008576151
1555407360219095733,205,1555407360218640495,,-2.80671429634,-1.92501294613,2.33154852459
1555407360229575559,206,1555407360229069684,,-2.81271123886,-1.92535734177,2.29219182515
1555407360229800343,207,1555407360229110150,,-2.81998348236,-1.93000638485,2.21133467688
1555407360238888558,208,1555407360238435032,,-2.82824850082,-1.93310749531,2.13291966281
1555407360249285440,209,1555407360248807774,,-2.8355243206,-1.93571138382,2.07454534344
1555407360258532118,210,1555407360258050372,,-2.84091734886,-1.93849158287,2.01111631511
1555407360279185160,211,1555407360278652896,,-2.8488650322,-1.94015407562,1.94301906407
1555407360279358268,212,1555407360278698874,,-2.86429810524,-1.94581472874,1.76181989912
1555407360289121992,213,1555407360288882065,,-2.87008905411,-1.94568216801,1.73373755029
1555407360298250370,214,1555407360298006828,,-2.87747812271,-1.94678473473,1.66194450712
1555407360308769784,215,1555407360308313179,,-2.8845448494,-1.94931817055,1.58323102507
1555407360319120865,216,1555407360318656385,,-2.89057564735,-1.95049273968,1.50624597128
1555407360329569090,217,1555407360329035723,,-2.89857029915,-1.95170891285,1.42378484022
1555407360329712227,218,1555407360329072951,,-2.90530347824,-1.95232915878,1.33944403576
1555407360338511571,219,1555407360338264938,,-2.91159701347,-1.95216178894,-1.24404816692
1555407360348737724,220,1555407360348424494,,-2.91744685173,-1.95302844048,1.20075078541
1555407360359203626,221,1555407360358737378,,-2.92468500137,-1.95193171501,-1.09953752531
1555407360369362838,222,1555407360368994567,,-2.93015766144,-1.95387029648,1.06845555844
1555407360389058329,223,1555407360388582765,,-2.93668317795,-1.95443832874,0.991250351179
1555407360389290447,224,1555407360388628467,,-2.9486374855,-1.955275774,0.82949237862
1555407360399385628,225,1555407360398927942,,-2.95480418205,-1.95575141907,0.747778961604
1555407360408733622,226,1555407360408262966,,-2.96074843407,-1.95618367195,0.684454518987
1555407360419053304,227,1555407360418595035,,-2.96588277817,-1.95692849159,0.608479754278
1555407360429546233,228,1555407360428983649,,-2.97190403938,-1.95695281029,0.541195422923
1555407360429783466,229,1555407360429018105,,-2.97745919228,-1.95782482624,0.474822771056
1555407360438850494,230,1555407360438364275,,-2.981985569,-1.95730102062,0.38733365219
1555407360449225955,231,1555407360448739121,,-2.98831033707,-1.95788490772,0.319368012069
1555407360459514896,232,1555407360459033660,,-2.99366855621,-1.95771288872,0.226066791715
1555407360468815508,233,1555407360468354788,,-2.99894213676,-1.95893645287,0.173063194163
1555407360489413279,234,1555407360488953868,,-3.00423002243,-1.95934164524,0.0881283403723
1555407360489562203,235,1555407360488995542,,-3.01394319534,-1.96006453037,-0.0781713081616
1555407360498820139,236,1555407360498346655,,-3.01864051819,-1.96096992493,-0.157553532045
1555407360509157856,237,1555407360508680287,,-3.02317500114,-1.96135771275,-0.251545166838
1555407360519436041,238,1555407360518990601,,-3.02815032005,-1.96237385273,-0.332909744609
1555407360528836860,239,1555407360528341549,,-3.03199720383,-1.96299493313,-0.430526894834
1555407360528976955,240,1555407360528379478,,-3.03648066521,-1.96381878853,-0.516308687483
1555407360539161243,241,1555407360538677891,,-3.04103565216,-1.9645844698,-0.611455250464
1555407360549500138,242,1555407360549040860,,-3.04575228691,-1.96582877636,-0.699705636668
1555407360558851195,243,1555407360558366992,,-3.04914975166,-1.96690165997,-0.790381671179
1555407360569170565,244,1555407360568698880,,-3.05300092697,-1.96826720238,-0.885211561434
1555407360588791290,245,1555407360588281469,,-3.05890512466,-1.97028446198,-0.981120062088
1555407360588947980,246,1555407360588331799,,-3.06559514999,-1.97281610966,-1.14330315818
1555407360599097601,247,1555407360598643112,,-3.06963896751,-1.97476053238,-1.22657280349
1555407360609428967,248,1555407360608971548,,-3.07475376129,-1.97728526592,-1.29385831971
1555407360618538393,249,1555407360618217260,,-3.07922101021,-1.97955310345,-1.38568915833
1555407360629089506,250,1555407360628559748,,-3.08219027519,-1.98175787926,-1.46756452952
1555407360629257159,251,1555407360628597304,,-3.08626914024,-1.98341596127,-1.53616346392
1555407360639040697,252,1555407360638768246,,-3.09048557281,-1.98632609844,-1.62444139391
1555407360649528466,253,1555407360649080198,,-3.09511709213,-1.98848736286,-1.67307213947
1555407360658808478,254,1555407360658336894,,-3.0994746685,-1.99116051197,-1.73789496829
1555407360669189719,255,1555407360668719854,,-3.1042330265,-1.99413192272,-1.812523923
1555407360679584304,256,1555407360679090812,,-3.10853338242,-1.99776422977,-1.84671655287
1555407360688924767,257,1555407360688454999,,-3.11356163025,-1.99994790554,-1.92421502643
1555407360689041783,258,1555407360688491774,,-3.11863207817,-2.00280952454,-2.00576048653
1555407360698927932,259,1555407360698660978,,-3.12358951569,-2.00641298294,-2.07764438992
1555407360709464017,260,1555407360708988474,,-3.1280298233,-2.00876927376,-2.11933066981
1555407360718840336,261,1555407360718347396,,-3.13284802437,-2.01208472252,-2.18013502093
1555407360729249961,262,1555407360728716447,,-3.13863515854,-2.01481795311,-2.22901838434
1555407360729436373,263,1555407360728757469,,-3.14435815811,-2.01697492599,-2.27627661891
1555407360739579263,264,1555407360739098474,,-3.14901828766,-2.02076196671,-2.33372160454
1555407360748911200,265,1555407360748471301,,-3.15637159348,-2.02236700058,-2.34227012675
1555407360759357218,266,1555407360758861484,,-3.16036105156,-2.02699756622,-2.43557867805
1555407360768344435,267,1555407360768081927,,-3.16601848602,-2.03150081635,-2.47938975414
1555407360778945598,268,1555407360778441852,,-3.17253112793,-2.03350329399,-2.52239499306
1555407360798542280,269,1555407360798069654,,-3.17650365829,-2.03616857529,-2.57756152859
1555407360798704955,270,1555407360798110025,,-3.1826915741,-2.04049253464,-2.6204548723
1555407360798836563,271,1555407360798139285,,-3.18815684319,-2.04298615456,-2.68859128794
1555407360808630703,272,1555407360808383088,,-3.19301748276,-2.04605388641,-2.73842315929
1555407360819140356,273,1555407360818731350,,-3.19895744324,-2.04907822609,-2.77733705992
1555407360829594685,274,1555407360829102076,,-3.20559239388,-2.05250477791,-2.82602220442
1555407360829815096,275,1555407360829159607,,-3.21127557755,-2.05519413948,-2.87814775307
1555407360839005008,276,1555407360838535669,,-3.21604466438,-2.05823349953,-2.90147062192
1555407360849354813,277,1555407360848888012,,-3.22255396843,-2.06036186218,-2.95340644573
1555407360858649894,278,1555407360858236357,,-3.22818922997,-2.06419563293,-3.01035768116
1555407360869071387,279,1555407360868637417,,-3.23421978951,-2.06673431396,-3.05193231405
1555407360879499232,280,1555407360879013756,,-3.24044823647,-2.06956481934,-3.09918704446
1555407360899081015,281,1555407360898553070,,-3.24679517746,-2.0728456974,3.11517683195
1555407360899092664,282,1555407360898594030,,-3.25878357887,-2.07851958275,3.00264123167
1555407360909042780,283,1555407360908784910,,-3.26660060883,-2.08117008209,2.93156650751
1555407360918461515,284,1555407360918001985,,-3.27207922935,-2.08521294594,2.89996254979
1555407360928891378,285,1555407360928373187,,-3.27728199959,-2.08638453484,2.84992870773
1555407360929034862,286,1555407360928410829,,-3.2850625515,-2.08957529068,2.77505120583
1555407360938844426,287,1555407360938603839,,-3.2917342186,-2.09186697006,2.71489142311
1555407360949115406,288,1555407360948795599,,-3.29961061478,-2.09522843361,2.62933182355
1555407360958507979,289,1555407360958013514,,-3.30603742599,-2.09746623039,2.59817170293
1555407360968753931,290,1555407360968278545,,-3.31331825256,-2.0998852253,2.52239394687
1555407360979103742,291,1555407360978602454,,-3.31961226463,-2.10187268257,2.45764957237
1555407360998533883,292,1555407360998024430,,-3.32691049576,-2.10382294655,2.3845376688
1555407360998706295,293,1555407360998070644,,-3.33918976784,-2.107203722,2.28843132919
1555407361008558336,294,1555407361008274473,,-3.34662294388,-2.10777807236,2.23927305047
1555407361019102776,295,1555407361018619530,,-3.35364794731,-2.10996556282,2.17615733
1555407361029494538,296,1555407361028988955,,-3.36027169228,-2.1108686924,2.13441828189
1555407361029710498,297,1555407361029023666,,-3.36812639236,-2.11274266243,2.06485522773
1555407361038836602,298,1555407361038333786,,-3.37454152107,-2.11268186569,2.03958581538
1555407361049155427,299,1555407361048675545,,-3.38137674332,-2.11387729645,1.98024806922
1555407361059506196,300,1555407361059019562,,-3.38712286949,-2.11460971832,1.927222987
1555407361068896023,301,1555407361068410951,,-3.39437770844,-2.11517763138,1.87822766034
1555407361079294131,302,1555407361078781045,,-3.40136265755,-2.11637997627,1.82291354993
1555407361079484560,303,1555407361078819698,,-3.4077129364,-2.11683130264,1.78332192222
1555407361109121026,304,1555407361108655472,,-3.41436100006,-2.11744689941,1.73794544307
1555407361109271353,305,1555407361108700596,,-3.42768096924,-2.117821455,1.6515440634
1555407361119541096,306,1555407361119044172,,-3.4344534874,-2.11771774292,1.60924637313
1555407361128855578,307,1555407361128414005,,-3.4409725666,-2.11988186836,1.54140478749
1555407361128982499,308,1555407361128453953,,-3.44783473015,-2.1200735569,1.49155017304
1555407361139317648,309,1555407361138843425,,-3.45369148254,-2.11905527115,1.46550569451
1555407361209280319,310,1555407361208873886,,-3.49714303017,-2.12341380119,1.10724569877
1555407361209407774,311,1555407361208928481,,-3.50268959999,-2.12316274643,1.0730261694
1555407361218747876,312,1555407361218276030,,-3.50775575638,-2.12407040596,1.00826176823
1555407361229440594,313,1555407361228819657,,-3.51422762871,-2.12406253815,0.965702017395
1555407361229446838,314,1555407361228864357,,-3.52045989037,-2.12486600876,0.89956664055
1555407361238250810,315,1555407361238004354,,-3.52626180649,-2.12514615059,0.858520736101
1555407361248745277,316,1555407361248314473,,-3.53079414368,-2.12497830391,0.825695241334
1555407361259158021,317,1555407361258681971,,-3.53717899323,-2.12533783913,0.777172568451
1555407361269550948,318,1555407361269088411,,-3.54272222519,-2.12564492226,0.729269153733
1555407361278867726,319,1555407361278376959,,-3.5480723381,-2.12560653687,0.686159932362
1555407361279016838,320,1555407361278409518,,-3.55418467522,-2.12511086464,0.629502767154
1555407361308720479,321,1555407361308240137,,-3.55854177475,-2.12598538399,0.604876962634
1555407361308894617,322,1555407361308290171,,-3.56806087494,-2.12609243393,0.534988785503
1555407361319055416,323,1555407361318609084,,-3.57252860069,-2.12682962418,0.499605774972
1555407361329357731,324,1555407361328875365,,-3.5771446228,-2.12691855431,0.468291846756
1555407361329521172,325,1555407361328910027,,-3.58180737495,-2.1262691021,0.431901186706
1555407361338636202,326,1555407361338184661,,-3.58401226997,-2.12592959404,0.390750809481
1555407361389134093,327,1555407361388666641,,-3.61013221741,-2.12752151489,0.239011708074
1555407361429067375,328,1555407361428596397,,-3.6295337677,-2.12624120712,0.101644888481
1555407361448559384,329,1555407361448088168,,-3.63784003258,-2.12838149071,0.0793913675383
1555407361458876581,330,1555407361458430675,,-3.64066767693,-2.12671256065,0.0198485690495
1555407361469254274,331,1555407361468805856,,-3.64454650879,-2.12719345093,0.00247198186703
1555407361478443997,332,1555407361477984035,,-3.64895009995,-2.12897276878,0.00555376425249
1555407361478631833,333,1555407361478017911,,-3.65192627907,-2.12879037857,-0.0249160007689
1555407361488820010,334,1555407361488291684,,-3.65524530411,-2.12832808495,-0.065230145318
1555407361509250049,335,1555407361508772830,,-3.65776109695,-2.12910199165,-0.0912487229067
1555407361509419321,336,1555407361508808442,,-3.66128253937,-2.12929344177,-0.121069873916
1555407361519268423,337,1555407361518992463,,-3.66386699677,-2.12971830368,-0.14746718085
1555407361528734150,338,1555407361528253876,,-3.66714763641,-2.12981963158,-0.185926634066
1555407361528864286,339,1555407361528290163,,-3.67002248764,-2.12827539444,-0.244213954487
1555407361568818323,340,1555407361568289691,,-3.68050432205,-2.13072633743,-0.374773010938
1555407361579098808,341,1555407361578623782,,-3.68331599236,-2.13145184517,-0.427843020338
1555407361579244947,342,1555407361578682114,,-3.6845870018,-2.13110613823,-0.478724127002
1555407361589247421,343,1555407361588961236,,-3.68619608879,-2.13157296181,-0.52363150531
1555407361619461631,344,1555407361618959823,,-3.68858718872,-2.13186192513,-0.577497324192
1555407361619624567,345,1555407361618997884,,-3.69023656845,-2.13240242004,-0.630771587433
1555407361619777700,346,1555407361619024369,,-3.69215106964,-2.13289093971,-0.687874991138
1555407361628458344,347,1555407361628223646,,-3.69392609596,-2.13347530365,-0.74113056469
1555407361628627122,348,1555407361628261469,,-3.69525814056,-2.13382863998,-0.790455879492
1555407361638708612,349,1555407361638440512,,-3.69662928581,-2.13468503952,-0.866509859942
1555407361649212070,350,1555407361648739361,,-3.69813418388,-2.13539433479,-0.925981410986
1555407361659489797,351,1555407361659035510,,-3.69892454147,-2.13588476181,-0.980254333902
1555407361668831426,352,1555407361668374687,,-3.69988489151,-2.13721299171,-1.05679526112
1555407361679208051,353,1555407361678700478,,-3.70140004158,-2.13807439804,-1.12072688831
1555407361679408688,354,1555407361678737926,,-3.70180821419,-2.13875865936,-1.18215701547
1555407361689190575,355,1555407361688894388,,-3.70407366753,-2.14120697975,-1.25121063387
1555407361729562643,356,1555407361729007753,,-3.70390295982,-2.14155983925,-1.32934649307
1555407361729747290,357,1555407361729060721,,-3.7064640522,-2.14655852318,-1.54408286973
1555407361729878347,358,1555407361729109741,,-3.70673394203,-2.1487660408,-1.63439150434
1555407361738610752,359,1555407361738323248,,-3.70914435387,-2.15153717995,-1.73634874203
1555407361749160429,360,1555407361748690694,,-3.71129512787,-2.15226316452,-1.7814773505
1555407361759555755,361,1555407361759087845,,-3.71331548691,-2.15448784828,-1.86999238384
1555407361768950340,362,1555407361768489832,,-3.71415233612,-2.15708613396,-1.95259978197
1555407361778974292,363,1555407361778708971,,-3.71596455574,-2.15934038162,-2.01168608819
1555407361779106624,364,1555407361778741952,,-3.71686339378,-2.16079640388,-2.10368280539
1555407361789194543,365,1555407361788937809,,-3.71804308891,-2.16343212128,-2.18578050611
1555407361798421609,366,1555407361798120618,,-3.72063374519,-2.165995121,-2.25142582105
1555407361828531626,367,1555407361828018600,,-3.72135305405,-2.16825962067,-2.32607309323
1555407361828780469,368,1555407361828057506,,-3.72287988663,-2.17006134987,-2.41699065493
1555407361828787264,369,1555407361828090262,,-3.72494626045,-2.17265224457,-2.4894097261
1555407361838569884,370,1555407361838299519,,-3.7275352478,-2.17546916008,-2.57123178442
1555407361838742125,371,1555407361838329655,,-3.73003053665,-2.17793345451,-2.61586468116
1555407361849077651,372,1555407361848631438,,-3.7323923111,-2.18026733398,-2.67489470545
1555407361859482290,373,1555407361859002385,,-3.7352244854,-2.18264389038,-2.75596067553
1555407361868818798,374,1555407361868342082,,-3.73650836945,-2.18516874313,-2.80116341961
1555407361879178467,375,1555407361878685701,,-3.73982548714,-2.18693089485,-2.87485243089
1555407361898598737,376,1555407361898198417,,-3.74761199951,-2.19335269928,-3.07121232076
1555407361928464637,377,1555407361927998650,,-3.75039100647,-2.19499588013,3.13894025358
1555407361928621286,378,1555407361928050909,,-3.7582449913,-2.20109987259,2.95503352987
1555407361938482892,379,1555407361938241292,,-3.76134371758,-2.20321297646,2.88971734056
1555407361949030587,380,1555407361948592707,,-3.7636179924,-2.20472431183,2.83810308379
1555407361959427453,381,1555407361958939889,,-3.76615715027,-2.20553636551,2.7851052209
1555407361968775435,382,1555407361968280602,,-3.769926548,-2.20764636993,2.72125498812
1555407361979114734,383,1555407361978609444,,-3.772783041,-2.20935750008,2.65708165325
1555407361979280269,384,1555407361978645606,,-3.77632021904,-2.21054172516,2.59744949604
1555407361989037052,385,1555407361988802787,,-3.77827095985,-2.21145892143,2.56301231033
1555407361998465972,386,1555407361998024355,,-3.78252840042,-2.21285319328,2.5061851981
1555407362029472988,387,1555407362028979535,,-3.78502869606,-2.21362757683,2.45865611261
1555407362029639180,388,1555407362029033744,,-3.79366636276,-2.21605491638,2.32280943188
1555407362038551806,389,1555407362038276504,,-3.79782128334,-2.21590614319,2.28457988323
1555407362048758878,390,1555407362048472051,,-3.80033016205,-2.21655106544,2.23057642714
1555407362059268326,391,1555407362058794384,,-3.80498027802,-2.21563100815,2.23202881102
1555407362078818977,392,1555407362078368355,,-3.81455135345,-2.21666312218,2.08443428642
1555407362089212862,393,1555407362088765702,,-3.81752085686,-2.216142416,2.06095787215
1555407362108797110,394,1555407362108288254,,-3.81917023659,-2.21554374695,2.04649423852
1555407362109028843,395,1555407362108327522,,-3.82335066795,-2.21462464333,2.02698409821
1555407362129453503,396,1555407362128963478,,-3.82575893402,-2.21445035934,2.00193822106
1555407362129601885,397,1555407362129009795,,-3.83149337769,-2.21238231659,1.95712046146
1555407362138404619,398,1555407362138165547,,-3.83501076698,-2.2117729187,1.93467945976
1555407362148958650,399,1555407362148518546,,-3.83795523643,-2.21015024185,1.92159330758
1555407362159033706,400,1555407362158702591,,-3.8407728672,-2.20911645889,1.91175445337
1555407362169485047,401,1555407362168972615,,-3.84467840195,-2.20780563354,1.89472857856
1555407362178428527,402,1555407362178152183,,-3.84692120552,-2.20631432533,1.875035017
1555407362178544676,403,1555407362178170741,,-3.84902191162,-2.20398283005,1.87595826461
1555407362188600302,404,1555407362188321204,,-3.85266065598,-2.20242166519,1.85900717367
1555407362209399841,405,1555407362208930768,,-3.85521745682,-2.20005249977,1.85186342802
1555407362209588989,406,1555407362208971062,,-3.85874724388,-2.19840931892,1.82382679355
1555407362238528411,407,1555407362238042465,,-3.86205506325,-2.19568991661,1.81176371026
1555407362248874009,408,1555407362248416941,,-3.87390303612,-2.18496441841,1.74804356174
1555407362258856874,409,1555407362258604268,,-3.87664675713,-2.18162941933,1.72814835161
1555407362269012621,410,1555407362268764946,,-3.87971973419,-2.17824530602,1.71562692451
1555407362279222971,411,1555407362278925544,,-3.88258981705,-2.17486667633,1.69613922801
1555407362279408588,412,1555407362278942551,,-3.88570952415,-2.1717851162,1.67354805515
1555407362288321559,413,1555407362288096469,,-3.88826012611,-2.16633605957,1.67358069452
1555407362309046100,414,1555407362308583859,,-3.89166808128,-2.16342139244,1.63578437559
1555407362339112674,415,1555407362338629232,,-3.90669751167,-2.14118266106,1.5192254826
1555407362358805130,416,1555407362358331508,,-3.91170096397,-2.1315715313,1.47365311514
1555407362369117983,417,1555407362368671469,,-3.91451525688,-2.12667489052,1.452793302
1555407362379514521,418,1555407362379023354,,-3.91714811325,-2.12148618698,1.43678667493
1555407362439300834,419,1555407362438834540,,-3.93681883812,-2.0803258419,1.26753142439
1555407362448537579,420,1555407362448077188,,-3.93942284584,-2.07512259483,1.24735056465
1555407362458622482,421,1555407362458320340,,-3.94157791138,-2.06966662407,1.22404683633
1555407362509491011,422,1555407362509002374,,-3.95362210274,-2.04540920258,1.10642976951
1555407362518804113,423,1555407362518352853,,-3.95572781563,-2.03471064568,1.09064310811
1555407362539502844,424,1555407362538999805,,-3.96216344833,-2.02408480644,1.03021493524
1555407362539676378,425,1555407362539036721,,-3.96391201019,-2.01867890358,1.01081893243
1555407362548437559,426,1555407362548196821,,-3.96642208099,-2.01401686668,0.98020746279
1555407362559034247,427,1555407362558541495,,-3.96865463257,-2.00834465027,0.957581233139
1555407362569360352,428,1555407362568917774,,-3.96993803978,-2.00250816345,0.956694258073
1555407362578881447,429,1555407362578295228,,-3.97191786766,-1.99711954594,0.925167789129
1555407362579015299,430,1555407362578331940,,-3.97436857224,-1.99211454391,0.889489391932
1555407362588794387,431,1555407362588528544,,-3.97528576851,-1.98658978939,0.856499003409
1555407362639320316,432,1555407362638850743,,-3.98318481445,-1.96258854866,0.711592441825
1555407362639505564,433,1555407362638897658,,-3.98533082008,-1.95217525959,0.655917369046
1555407362648572543,434,1555407362648117370,,-3.98504209518,-1.9463237524,0.600583021453
1555407362658879556,435,1555407362658456521,,-3.98723077774,-1.94008469582,0.57881855837
1555407362669229746,436,1555407362668791807,,-3.98841547966,-1.93455171585,0.538082461817
1555407362678562968,437,1555407362678010628,,-3.98842978477,-1.92857670784,0.504473103673
1555407362678749018,438,1555407362678047643,,-3.98938965797,-1.92289936543,0.468750288714
1555407362688802947,439,1555407362688346674,,-3.99004101753,-1.91778469086,0.440150718564
1555407362699172736,440,1555407362698694189,,-3.9905564785,-1.91054654121,0.381264935811
1555407362709523991,441,1555407362709043249,,-3.99134039879,-1.90642023087,0.375560105618
1555407362718786336,442,1555407362718342329,,-3.99105024338,-1.89780533314,0.307533607863
1555407362748690780,443,1555407362748113689,,-3.99067187309,-1.89418458939,0.297435240201
1555407362748865137,444,1555407362748161692,,-3.99091005325,-1.88201594353,0.251521405858
1555407362868890658,445,1555407362868434564,,-3.96744394302,-1.80155742168,-0.167155892267
1555407362879412230,446,1555407362878822515,,-3.96445441246,-1.79660058022,-0.201404220685
1555407362879559283,447,1555407362878860800,,-3.96153140068,-1.79203009605,-0.236247310255
1555407362888250811,448,1555407362887985491,,-3.95871090889,-1.78663992882,-0.279883539377
1555407362898846686,449,1555407362898337150,,-3.95564103127,-1.78190946579,-0.322676974206
1555407362909162526,450,1555407362908675280,,-3.95273280144,-1.77721047401,-0.361212998963
1555407362919507078,451,1555407362919047613,,-3.9489774704,-1.77257585526,-0.397419667639
1555407362928722111,452,1555407362928287963,,-3.94591331482,-1.76744151115,-0.438101864776
1555407362949490084,453,1555407362948979894,,-3.94261550903,-1.76340246201,-0.499181073066
1555407362949675745,454,1555407362949023973,,-3.93464779854,-1.75456368923,-0.601114520835
1555407362958412522,455,1555407362958182362,,-3.93219590187,-1.75026023388,-0.644570992855
1555407362968965454,456,1555407362968494181,,-3.92800426483,-1.74618852139,-0.711068331488
1555407362979322321,457,1555407362978809615,,-3.92426252365,-1.74159538746,-0.766748003644
1555407362979513919,458,1555407362978871362,,-3.92202091217,-1.73772537708,-0.795823545296
1555407362988577547,459,1555407362988101011,,-3.91839575768,-1.73381578922,-0.845675538172
1555407362998585661,460,1555407362998344076,,-3.91507554054,-1.72999596596,-0.899277639722
1555407363009172909,461,1555407363008707857,,-3.91156601906,-1.7261506319,-0.94887217933
1555407363019485013,462,1555407363019021395,,-3.90658688545,-1.72231006622,-1.02150944769
1555407363028758481,463,1555407363028332193,,-3.90405368805,-1.71792936325,-1.08127067407
1555407363049568190,464,1555407363049093030,,-3.90093111992,-1.7140494585,-1.1112957102
1555407363049730057,465,1555407363049131135,,-3.89752912521,-1.71034944057,-1.14649003053
1555407363049877398,466,1555407363049163361,,-3.89314007759,-1.70692670345,-1.21737615493
1555407363058553924,467,1555407363058335897,,-3.89057397842,-1.70310509205,-1.2636513794
1555407363069146899,468,1555407363068685042,,-3.88737678528,-1.69929742813,-1.31560048523
1555407363078503082,469,1555407363078043295,,-3.8840572834,-1.69665837288,-1.35746370933
1555407363078646091,470,1555407363078084501,,-3.88063359261,-1.69339680672,-1.38780480325
1555407363088901873,471,1555407363088454966,,-3.87746357918,-1.68987798691,-1.44052264931
1555407363099279366,472,1555407363098833018,,-3.87463140488,-1.68765580654,-1.48712653176
1555407363108534563,473,1555407363108068020,,-3.8727645874,-1.6846228838,-1.51838138414
1555407363118937232,474,1555407363118464257,,-3.8698515892,-1.68216013908,-1.54041673328
1555407363129288411,475,1555407363128836563,,-3.86683034897,-1.6789753437,-1.57967013747
1555407363138512922,476,1555407363138063381,,-3.86443328857,-1.67673838139,-1.61099373449
1555407363148933727,477,1555407363148444679,,-3.86138153076,-1.67388951778,1.67762038444
1555407363149084108,478,1555407363148486832,,-3.8579492569,-1.67229199409,-1.66194928586
1555407363158942958,479,1555407363158716189,,-3.85477995872,-1.67061913013,1.76339985742
1555407363169151193,480,1555407363168912358,,-3.85299038887,-1.66915547848,-1.75955222415
1555407363178380554,481,1555407363178092633,,-3.85195398331,-1.66681540012,-1.76725140271
1555407363178576501,482,1555407363178109093,,-3.84939527512,-1.66511845589,-1.78045432256
1555407363188546419,483,1555407363188260514,,-3.84657597542,-1.66372585297,-1.81505760516
1555407363199046810,484,1555407363198589939,,-3.84505200386,-1.66300618649,-1.83934185325
1555407363209075119,485,1555407363208785704,,-3.84357452393,-1.6622427702,-1.86294074198
1555407363218478839,486,1555407363218000714,,-3.84130787849,-1.6615691185,-1.89654221457
1555407363228974474,487,1555407363228491991,,-3.83912420273,-1.66043424606,-1.93188149553
1555407363229108144,488,1555407363228528756,,-3.83809900284,-1.66059863567,-1.94985166133
1555407363249578665,489,1555407363249039145,,-3.83680462837,-1.66018044949,-1.97083058891
1555407363249721920,490,1555407363249079553,,-3.83606481552,-1.65990889072,-1.99150456942
1555407363258901152,491,1555407363258449488,,-3.83396983147,-1.66005194187,-2.01546647993
1555407363269279236,492,1555407363268824902,,-3.83267664909,-1.65968263149,-2.0478169031
1555407363278603837,493,1555407363278084085,,-3.83208537102,-1.66063201427,-2.05594167763
1555407363278748069,494,1555407363278117978,,-3.83116388321,-1.66044652462,-2.07992510378
1555407363288549056,495,1555407363288298143,,-3.83039164543,-1.66066741943,-2.09447722878
1555407363299070031,496,1555407363298616384,,-3.82967162132,-1.66121983528,-2.10692505979
1555407363309122901,497,1555407363308836360,,-3.82890963554,-1.66168177128,-2.11930785855
1555407363318536670,498,1555407363318063125,,-3.82819914818,-1.66195130348,-2.13865258024
1555407363328933647,499,1555407363328435053,,-3.82799768448,-1.66241526604,-2.14878778151
1555407363329032952,500,1555407363328476506,,-3.82774734497,-1.66309475899,-2.15701201295
1555407363358921369,501,1555407363358432886,,-3.82735848427,-1.66417503357,-2.16489187479
1555407363359088032,502,1555407363358473282,,-3.8274102211,-1.66503727436,-2.16806255309
1555407363359201355,503,1555407363358507351,,-3.82775330544,-1.66621696949,-2.16879854323
1555407363388706449,504,1555407363388237448,,-3.82966327667,-1.67170655727,-2.1931035656
1555407363399056691,505,1555407363398615768,,-3.8299343586,-1.67301678658,-2.19515523046
1555407363409496059,506,1555407363408999185,,-3.8302295208,-1.67446553707,-2.19153417588
1555407363418784744,507,1555407363418328467,,-3.83166527748,-1.6761649847,-2.20450319151
1555407363429093615,508,1555407363428623167,,-3.83295083046,-1.67876517773,2.23924814295
1555407363429235202,509,1555407363428659980,,-3.83405447006,-1.6800454855,-2.2122227205
1555407363458894930,510,1555407363458397602,,-3.83478975296,-1.68296253681,-2.22174560882
1555407363459062351,511,1555407363458443406,,-3.83773803711,-1.68733251095,-2.23695155275
1555407363468957629,512,1555407363468692018,,-3.8395793438,-1.68932330608,-2.22944287579
1555407363479185183,513,1555407363478910963,,-3.84040474892,-1.69148111343,-2.2457271168
1555407363479343239,514,1555407363478927648,,-3.84240484238,-1.69358289242,-2.25059849748
1555407363488359811,515,1555407363488120315,,-3.84338378906,-1.69616389275,-2.26669654918
1555407363498600575,516,1555407363498314379,,-3.84515380859,-1.69868826866,-2.2512263882
1555407363509129955,517,1555407363508673004,,-3.84592604637,-1.70076835155,-2.25798334618
1555407363519539680,518,1555407363519050016,,-3.84740185738,-1.70244812965,-2.27467278154
1555407363528903020,519,1555407363528419740,,-3.85032510757,-1.70579612255,-2.27083183323
1555407363529069055,520,1555407363528456255,,-3.85218667984,-1.70844197273,-2.29019096476
1555407363538924710,521,1555407363538639625,,-3.85312151909,-1.71009147167,-2.28428044132
1555407363558693475,522,1555407363558246848,,-3.85463500023,-1.71302723885,-2.28560726494
1555407363558863161,523,1555407363558284689,,-3.85655593872,-1.71516895294,-2.28817510294
1555407363569071126,524,1555407363568620839,,-3.85791730881,-1.71720075607,-2.29408197575
1555407363579401173,525,1555407363578925067,,-3.86199164391,-1.72050654888,-2.29384863381
1555407363579544783,526,1555407363578968089,,-3.8628680706,-1.72300469875,-2.29604079681
1555407363588765610,527,1555407363588312474,,-3.86458969116,-1.72514688969,-2.28639985304
1555407363599123267,528,1555407363598644876,,-3.86725759506,-1.72751283646,-2.27901701291
1555407363609495594,529,1555407363609030567,,-3.86934828758,-1.72960984707,-2.28068719594
1555407363618877842,530,1555407363618395511,,-3.87173652649,-1.7330532074,-2.26724911065
1555407363629426302,531,1555407363628784075,,-3.87415719032,-1.73460388184,-2.24719538152
1555407363629437106,532,1555407363628824143,,-3.87683939934,-1.73809301853,-2.24261440573
1555407363638201588,533,1555407363637946704,,-3.87991738319,-1.74156987667,-2.23042320442
1555407363659002887,534,1555407363658528308,,-3.8817293644,-1.7442855835,-2.21518926203
1555407363659168178,535,1555407363658565520,,-3.88380908966,-1.74845898151,-2.22981629325
1555407363669371303,536,1555407363668908899,,-3.88752269745,-1.75025093555,-2.17646408286
1555407363678758170,537,1555407363678324958,,-3.89081168175,-1.752617836,-2.14968134432
1555407363678920554,538,1555407363678365437,,-3.89319944382,-1.75610733032,-2.12685369706
1555407363688807935,539,1555407363688587879,,-3.89649510384,-1.75947654247,-2.1123356919
1555407363728929700,540,1555407363728434149,,-3.9096660614,-1.7724159956,-1.99425431156
1555407363729085748,541,1555407363728469877,,-3.9131925106,-1.77606844902,-1.95114326327
1555407363739255548,542,1555407363738814388,,-3.917085886,-1.77972447872,-1.92280753073
1555407363769013655,543,1555407363768511101,,-3.92045998573,-1.78365111351,-1.88310110983
1555407363769169697,544,1555407363768557341,,-3.92713975906,-1.79058468342,-1.82854503937
1555407363778949652,545,1555407363778712864,,-3.93079185486,-1.79444694519,-1.78086328929
1555407363779108665,546,1555407363778747090,,-3.93320035934,-1.79814660549,-1.75594328771
1555407363789232190,547,1555407363788940156,,-3.9380235672,-1.80247116089,-1.72441695845
1555407363798788574,548,1555407363798300078,,-3.94038963318,-1.80790364742,-1.7312677103
1555407363809055364,549,1555407363808639198,,-3.94404649734,-1.81215679646,-1.70342488295
1555407363819473599,550,1555407363818993308,,-3.94812059402,-1.81532788277,-1.63852463937
1555407363828776931,551,1555407363828330500,,-3.95161366463,-1.8198466301,-1.6291733534
1555407363869141314,552,1555407363868685594,,-3.96762609482,-1.84450006485,-1.51141299253
1555407363879595588,553,1555407363879075853,,-3.97191977501,-1.85034441948,-1.51219768356
1555407363879767831,554,1555407363879136028,,-3.97427344322,-1.85543823242,-1.48731574685
1555407363888950747,555,1555407363888479685,,-3.97618436813,-1.86137413979,-1.44955188792
1555407363899176999,556,1555407363898805560,,-3.98015379906,-1.86665678024,-1.45618852029
1555407363908535080,557,1555407363908068235,,-3.98311853409,-1.87248885632,-1.43714640539
1555407363918861331,558,1555407363918411335,,-3.98664426804,-1.8798481226,-1.42160676921
1555407363929224350,559,1555407363928765784,,-3.98974680901,-1.88548338413,-1.40273302001
1555407363929407542,560,1555407363928801330,,-3.99238991737,-1.89174485207,-1.37637973351
1555407363938468263,561,1555407363938013593,,-3.9956805706,-1.89869332314,-1.35688263933
1555407363978447833,562,1555407363977981238,,-4.00613451004,-1.92709052563,-1.29147745771
1555407363978637958,563,1555407363978015430,,-4.00836229324,-1.93444907665,-1.27786030384
1555407363988433926,564,1555407363988172802,,-4.01100826263,-1.94132649899,-1.25239559495
1555407363998992419,565,1555407363998476811,,-4.01366758347,-1.94971203804,-1.24913883383
1555407364009290302,566,1555407364008814823,,-4.01541662216,-1.95713078976,-1.2166920786
1555407364018529541,567,1555407364018075942,,-4.01836156845,-1.96561419964,-1.19083701963
1555407364028939505,568,1555407364028472831,,-4.02051210403,-1.97414684296,-1.17709016984
1555407364029113416,569,1555407364028509169,,-4.02281761169,-1.98245584965,-1.16633828544
1555407364038984596,570,1555407364038701586,,-4.02428007126,-1.99050366879,-1.14970085062
1555407364049461628,571,1555407364049039702,,-4.02551317215,-1.99925172329,-1.12772667933
1555407364069026033,572,1555407364068569881,,-4.0275053978,-2.00797104836,-1.11259318403
1555407364069246392,573,1555407364068606292,,-4.02983188629,-2.01639986038,-1.086776154
1555407364079355848,574,1555407364078878639,,-4.03187322617,-2.0259270668,-1.04095937421
1555407364079499661,575,1555407364078917366,,-4.03349494934,-2.03382825851,-1.01207840183
1555407364088719971,576,1555407364088265715,,-4.03394508362,-2.04252123833,-1.00318947851
1555407364099098490,577,1555407364098629849,,-4.03515958786,-2.05213785172,-0.9704250562
1555407364109493551,578,1555407364108996297,,-4.03705978394,-2.06138801575,-0.943815798522
1555407364178495065,579,1555407364178035534,,-4.04796028137,-2.13490343094,-0.612472681156
1555407364178709139,580,1555407364178073681,,-4.04827928543,-2.14423036575,-0.589222827536
1555407364188832449,581,1555407364188382320,,-4.04951858521,-2.15344595909,-0.547605170327
1555407364199039041,582,1555407364198609180,,-4.0511636734,-2.16307330132,-0.498367536033
1555407364209288118,583,1555407364208859564,,-4.05227184296,-2.17254400253,-0.457374235435
1555407364218543047,584,1555407364218075487,,-4.0529961586,-2.18130993843,-0.410758852079
1555407364229140068,585,1555407364228626768,,-4.05413246155,-2.19098544121,-0.371780376025
1555407364229326380,586,1555407364228663104,,-4.05499124527,-2.20011115074,-0.329916743337
1555407364239506328,587,1555407364238976307,,-4.05568408966,-2.20934343338,-0.286922340176
1555407364248713599,588,1555407364248268959,,-4.05613994598,-2.21830177307,-0.237429879882
1555407364259118527,589,1555407364258636050,,-4.0569319725,-2.22757792473,-0.198826349015
1555407364278738493,590,1555407364278294366,,-4.0564904213,-2.23659086227,-0.165646632191
1555407364278999533,591,1555407364278339997,,-4.05833768845,-2.25501155853,-0.0609885469244
1555407364288752456,592,1555407364288497884,,-4.05806255341,-2.26398134232,-0.0189598743814
1555407364299172877,593,1555407364298734989,,-4.05837869644,-2.27301120758,0.0249836522033
1555407364359234372,594,1555407364358746640,,-4.05240345001,-2.33482456207,0.339610820903
1555407364378687380,595,1555407364378233696,,-4.05085849762,-2.34182929993,0.392767741678
1555407364378842058,596,1555407364378275543,,-4.04868984222,-2.3586370945,0.474450585036
1555407364389031802,597,1555407364388591871,,-4.04740190506,-2.36699390411,0.530337361389
1555407364399242657,598,1555407364398832873,,-4.04632329941,-2.37536883354,0.573994799378
1555407364408546846,599,1555407364408087610,,-4.04454231262,-2.38297963142,0.609314734376
1555407364418896710,600,1555407364418413922,,-4.04385614395,-2.39086580276,0.666323499715
1555407364429328346,601,1555407364428807606,,-4.04254865646,-2.39945697784,0.711752877765
1555407364429540418,602,1555407364428845587,,-4.04095029831,-2.4072034359,0.752195938163
1555407364438525776,603,1555407364438069631,,-4.04012537003,-2.41540622711,0.808839580001
1555407364448916242,604,1555407364448433682,,-4.03868722916,-2.42338371277,0.846291721433
1555407364459262188,605,1555407364458758146,,-4.03769731522,-2.43135452271,0.886175190648
1555407364478853514,606,1555407364478357685,,-4.03564977646,-2.43860507011,0.942558261736
1555407364519151074,607,1555407364518674169,,-4.02555036545,-2.47942495346,1.22792276817
1555407364529565732,608,1555407364529083001,,-4.02240228653,-2.48533964157,1.25322794606
1555407364549260116,609,1555407364548774702,,-4.01828193665,-2.50309181213,1.39146827713
1555407364558505701,610,1555407364558014795,,-4.01570749283,-2.50795769691,1.44171400716
1555407364619156041,611,1555407364618640795,,-4.00377464294,-2.54353141785,1.68106865354
1555407364629491951,612,1555407364629011852,,-4.00068759918,-2.5523352623,1.71290758894
1555407364638830963,613,1555407364638344808,,-3.99937391281,-2.55665564537,1.74157328257
1555407364649192292,614,1555407364648722169,,-3.99762010574,-2.5606136322,1.76164485832
1555407364659520575,615,1555407364659019320,,-3.99552345276,-2.56450557709,1.78940203525
1555407364668811520,616,1555407364668342199,,-3.99326252937,-2.56763505936,1.81018660132
1555407364689360953,617,1555407364688885935,,-3.9934463501,-2.57241845131,1.80539250928
1555407364689505274,618,1555407364688932490,,-3.99138140678,-2.57994031906,1.81907511055
1555407364719353006,619,1555407364718871218,,-3.98808813095,-2.58957314491,1.83704749687
1555407364728543206,620,1555407364728048756,,-3.98679232597,-2.59586143494,1.82878592799
1555407364738864139,621,1555407364738374302,,-3.98490476608,-2.59823107719,1.82775184323
1555407364749194476,622,1555407364748709117,,-3.9832546711,-2.60114765167,1.84047666371
1555407364759552052,623,1555407364759049952,,-3.98305344582,-2.60454487801,1.82261391183
1555407364768840083,624,1555407364768348170,,-3.98203039169,-2.60678005219,1.83068901158
1555407364808866868,625,1555407364808383503,,-3.97696495056,-2.61976671219,1.83314900052
1555407364829496541,626,1555407364828991039,,-3.97661185265,-2.62572336197,1.79189366909
1555407364838871811,627,1555407364838370628,,-3.97252345085,-2.63028097153,1.80783322163
1555407364859546766,628,1555407364859036153,,-3.97234177589,-2.63472437859,1.78312353693
1555407364868806192,629,1555407364868315458,,-3.97163152695,-2.63701200485,1.78855757222
1555407364889314004,630,1555407364888835434,,-3.97112202644,-2.63800644875,1.79290355233
1555407364889459181,631,1555407364888881766,,-3.96889615059,-2.64197707176,1.7773392514
1555407364898231024,632,1555407364898001674,,-3.9687025547,-2.64389038086,1.7589158768
1555407364908804676,633,1555407364908315950,,-3.96889615059,-2.64594912529,1.73233147784
1555407364919080521,634,1555407364918607460,,-3.96790647507,-2.64641880989,1.74852647079
1555407364929526014,635,1555407364928976862,,-3.96698927879,-2.6471786499,1.73468515764
1555407364929556329,636,1555407364929011448,,-3.96631479263,-2.64777183533,1.72942366651
1555407364938741053,637,1555407364938290535,,-3.96572160721,-2.64791941643,1.72634887614
1555407364949116903,638,1555407364948626998,,-3.9657099247,-2.6479511261,1.7342115767
1555407364989177304,639,1555407364988719942,,-3.96374750137,-2.65007996559,1.68952761549
1555407364999520293,640,1555407364999054785,,-3.96315145493,-2.65023088455,1.68504628712
1555407365008899419,641,1555407365008398200,,-3.9625878334,-2.6504046917,1.68068268349
1555407365019174389,642,1555407365018694022,,-3.9618499279,-2.65042567253,1.67436746038
1555407365059077690,643,1555407365058587464,,-3.95854043961,-2.65035057068,1.65453356547
1555407365069359614,644,1555407365068914281,,-3.95800590515,-2.6500275135,1.65440524673
1555407365078781166,645,1555407365078294520,,-3.95733833313,-2.65016436577,1.64844990482
1555407365099350084,646,1555407365098783627,,-3.95658278465,-2.64970850945,1.65050061175
1555407365099400386,647,1555407365098829630,,-3.9552385807,-2.64922618866,1.65137740345
1555407365128877237,648,1555407365128407241,,-3.95193552971,-2.64541602135,1.70951070892
1555407365139224378,649,1555407365138740650,,-3.95111036301,-2.64453125,1.72255954503
1555407365148486086,650,1555407365148018712,,-3.95018410683,-2.64369106293,1.73368408491
1555407365158748515,651,1555407365158281691,,-3.94869422913,-2.64224433899,1.7649514984
1555407365169119411,652,1555407365168674788,,-3.94893169403,-2.64130830765,1.76705856081
1555407365179544575,653,1555407365179039242,,-3.94795966148,-2.6408624649,1.76596137545
1555407365199257903,654,1555407365198772663,,-3.94752502441,-2.63968491554,1.79452139156
1555407365199469149,655,1555407365198813981,,-3.94698190689,-2.63956546783,1.79653236927
1555407365229352241,656,1555407365228841680,,-3.94258666039,-2.63165044785,1.91496712054
1555407365238583489,657,1555407365238094092,,-3.94112277031,-2.63078451157,1.91913704533
1555407365248932816,658,1555407365248456818,,-3.93914532661,-2.62933301926,1.95167274482
1555407365259216779,659,1555407365258766544,,-3.93994355202,-2.62915945053,1.9532688051
1555407365268469208,660,1555407365268013421,,-3.93924403191,-2.62744402885,1.97575896528
1555407365278818965,661,1555407365278345434,,-3.93782877922,-2.62655615807,1.98652833207
1555407365278960103,662,1555407365278381743,,-3.93680763245,-2.62478160858,2.02364233975
1555407365299413205,663,1555407365298969853,,-3.93660187721,-2.62386345863,2.03010401985
1555407365299718861,664,1555407365299004980,,-3.9352145195,-2.62194085121,2.06219169184
1555407365308787855,665,1555407365308321437,,-3.93489813805,-2.62125873566,2.06602912368
1555407365319035371,666,1555407365318578342,,-3.93437457085,-2.62001109123,2.08352231988
1555407365329332710,667,1555407365328885057,,-3.93365716934,-2.6191573143,2.09726063526
1555407365329487796,668,1555407365328920452,,-3.93104195595,-2.61614894867,2.13519071334
1555407365338690356,669,1555407365338233469,,-3.93108677864,-2.6150598526,2.14561393792
1555407365349102610,670,1555407365348614189,,-3.93055963516,-2.61417293549,2.1601866404
