%time,field.header.seq,field.header.stamp,field.header.frame_id,field.point.x,field.point.y,field.point.z
1554974690840374124,1,1554974690839819201,,-0.628377974033,-0.227057948709,-3.06812602499
1554974690850734884,2,1554974690850275805,,-0.629935801029,-0.226901784539,3.1301298694
1554974690861209403,3,1554974690860617422,,-0.631609618664,-0.226897373796,3.04280494746
1554974690861222082,4,1554974690860653532,,-0.633051753044,-0.226735591888,2.95627062251
1554974690870329581,5,1554974690869932177,,-0.634694576263,-0.226966947317,2.86683964058
1554974690880780354,6,1554974690880310680,,-0.63603335619,-0.227014422417,2.77631080036
1554974690891179233,7,1554974690890686383,,-0.637465238571,-0.227002650499,2.68491555661
1554974690900449602,8,1554974690900011169,,-0.6388002038,-0.226854339242,2.59309716212
1554974690910848889,9,1554974690910359526,,-0.640190422535,-0.227122619748,2.50198819059
1554974690921265737,10,1554974690920732536,,-0.64154946804,-0.227204754949,2.40693691479
1554974690921278048,11,1554974690920763920,,-0.64279717207,-0.227389886975,2.31595391603
1554974690930419674,12,1554974690929982321,,-0.644086062908,-0.227369040251,2.21853257219
1554974690940752911,13,1554974690940291455,,-0.645303666592,-0.227583095431,2.12431938037
1554974690951051117,14,1554974690950614092,,-0.646559596062,-0.227689221501,2.02435420699
1554974690960414697,15,1554974690959955640,,-0.647731721401,-0.228019997478,1.92688525076
1554974690970742569,16,1554974690970276434,,-0.649067640305,-0.228216528893,1.82540483835
1554974690970855314,17,1554974690970311034,,-0.65021687746,-0.228517428041,1.72794758877
1554974690980703005,18,1554974690980479926,,-0.651443660259,-0.228839278221,1.62605820338
1554974690990878352,19,1554974690990650533,,-0.652646183968,-0.229459494352,1.52486890069
1554974691000461623,20,1554974691000006992,,-0.653861582279,-0.229672461748,1.41813515087
1554974691010753842,21,1554974691010264584,,-0.655224859715,-0.230091333389,1.31591626957
1554974691021141358,22,1554974691020643419,,-0.656479001045,-0.23065392673,1.21056290483
1554974691021267811,23,1554974691020679505,,-0.657702863216,-0.231237947941,1.1057995686
1554974691030057999,24,1554974691029842973,,-0.659366130829,-0.231499820948,0.998593724439
1554974691040310385,25,1554974691040049068,,-0.660614132881,-0.231941312551,0.889793437214
1554974691050801598,26,1554974691050344420,,-0.662098407745,-0.232551798224,0.778837659855
1554974691061128513,27,1554974691060649089,,-0.663671314716,-0.232953995466,0.674854628339
1554974691061285213,28,1554974691060691847,,-0.664990901947,-0.23348467052,0.558368774682
1554974691070323471,29,1554974691069947606,,-0.6665828228,-0.233992576599,0.445717637715
1554974691080767763,30,1554974691080288397,,-0.668165266514,-0.234412282705,0.331086086869
1554974691091129029,31,1554974691090655417,,-0.669832646847,-0.234965279698,0.219308846184
1554974691100413255,32,1554974691099956675,,-0.671491265297,-0.235217437148,0.102685842012
1554974691110834633,33,1554974691110374540,,-0.673238992691,-0.235401660204,-0.0111501445718
1554974691110964366,34,1554974691110409536,,-0.67491465807,-0.235610470176,-0.128441618173
1554974691120964555,35,1554974691120699002,,-0.676740288734,-0.235906556249,-0.253410212267
1554974691130547379,36,1554974691130063685,,-0.678469359875,-0.236190006137,-0.373479672964
1554974691140912757,37,1554974691140435391,,-0.680304706097,-0.236140310764,-0.489648704465
1554974691151223977,38,1554974691150774023,,-0.68226313591,-0.236203044653,-0.609090470515
1554974691160665584,39,1554974691160120340,,-0.684020936489,-0.236146703362,-0.730231363745
1554974691170923067,40,1554974691170494072,,-0.685916781425,-0.236038997769,-0.853964914749
1554974691171081326,41,1554974691170525167,,-0.687818408012,-0.235812172294,-0.976045695262
1554974691180246912,42,1554974691179748967,,-0.689465582371,-0.235698446631,-1.10396148942
1554974691190611712,43,1554974691190124990,,-0.691448867321,-0.235363900661,-1.22732735521
1554974691200919033,44,1554974691200480557,,-0.693123519421,-0.234932199121,-1.35275312407
1554974691211322941,45,1554974691210732235,,-0.694783866405,-0.234429359436,-1.48097646709
1554974691211333171,46,1554974691210767765,,-0.696270048618,-0.234005361795,-1.60932022225
1554974691220176693,47,1554974691219942873,,-0.697899341583,-0.233393192291,-1.73774433875
1554974691230387991,48,1554974691230127582,,-0.699622035027,-0.232853010297,-1.86755036985
1554974691240931666,49,1554974691240437146,,-0.701052248478,-0.232185572386,-1.99932346803
1554974691251216993,50,1554974691250746047,,-0.702551066875,-0.231556147337,-2.12792464579
1554974691260591557,51,1554974691260086225,,-0.703864872456,-0.230885833502,-2.25942340455
1554974691270769577,52,1554974691270338188,,-0.704909265041,-0.230307802558,-2.39432622768
1554974691270920481,53,1554974691270367086,,-0.706142902374,-0.229614064097,-2.52913031712
1554974691290561334,54,1554974691289741709,,-0.707269251347,-0.228851169348,-2.66288114445
1554974691290576270,55,1554974691289784505,,-0.70821917057,-0.228203266859,-2.79655967904
1554974691300205984,56,1554974691299956611,,-0.708985745907,-0.227938964963,-2.93445558097
1554974691310697116,57,1554974691310215346,,-0.70997184515,-0.227529942989,-3.07208834417
1554974691321124194,58,1554974691320625262,,-0.710750162601,-0.226974621415,3.07385237275
1554974691321263540,59,1554974691320661406,,-0.711633980274,-0.226660057902,2.93427651758
1554974691330509033,60,1554974691330019913,,-0.712425649166,-0.22649718821,2.79354654449
1554974691340803953,61,1554974691340323575,,-0.713243842125,-0.226205259562,2.65199953039
1554974691351188494,62,1554974691350701554,,-0.713793754578,-0.226282179356,2.51079190858
1554974691360263946,63,1554974691359984791,,-0.714828252792,-0.226260215044,2.36660718805
1554974691370537517,64,1554974691370161015,,-0.715718507767,-0.226163715124,2.22231020443
1554974691370680983,65,1554974691370190380,,-0.716528952122,-0.226396203041,2.08101771795
1554974691391281151,66,1554974691390798500,,-0.717573940754,-0.226449072361,1.93494464177
1554974691391467426,67,1554974691390832875,,-0.718495368958,-0.226854071021,1.79146885793
1554974691400604507,68,1554974691400129964,,-0.719586551189,-0.227129235864,1.64410599863
1554974691410936238,69,1554974691410416929,,-0.720553219318,-0.227697864175,1.50160937793
1554974691411039191,70,1554974691410450598,,-0.721865177155,-0.228053852916,1.35035852749
1554974691420853637,71,1554974691420616192,,-0.723349988461,-0.228292986751,1.20457212012
1554974691430358022,72,1554974691429849819,,-0.724740624428,-0.228591307998,1.05735890369
1554974691440748906,73,1554974691440235098,,-0.726323187351,-0.228920057416,0.908539230123
1554974691451088388,74,1554974691450616689,,-0.727942049503,-0.229167804122,0.753807761745
1554974691460505938,75,1554974691459986369,,-0.729784727097,-0.229491561651,0.605298279514
1554974691470678641,76,1554974691470250349,,-0.731680631638,-0.229564607143,0.449868687601
1554974691470876992,77,1554974691470279103,,-0.733768224716,-0.229599118233,0.296976334793
1554974691490397843,78,1554974691489845756,,-0.735682249069,-0.229669839144,0.142946293297
1554974691490407274,79,1554974691489880210,,-0.737763106823,-0.229136109352,-0.00767498282311
1554974691500322010,80,1554974691500065309,,-0.739816784859,-0.228904083371,-0.165989229898
1554974691510863001,81,1554974691510369693,,-0.741969645023,-0.228669628501,-0.325804168301
1554974691511089373,82,1554974691510404931,,-0.74418336153,-0.228022187948,-0.478628726358
1554974691520873524,83,1554974691520615918,,-0.746254324913,-0.227285861969,-0.636033666432
1554974691530336907,84,1554974691529848816,,-0.748225986958,-0.226537242532,-0.795091864209
1554974691540689379,85,1554974691540215047,,-0.750409781933,-0.225367635489,-0.949757588917
1554974691551038491,86,1554974691550582865,,-0.752190053463,-0.224476665258,-1.11173279429
1554974691559986916,87,1554974691559726704,,-0.754262566566,-0.223428741097,-1.27372902909
1554974691570391025,88,1554974691569985579,,-0.755968391895,-0.222101524472,-1.43526258035
1554974691570538812,89,1554974691570014563,,-0.757533431053,-0.220679685473,-1.59334526866
1554974691590959582,90,1554974691590489314,,-0.759024262428,-0.219456240535,-1.75858221459
1554974691591131503,91,1554974691590524456,,-0.760432183743,-0.217927634716,-1.92297709769
1554974691600936526,92,1554974691600695059,,-0.761765182018,-0.216582834721,-2.08434936251
1554974691610529016,93,1554974691610038052,,-0.762961924076,-0.215055942535,-2.25164341146
1554974691620841055,94,1554974691620345899,,-0.763780593872,-0.213785037398,-2.41657720184
1554974691621027658,95,1554974691620375355,,-0.764521062374,-0.212545141578,-2.58449251467
1554974691630810029,96,1554974691630564266,,-0.765283226967,-0.211603671312,-2.75224898954
1554974691640256732,97,1554974691639790552,,-0.765834987164,-0.210524737835,-2.91979753272
1554974691650399098,98,1554974691650044727,,-0.766603171825,-0.209608972073,-3.08836140216
1554974691660896931,99,1554974691660383972,,-0.767035782337,-0.208686023951,3.02718679414
1554974691661021359,100,1554974691660419823,,-0.767409026623,-0.207819804549,2.85880616355
1554974691670877430,101,1554974691670597207,,-0.767911493778,-0.207507893443,2.68606077567
1554974691690618640,102,1554974691690131383,,-0.768508434296,-0.207254961133,2.51484373961
1554974691690797177,103,1554974691690163287,,-0.769030213356,-0.206926450133,2.34503270883
1554974691700631463,104,1554974691700342807,,-0.769766449928,-0.206726267934,2.17440470034
1554974691730915738,105,1554974691730453409,,-0.770509958267,-0.206753745675,2.00255589687
1554974691731469944,106,1554974691730500124,,-0.77141970396,-0.206802353263,1.82663993194
1554974691731481866,107,1554974691730528765,,-0.772421002388,-0.206902965903,1.65693162688
1554974691731496050,108,1554974691730545760,,-0.773656070232,-0.207295045257,1.48074575495
1554974691740235790,109,1554974691739770193,,-0.775063157082,-0.207462280989,1.30682636856
1554974691750591486,110,1554974691750146978,,-0.776728510857,-0.207694500685,1.13417743959
1554974691760974937,111,1554974691760495769,,-0.778471946716,-0.207620412111,0.958141056519
1554974691761141913,112,1554974691760529506,,-0.780270040035,-0.207664489746,0.778096461964
1554974691771271047,113,1554974691770812056,,-0.782175123692,-0.20797342062,0.598445898956
1554974691780657040,114,1554974691780183705,,-0.784172475338,-0.207593277097,0.422302754704
1554974691790750850,115,1554974691790452650,,-0.786641299725,-0.207300707698,0.246822002322
1554974691800937909,116,1554974691800687502,,-0.78887373209,-0.206637814641,0.0692537948106
1554974691810508191,117,1554974691810046652,,-0.791228830814,-0.206052258611,-0.113934027214
1554974691820892231,118,1554974691820369334,,-0.793581545353,-0.205103710294,-0.291778948344
1554974691821065929,119,1554974691820410610,,-0.795946776867,-0.20425735414,-0.476856472563
1554974691831138908,120,1554974691830663058,,-0.798204541206,-0.20304055512,-0.658035284971
1554974691840478933,121,1554974691840030802,,-0.800362288952,-0.201641902328,-0.842012163342
1554974691850881080,122,1554974691850401396,,-0.802580416203,-0.200138375163,-1.02752521556
1554974691861254702,123,1554974691860765216,,-0.804759979248,-0.198440417647,-1.20975365626
1554974691861431343,124,1554974691860804554,,-0.806692481041,-0.196805298328,-1.3925872856
1554974691870227280,125,1554974691869961727,,-0.808132231236,-0.194627061486,-1.57743664901
1554974691880788028,126,1554974691880303130,,-0.809670209885,-0.19266448915,-1.75958768292
1554974691910821254,127,1554974691910332920,,-0.811056554317,-0.190747827291,-1.95000106084
1554974691910992577,128,1554974691910375318,,-0.812357246876,-0.188910529017,-2.13406232561
1554974691911145089,129,1554974691910400511,,-0.813160598278,-0.187063962221,-2.32309246228
1554974691911260026,130,1554974691910415375,,-0.813831686974,-0.185335814953,-2.51059258669
1554974691920122882,131,1554974691919910402,,-0.814433217049,-0.183432087302,-2.6962488803
1554974691930741114,132,1554974691930242458,,-0.814889967442,-0.182403638959,-2.88821497538
1554974691941126046,133,1554974691940611780,,-0.815442204475,-0.180960789323,-3.07952140655
1554974691960788300,134,1554974691960316766,,-0.815646886826,-0.179982587695,3.01202049263
1554974691961001895,135,1554974691960367295,,-0.816398859024,-0.178544923663,2.62968035556
1554974691970926824,136,1554974691970634392,,-0.816636145115,-0.178150489926,2.4386192608
1554974691980440053,137,1554974691979983949,,-0.817498803139,-0.177707746625,2.24667447912
1554974691990862764,138,1554974691990350156,,-0.818181574345,-0.177351385355,2.05702187288
1554974692010551658,139,1554974692010022371,,-0.818942904472,-0.177437499166,1.8622315507
1554974692010742405,140,1554974692010061296,,-0.820004582405,-0.177543759346,1.67151065101
1554974692020584467,141,1554974692020285261,,-0.821227788925,-0.177684918046,1.47744202744
1554974692020786419,142,1554974692020302308,,-0.82264405489,-0.177669554949,1.2867660181
1554974692031088622,143,1554974692030616162,,-0.824410736561,-0.177599832416,1.09097556739
1554974692040492719,144,1554974692039989748,,-0.826394498348,-0.17760387063,0.89651691646
1554974692050804370,145,1554974692050322603,,-0.828477203846,-0.177568599582,0.697148346614
1554974692061168543,146,1554974692060702009,,-0.830692946911,-0.176920115948,0.50235781956
1554974692061308727,147,1554974692060736533,,-0.833183526993,-0.176569566131,0.305524792931
1554974692070221869,148,1554974692069921585,,-0.835669398308,-0.175907373428,0.106395111906
1554974692080766418,149,1554974692080305323,,-0.838186621666,-0.174630746245,-0.0910268496623
1554974692091147568,150,1554974692090667728,,-0.840833127499,-0.173705413938,-0.291306796047
1554974692100512432,151,1554974692100032942,,-0.843319416046,-0.172167554498,-0.490421652787
1554974692121131000,152,1554974692120620628,,-0.845774650574,-0.170401006937,-0.688889672658
1554974692121304002,153,1554974692120659561,,-0.848133444786,-0.168456807733,-0.887130231481
1554974692130474093,154,1554974692129994713,,-0.850327849388,-0.166455745697,-1.08471906655
1554974692130627022,155,1554974692130034726,,-0.852240622044,-0.164093971252,-1.28781953214
1554974692140503154,156,1554974692140207694,,-0.853934109211,-0.161799654365,-1.48316311402
1554974692151016006,157,1554974692150546108,,-0.855267643929,-0.159105166793,-1.67605956377
1554974692159951473,158,1554974692159688587,,-0.856285274029,-0.156699389219,-1.87785875572
1554974692170338929,159,1554974692169913028,,-0.857203423977,-0.154250189662,-2.072372636
1554974692170515487,160,1554974692169944950,,-0.857812047005,-0.152037873864,-2.27065593576
1554974692180462138,161,1554974692180161177,,-0.857900679111,-0.150086790323,-2.46486587124
1554974692190999469,162,1554974692190489483,,-0.8580493927,-0.147739604115,-2.6610474345
1554974692200201464,163,1554974692199735184,,-0.858083724976,-0.145805880427,-2.85420417851
1554974692231175779,164,1554974692230663360,,-0.858062148094,-0.144676089287,-3.04776142959
1554974692231343082,165,1554974692230715605,,-0.857510566711,-0.141677126288,2.6618616123
1554974692240525522,166,1554974692240023780,,-0.857481300831,-0.141203433275,2.47414142366
1554974692251242704,167,1554974692250282292,,-0.857802152634,-0.141057044268,2.28415906384
1554974692270260429,168,1554974692269789129,,-0.858344256878,-0.141065448523,2.09583967905
1554974692270403347,169,1554974692269828425,,-0.859921038151,-0.140976205468,1.72543552714
1554974692280569275,170,1554974692280064278,,-0.86102181673,-0.141420379281,1.54027274491
1554974692290889555,171,1554974692290340294,,-0.8624573946,-0.141635671258,1.35993182959
1554974692301205730,172,1554974692300739333,,-0.864389538765,-0.141546756029,1.18127631487
1554974692331073462,173,1554974692330622967,,-0.866264104843,-0.14144936204,0.998960853056
1554974692331260318,174,1554974692330674960,,-0.872900009155,-0.140717595816,0.459687081437
1554974692340509551,175,1554974692340018444,,-0.875504851341,-0.140111476183,0.284874979004
1554974692350887238,176,1554974692350396412,,-0.878036201,-0.139460176229,0.109355936961
1554974692361209595,177,1554974692360744833,,-0.880616009235,-0.138946324587,-0.067086600375
1554974692361354506,178,1554974692360786582,,-0.883189857006,-0.137724876404,-0.243464896562
1554974692380742587,179,1554974692380294799,,-0.885950803757,-0.136800870299,-0.421041566788
1554974692380898195,180,1554974692380337562,,-0.888630747795,-0.135626405478,-0.595491594249
1554974692391131452,181,1554974692390654250,,-0.891227483749,-0.134465768933,-0.769998157677
1554974692400432569,182,1554974692400017752,,-0.893846929073,-0.132965818048,-0.94276733953
1554974692410830115,183,1554974692410376045,,-0.896582603455,-0.131303116679,-1.11386780384
1554974692430490043,184,1554974692429981456,,-0.899134099483,-0.129524126649,-1.28365600623
1554974692430653944,185,1554974692430030996,,-0.903804898262,-0.125563517213,-1.61713638192
1554974692440856636,186,1554974692440362076,,-0.905819535255,-0.123491466045,-1.78066753212
1554974692450798622,187,1554974692450544087,,-0.908008038998,-0.121356330812,-1.94009758924
1554974692460321778,188,1554974692459768436,,-0.909993469715,-0.119004927576,-2.10181624895
1554974692470443070,189,1554974692470022202,,-0.911663413048,-0.116881094873,-2.25695016243
1554974692470599054,190,1554974692470054630,,-0.913099586964,-0.114932589233,-2.41464974262
1554974692480478357,191,1554974692480237720,,-0.914460837841,-0.112745992839,-2.56762073841
1554974692491039446,192,1554974692490559534,,-0.915788352489,-0.110516361892,-2.72073139954
1554974692500293816,193,1554974692499801573,,-0.916865646839,-0.108900211751,-2.87348854426
1554974692510652066,194,1554974692510129547,,-0.917944073677,-0.106701612473,-3.01917929721
1554974692531174775,195,1554974692530666799,,-0.918905794621,-0.105321414769,3.1123124991
1554974692531351243,196,1554974692530713361,,-0.920778632164,-0.102095589042,2.81419884516
1554974692540475658,197,1554974692539973064,,-0.921703994274,-0.100761637092,2.66651690065
1554974692550779499,198,1554974692550305513,,-0.922606050968,-0.0995950996876,2.5182434186
1554974692561107197,199,1554974692560642972,,-0.923556923866,-0.0984403192997,2.37029073064
1554974692570544035,200,1554974692569959608,,-0.924730360508,-0.0974567458034,2.22228485284
1554974692570551865,201,1554974692569996173,,-0.925819456577,-0.0962183624506,2.07193718701
1554974692580467156,202,1554974692580203125,,-0.927230536938,-0.0953566133976,1.92136156298
1554974692591010881,203,1554974692590544092,,-0.928389251232,-0.0945797339082,1.77265686862
1554974692600293145,204,1554974692599810299,,-0.929796874523,-0.0939226895571,1.62121269056
1554974692610669022,205,1554974692610195321,,-0.931358397007,-0.0931254699826,1.47441940996
1554974692640697889,206,1554974692640111134,,-0.933117568493,-0.0922727063298,1.32109491302
1554974692640867291,207,1554974692640152586,,-0.935068130493,-0.0914899259806,1.17301262798
1554974692641116042,208,1554974692640186394,,-0.936996459961,-0.0905414223671,1.01634856303
1554974692641123222,209,1554974692640199857,,-0.939108788967,-0.0897610038519,0.869253303245
1554974692650619077,210,1554974692650376026,,-0.941112577915,-0.0890456661582,0.711368968966
1554974692661176226,211,1554974692660694668,,-0.943322896957,-0.0882049351931,0.566555786464
1554974692670426080,212,1554974692669991648,,-0.945588469505,-0.0872902721167,0.413132819676
1554974692670553476,213,1554974692670023408,,-0.947953224182,-0.0863765627146,0.263543663222
1554974692680519469,214,1554974692680215293,,-0.950489282608,-0.0854272916913,0.114525210376
1554974692691041510,215,1554974692690557766,,-0.95317453146,-0.0843694731593,-0.0344100689024
1554974692700123320,216,1554974692699723240,,-0.955646157265,-0.0832782313228,-0.185711254497
1554974692710700171,217,1554974692710210043,,-0.958244383335,-0.0822019577026,-0.335415001242
1554974692730286275,218,1554974692729781539,,-0.961045503616,-0.0807236433029,-0.481787999452
1554974692730457391,219,1554974692729829527,,-0.966185569763,-0.0777905806899,-0.77540163905
1554974692740619773,220,1554974692740133860,,-0.968589603901,-0.0759694799781,-0.920150312357
1554974692750687019,221,1554974692750349857,,-0.971025586128,-0.0738923549652,-1.06794341574
1554974692760886998,222,1554974692760583073,,-0.973433792591,-0.0716565176845,-1.20967433779
1554974692761058414,223,1554974692760601607,,-0.975489199162,-0.069648489356,-1.35432105787
1554974692780551248,224,1554974692780055432,,-0.977555274963,-0.0673765391111,-1.49684834665
1554974692780728311,225,1554974692780095638,,-0.979288220406,-0.0653344467282,-1.63943892622
1554974692790872126,226,1554974692790360540,,-0.981096148491,-0.0628540366888,-1.7797014092
1554974692801120763,227,1554974692800659200,,-0.982535660267,-0.0605435110629,-1.92573340382
1554974692810502661,228,1554974692810004449,,-0.983672618866,-0.0584780611098,-2.06810667978
1554974692820863595,229,1554974692820358916,,-0.985044240952,-0.0561674982309,-2.20750249101
1554974692840250579,230,1554974692839761920,,-0.98590695858,-0.0541139431298,-2.34569163338
1554974692840411390,231,1554974692839806327,,-0.987644016743,-0.0494812950492,-2.62942119215
1554974692850380633,232,1554974692849993822,,-0.988430380821,-0.0475098825991,-2.77059419024
1554974692860818534,233,1554974692860350641,,-0.989210963249,-0.04557370767,-2.908007465
1554974692860973789,234,1554974692860401337,,-0.98991048336,-0.0435290113091,-3.04570567579
1554974692871145451,235,1554974692870673473,,-0.990549445152,-0.0416459813714,3.09745983565
1554974692880555254,236,1554974692880064579,,-0.991064369678,-0.0394344255328,2.95938998835
1554974692890986541,237,1554974692890434179,,-0.991613030434,-0.0377688407898,2.82362590941
1554974692901255956,238,1554974692900785990,,-0.992253482342,-0.0360891185701,2.68314073932
1554974692910720365,239,1554974692910195312,,-0.992827117443,-0.0342419631779,2.54735574018
1554974692910862631,240,1554974692910239085,,-0.993234694004,-0.0324574485421,2.40787749369
1554974692940617313,241,1554974692940084035,,-0.993773162365,-0.030801711604,2.27145311727
1554974692940773226,242,1554974692940128711,,-0.995021343231,-0.0273663662374,2.00705516612
1554974692950549008,243,1554974692950283331,,-0.995613992214,-0.025999031961,1.87119508824
1554974692960691129,244,1554974692960455360,,-0.996270298958,-0.0245591625571,1.73881809518
1554974692960837791,245,1554974692960483985,,-0.996658265591,-0.023312555626,1.60784757718
1554974692980501955,246,1554974692980013224,,-0.997282862663,-0.0218094792217,1.47359959494
1554974692980680176,247,1554974692980053123,,-0.998060941696,-0.020361751318,1.34478096435
1554974692990865738,248,1554974692990365352,,-0.998737573624,-0.0193806346506,1.21461823375
1554974693001197662,249,1554974693000749564,,-0.999462306499,-0.0177187435329,1.08505064008
1554974693010557214,250,1554974693010083860,,-1.00040411949,-0.0164952836931,0.955560430068
1554974693020998721,251,1554974693020467799,,-1.00120007992,-0.0152598116547,0.824430321951
1554974693050901259,252,1554974693050381588,,-1.00226986408,-0.0140056246892,0.693354527773
1554974693051034854,253,1554974693050422480,,-1.00337183475,-0.0127123072743,0.565795587569
1554974693051266948,254,1554974693050450397,,-1.00445890427,-0.0112750548869,0.434943908796
1554974693051275246,255,1554974693050465558,,-1.00569844246,-0.00984120927751,0.308195573887
1554974693060885873,256,1554974693060628445,,-1.00712060928,-0.00806794129312,0.177584151995
1554974693061007485,257,1554974693060646058,,-1.00861668587,-0.00617706216872,0.0535563171898
1554974693070237573,258,1554974693069836427,,-1.00996220112,-0.00442383205518,-0.0754051142224
1554974693080599686,259,1554974693080152893,,-1.01145541668,-0.00251522217877,-0.202131576673
1554974693090910076,260,1554974693090415896,,-1.01295638084,-0.000361802871339,-0.331033735789
1554974693101232470,261,1554974693100743097,,-1.01460266113,0.00204512896016,-0.453356937377
1554974693110676968,262,1554974693110175959,,-1.01616704464,0.00428373739123,-0.578476569375
1554974693110827421,263,1554974693110218559,,-1.01763367653,0.00703628687188,-0.7028049395
1554974693130267547,264,1554974693129751214,,-1.01928067207,0.00947736762464,-0.82479502772
1554974693150910532,265,1554974693150455630,,-1.02088475227,0.0121543360874,-0.944117151949
1554974693151067380,266,1554974693150492082,,-1.02232766151,0.0149260079488,-1.07321337548
1554974693151192784,267,1554974693150520458,,-1.02392017841,0.0178653486073,-1.19379941119
1554974693160970994,268,1554974693160708958,,-1.02555251122,0.0208340287209,-1.31466362698
1554974693161135870,269,1554974693160744401,,-1.02713465691,0.0237989332527,-1.43948129784
1554974693170226076,270,1554974693169964996,,-1.02861690521,0.026686264202,-1.56187848619
1554974693180766326,271,1554974693180322399,,-1.03007185459,0.0298443287611,-1.68487973831
1554974693191142223,272,1554974693190639943,,-1.03155434132,0.0330406166613,-1.81001198673
1554974693200507749,273,1554974693200026917,,-1.03284668922,0.0360482744873,-1.92821170676
1554974693210881145,274,1554974693210393388,,-1.03451764584,0.0391482077539,-2.05058626574
1554974693211075249,275,1554974693210431799,,-1.03599309921,0.042476259172,-2.17128517664
1554974693221249256,276,1554974693220759859,,-1.03737568855,0.04575560987,-2.2903578014
1554974693251055479,277,1554974693250574581,,-1.03858244419,0.0489949956536,-2.40612272043
1554974693251249731,278,1554974693250623201,,-1.04098474979,0.0555671602488,-2.64379761251
1554974693260340132,279,1554974693259845456,,-1.04223573208,0.0592261441052,-2.75948174388
1554974693270604535,280,1554974693270073659,,-1.0431907177,0.0622199736536,-2.87726855045
1554974693270613034,281,1554974693270104502,,-1.04434585571,0.0657739266753,-2.99187570437
1554974693280680778,282,1554974693280312839,,-1.04540109634,0.0691481381655,-3.10903499226
1554974693291130252,283,1554974693290558868,,-1.04662179947,0.0725593715906,3.05988387714
1554974693300286645,284,1554974693299820753,,-1.04768419266,0.0760215073824,2.94307865852
1554974693310717689,285,1554974693310203942,,-1.04853832722,0.0795002803206,2.83311664944
1554974693321143715,286,1554974693320624537,,-1.04942321777,0.0825002789497,2.71839136881
1554974693321298563,287,1554974693320668791,,-1.05034863949,0.0856132209301,2.60579689573
1554974693351121954,288,1554974693350618164,,-1.05099725723,0.0888988673687,2.49314795183
1554974693351285876,289,1554974693350664868,,-1.05280184746,0.0952015593648,2.28081909873
1554974693360429818,290,1554974693359954470,,-1.0534927845,0.0982105135918,2.17329813381
1554974693370558198,291,1554974693370181756,,-1.05430030823,0.10147896409,2.0678219948
1554974693381009566,292,1554974693380537059,,-1.05496776104,0.104160808027,1.96830813643
1554974693381168816,293,1554974693380571832,,-1.05583107471,0.107350289822,1.86559953176
1554974693390237899,294,1554974693389772832,,-1.05656194687,0.109883487225,1.76795653025
1554974693400591559,295,1554974693400126231,,-1.05730855465,0.112810082734,1.67218543851
1554974693410929738,296,1554974693410455580,,-1.05783843994,0.115282334387,1.57688824597
1554974693411152179,297,1554974693410490553,,-1.05870425701,0.118140645325,1.48153442271
1554974693421263881,298,1554974693420792119,,-1.05946779251,0.120768725872,1.38886266689
1554974693430590935,299,1554974693430105717,,-1.06025242805,0.123320378363,1.29711964877
1554974693451155860,300,1554974693450642831,,-1.06106221676,0.125863388181,1.20878499626
1554974693451347004,301,1554974693450687494,,-1.06196117401,0.128404766321,1.12445282156
1554974693460576558,302,1554974693460039077,,-1.06282639503,0.130713492632,1.03737540163
1554974693470864966,303,1554974693470336273,,-1.06353056431,0.133191540837,0.948279327413
1554974693470935250,304,1554974693470367267,,-1.06434524059,0.135222226381,0.863096017557
1554974693480795910,305,1554974693480516488,,-1.06521332264,0.137848258018,0.78189025914
1554974693490267075,306,1554974693489756220,,-1.06636428833,0.140246465802,0.699792408254
1554974693500578143,307,1554974693500124853,,-1.06717824936,0.142186835408,0.626062213934
1554974693510897922,308,1554974693510429432,,-1.06812477112,0.144475713372,0.547557469865
1554974693511056509,309,1554974693510465867,,-1.06907451153,0.146434381604,0.470160887697
1554974693521195885,310,1554974693520713494,,-1.07019150257,0.148412033916,0.396747787748
1554974693530557690,311,1554974693530059149,,-1.07123410702,0.15039357543,0.323470450342
1554974693551193143,312,1554974693550674427,,-1.07223796844,0.152144595981,0.247591641324
1554974693551339893,313,1554974693550710201,,-1.07344079018,0.154087036848,0.174822087618
1554974693560196485,314,1554974693559883704,,-1.07447576523,0.155657082796,0.0998146756424
1554974693570641061,315,1554974693570169883,,-1.07564973831,0.157349854708,0.0273083432775
1554974693570783182,316,1554974693570199290,,-1.07696139812,0.158889368176,-0.0461772331746
1554974693581038984,317,1554974693580552827,,-1.07832419872,0.160250753164,-0.116209490787
1554974693590208366,318,1554974693589765298,,-1.07959723473,0.161588832736,-0.191274375147
1554974693600561374,319,1554974693600102947,,-1.08101451397,0.163152143359,-0.263754052262
1554974693610917310,320,1554974693610448366,,-1.0824650526,0.164267301559,-0.338855725725
1554974693611058853,321,1554974693610483716,,-1.08396065235,0.16566182673,-0.408888817307
1554974693621258813,322,1554974693620802131,,-1.08570992947,0.167328849435,-0.480501777495
1554974693630630632,323,1554974693630188201,,-1.08737444878,0.168478399515,-0.552820852758
1554974693660710493,324,1554974693660182529,,-1.08896136284,0.170078828931,-0.625364884384
1554974693661061446,325,1554974693660222713,,-1.09057056904,0.171486601233,-0.697285268739
1554974693661071438,326,1554974693660248138,,-1.09226739407,0.173207521439,-0.768284157078
1554974693661090270,327,1554974693660264229,,-1.09393489361,0.174831211567,-0.831634059397
1554974693670702429,328,1554974693670444721,,-1.09551298618,0.176281794906,-0.908473430535
1554974693680941023,329,1554974693680638479,,-1.09712553024,0.178126335144,-0.979146359373
1554974693690195114,330,1554974693689907483,,-1.09881544113,0.180091381073,-1.04798143492
1554974693700509516,331,1554974693700115161,,-1.10023319721,0.181688144803,-1.11780141475
1554974693710981291,332,1554974693710486734,,-1.10193276405,0.183862119913,-1.18589031627
1554974693711142595,333,1554974693710520426,,-1.10336649418,0.18564876914,-1.25203053311
1554974693720955093,334,1554974693720709161,,-1.10480773449,0.187435761094,-1.31952052566
1554974693730189445,335,1554974693729867832,,-1.10626339912,0.189429879189,-1.39081369475
1554974693761397441,336,1554974693760785515,,-1.10762870312,0.191558033228,-1.45620263616
1554974693761455175,337,1554974693760838427,,-1.11195993423,0.197809755802,-1.64897804612
1554974693780710845,338,1554974693780247224,,-1.11369168758,0.199632778764,-1.70835810846
1554974693780874568,339,1554974693780278243,,-1.11493885517,0.202237173915,-1.77433518742
1554974693791070512,340,1554974693790581591,,-1.11633765697,0.204578325152,-1.831914935
1554974693800332036,341,1554974693799829169,,-1.11783623695,0.206788778305,-1.89187958196
1554974693810676335,342,1554974693810178875,,-1.11921322346,0.208985924721,-1.95141573971
1554974693810840631,343,1554974693810213012,,-1.12052583694,0.211280763149,-2.00845869447
1554974693821015296,344,1554974693820489079,,-1.12202215195,0.213742092252,-2.06481782369
1554974693831265719,345,1554974693830798143,,-1.12351763248,0.216141581535,-2.12148094408
1554974693840614152,346,1554974693840154482,,-1.12489104271,0.218666344881,-2.17599230397
1554974693861269983,347,1554974693860770538,,-1.12634980679,0.22122220695,-2.22697589412
1554974693861449065,348,1554974693860816791,,-1.12895691395,0.226456284523,-2.33074339071
1554974693870467847,349,1554974693870037247,,-1.13030147552,0.229233056307,-2.37540210056
1554974693880767991,350,1554974693880313960,,-1.13191771507,0.23169003427,-2.42633760379
1554974693891128295,351,1554974693890656833,,-1.13335347176,0.235027581453,-2.46886709736
1554974693900446216,352,1554974693899989660,,-1.13464796543,0.237708300352,-2.5141885602
1554974693910781264,353,1554974693910281427,,-1.13599383831,0.240452334285,-2.55652503428
1554974693910958445,354,1554974693910314594,,-1.13722646236,0.243671238422,-2.59917679758
1554974693921092937,355,1554974693920571081,,-1.13863635063,0.246410652995,-2.64703485942
1554974693930303742,356,1554974693929814348,,-1.13984167576,0.249360844493,-2.68411212074
1554974693940615508,357,1554974693940147572,,-1.14122116566,0.25215819478,-2.72514689563
1554974693961303710,358,1554974693960803197,,-1.14237368107,0.254963248968,-2.77146895545
1554974693961485152,359,1554974693960849433,,-1.1446467638,0.26063811779,-2.84746636283
1554974693970498838,360,1554974693970037221,,-1.14587473869,0.263688385487,-2.88388778013
1554974693980843974,361,1554974693980359905,,-1.14689183235,0.266635328531,-2.92175229471
1554974693991132545,362,1554974693990620314,,-1.1481616497,0.269505381584,-2.95609111769
1554974694000439313,363,1554974693999952595,,-1.14891672134,0.272329956293,-2.99814343978
1554974694010752289,364,1554974694010282472,,-1.1500890255,0.275325059891,-3.0284834703
1554974694010902036,365,1554974694010320960,,-1.15109395981,0.278170913458,-3.0666927519
1554974694020786143,366,1554974694020510955,,-1.15197300911,0.280598670244,-3.10082864137
1554974694030227818,367,1554974694029733021,,-1.15275239944,0.283241868019,-3.13932042
1554974694040478907,368,1554974694040018610,,-1.15386474133,0.28640332818,3.1106389483
1554974694061081092,369,1554974694060611081,,-1.15470051765,0.288837403059,3.07481552736
1554974694061251001,370,1554974694060655636,,-1.15666162968,0.293894529343,3.00280775119
1554974694070421846,371,1554974694069848087,,-1.15742862225,0.296520888805,2.96622216119
1554974694080573011,372,1554974694080118062,,-1.158203125,0.298745602369,2.93081510089
1554974694090918009,373,1554974694090460393,,-1.15899038315,0.301494657993,2.89908089415
1554974694100210346,374,1554974694099723693,,-1.1597776413,0.303760111332,2.87089398172
1554974694110598311,375,1554974694110119620,,-1.16057956219,0.30622407794,2.83600047835
1554974694110717578,376,1554974694110157883,,-1.16134762764,0.308263301849,2.80512796773
1554974694120666753,377,1554974694120396790,,-1.16201841831,0.310897558928,2.77601249569
1554974694131150766,378,1554974694130692815,,-1.16267681122,0.313097029924,2.74136187084
1554974694140553840,379,1554974694140059117,,-1.1633156538,0.315343230963,2.71496768504
1554974694150854236,380,1554974694150394183,,-1.16381645203,0.317909926176,2.68378555645
1554974694170496214,381,1554974694170001100,,-1.16424918175,0.320428729057,2.65864959312
1554974694170692665,382,1554974694170040060,,-1.16473829746,0.322610527277,2.63364032626
1554974694180501875,383,1554974694180222360,,-1.16521191597,0.325155496597,2.61001222242
1554974694180645196,384,1554974694180239368,,-1.16570997238,0.327876985073,2.58879488738
1554974694190677369,385,1554974694190426699,,-1.16590178013,0.330552637577,2.56796724492
1554974694201185495,386,1554974694200724414,,-1.16610848904,0.333042114973,2.54656465015
1554974694210593650,387,1554974694210048834,,-1.16626918316,0.335586279631,2.52822690851
1554974694210776015,388,1554974694210086370,,-1.16630327702,0.338374704123,2.51026876078
1554974694220989865,389,1554974694220342284,,-1.16637086868,0.341183066368,2.49230799297
1554974694231130561,390,1554974694230543614,,-1.16613829136,0.343829452991,2.48095813804
1554974694240357389,391,1554974694239737218,,-1.16610491276,0.346862375736,2.46446252989
1554974694250705588,392,1554974694250005336,,-1.16580021381,0.349522680044,2.44895049925
1554974694271108154,393,1554974694270462863,,-1.16533565521,0.352853745222,2.4333505236
1554974694271339120,394,1554974694270520559,,-1.16493606567,0.355342328548,2.41916635012
1554974694271552516,395,1554974694270567774,,-1.16412448883,0.358706861734,2.4085387568
1554974694280397060,396,1554974694279748401,,-1.16353499889,0.362098395824,2.40146187368
1554974694290473967,397,1554974694290025612,,-1.16275918484,0.365204244852,2.38581453089
1554974694300813726,398,1554974694300339041,,-1.16171205044,0.36827814579,2.37660803196
1554974694311175034,399,1554974694310699404,,-1.160820961,0.371908813715,2.36141944566
1554974694311343517,400,1554974694310731026,,-1.15951681137,0.374781876802,2.35147015549
1554974694320213789,401,1554974694319904537,,-1.15849459171,0.378186225891,2.340794293
1554974694330456575,402,1554974694330161283,,-1.15720975399,0.381822139025,2.32306967609
1554974694340964966,403,1554974694340494417,,-1.15580463409,0.385283559561,2.31437653159
1554974694350209452,404,1554974694349752047,,-1.15455520153,0.389228194952,2.2942043835
1554974694370782409,405,1554974694370300662,,-1.15277183056,0.39257133007,2.28378908309
1554974694370925161,406,1554974694370340440,,-1.14965987206,0.399744212627,2.24640669878
1554974694381062128,407,1554974694380627170,,-1.14794027805,0.403470665216,2.23546882724
1554974694390317844,408,1554974694389884379,,-1.14632833004,0.407164305449,2.21397070929
1554974694400419857,409,1554974694400134760,,-1.14453685284,0.410739392042,2.19577516925
1554974694410908696,410,1554974694410428992,,-1.14266324043,0.414340555668,2.17448173217
1554974694411084494,411,1554974694410464823,,-1.14062798023,0.41815623641,2.15491685138
1554974694421201891,412,1554974694420733209,,-1.13886964321,0.421573489904,2.13473155202
1554974694430475217,413,1554974694430039635,,-1.13693928719,0.425418645144,2.1097957303
1554974694440890305,414,1554974694440397586,,-1.13516891003,0.42896810174,2.09062192558
1554974694451129200,415,1554974694450687195,,-1.13317501545,0.432883471251,2.06666691297
1554974694481241639,416,1554974694480568174,,-1.13121497631,0.436244428158,2.04254127081
1554974694481396004,417,1554974694480608209,,-1.12950742245,0.439903825521,2.02115116978
1554974694481624629,418,1554974694480633085,,-1.12769317627,0.443640887737,1.99702368259
1554974694481632315,419,1554974694480648644,,-1.12562561035,0.447075515985,1.97508358045
1554974694490045564,420,1554974694489808713,,-1.12383532524,0.450670212507,1.9560374184
1554974694500529684,421,1554974694500080700,,-1.12208688259,0.453932702541,1.9339995571
1554974694510894131,422,1554974694510425583,,-1.120190382,0.457319319248,1.91202485546
1554974694511170316,423,1554974694510461547,,-1.11829411983,0.461006909609,1.88903644662
1554974694520189234,424,1554974694519726317,,-1.11624312401,0.464146345854,1.86877291064
1554974694530567801,425,1554974694530106222,,-1.11447095871,0.467920154333,1.84259135076
1554974694540938146,426,1554974694540457764,,-1.11245918274,0.471409648657,1.82471079087
1554974694551276081,427,1554974694550818023,,-1.11059820652,0.474819809198,1.79920101419
1554974694560676935,428,1554974694560202613,,-1.10839617252,0.478345483541,1.77094233019
1554974694581226495,429,1554974694580765708,,-1.10640692711,0.48150241375,1.74485711737
1554974694581382315,430,1554974694580810204,,-1.10232722759,0.48858833313,1.68926147176
1554974694590551310,431,1554974694590107783,,-1.10035312176,0.492116928101,1.65525941978
1554974694600962517,432,1554974694600479219,,-1.09812092781,0.495334029198,1.63005273817
1554974694610944872,433,1554974694610678601,,-1.09560418129,0.498738318682,1.59656333229
1554974694611132257,434,1554974694610716336,,-1.09353005886,0.501686990261,1.56443012431
1554974694620452192,435,1554974694620019248,,-1.09109377861,0.505348086357,1.53568085707
1554974694630855461,436,1554974694630382750,,-1.08876359463,0.508330404758,1.50433769029
1554974694640961710,437,1554974694640673357,,-1.08640122414,0.511264562607,1.4710164054
1554974694650150632,438,1554974694649872125,,-1.08401191235,0.514737546444,1.44289371811
1554974694660705670,439,1554974694660229461,,-1.08152759075,0.517845332623,1.407958958
1554974694681277450,440,1554974694680782200,,-1.07916033268,0.520846962929,1.38117143058
1554974694681502285,441,1554974694680828108,,-1.07383072376,0.526711463928,1.32239544692
1554974694690360390,442,1554974694690054328,,-1.07135009766,0.529600560665,1.29697764257
1554974694700670691,443,1554974694700256120,,-1.06883239746,0.532617747784,1.26874623921
1554974694711200384,444,1554974694710698125,,-1.06615781784,0.535341560841,1.24966440175
1554974694720551992,445,1554974694720055207,,-1.06339585781,0.537905097008,1.22426794873
1554974694720753125,446,1554974694720087516,,-1.0606777668,0.540571033955,1.20420769745
1554974694730563796,447,1554974694730278362,,-1.05818271637,0.543227553368,1.17955868525
1554974694741119894,448,1554974694740610743,,-1.05518734455,0.545947194099,1.1604434322
1554974694750460454,449,1554974694749976003,,-1.05256783962,0.548786103725,1.14242340006
1554974694760829411,450,1554974694760364305,,-1.0498354435,0.551264762878,1.1221293926
1554974694790713013,451,1554974694790155820,,-1.04733324051,0.553618729115,1.09941576487
1554974694790893016,452,1554974694790206459,,-1.03944647312,0.560805916786,1.04539002242
1554974694800681454,453,1554974694800397310,,-1.03713738918,0.563657104969,1.0285223556
1554974694811238136,454,1554974694810740554,,-1.03467714787,0.565921664238,1.01347294952
1554974694811403469,455,1554974694810780910,,-1.03206253052,0.568264782429,0.990820558471
1554974694820594236,456,1554974694820111838,,-1.02958893776,0.570455312729,0.975411021144
1554974694830929156,457,1554974694830456018,,-1.02730488777,0.573052883148,0.965079253291
1554974694841288398,458,1554974694840818010,,-1.02479124069,0.575356602669,0.942876331978
1554974694850655987,459,1554974694850197011,,-1.02244329453,0.577610313892,0.927949599061
1554974694861019556,460,1554974694860563224,,-1.01974987984,0.579534888268,0.909661726626
1554974694861223940,461,1554974694860599001,,-1.01728475094,0.581504702568,0.892883905731
1554974694890353562,462,1554974694890049860,,-1.01508712769,0.583351016045,0.882167176863
1554974694890507929,463,1554974694890088180,,-1.01224863529,0.584982335567,0.864339857885
1554974694890657051,464,1554974694890102795,,-1.00959527493,0.586581408978,0.847940643647
1554974694900559670,465,1554974694900286204,,-1.00699949265,0.58821862936,0.830074314184
1554974694911069383,466,1554974694910616825,,-1.00428175926,0.589666962624,0.816452021861
1554974694911247961,467,1554974694910650225,,-1.0015052557,0.590887606144,0.802402129159
1554974694920100586,468,1554974694919833415,,-0.998868703842,0.592277288437,0.786054538627
1554974694930554644,469,1554974694930094007,,-0.996241807938,0.593391895294,0.770728901369
1554974694940902280,470,1554974694940434009,,-0.993559718132,0.594496846199,0.758582439363
1554974694951159959,471,1554974694950725776,,-0.990916907787,0.59538936615,0.747734163209
1554974694960559585,472,1554974694960092208,,-0.988249063492,0.596225142479,0.735904472412
1554974694970739356,473,1554974694970338618,,-0.985561788082,0.596991360188,0.726444278288
1554974694990557714,474,1554974694990067549,,-0.982818484306,0.597527086735,0.720366275816
1554974694990704105,475,1554974694990108645,,-0.980220377445,0.598370671272,0.7104974773
1554974694990829624,476,1554974694990141542,,-0.977625906467,0.598866760731,0.705700287611
1554974695000540983,477,1554974695000326692,,-0.975130140781,0.599690079689,0.697921715152
1554974695011086515,478,1554974695010635094,,-0.972304046154,0.59977966547,0.694059662304
1554974695011251331,479,1554974695010674991,,-0.969644069672,0.600038409233,0.691849057502
1554974695020180504,480,1554974695019891014,,-0.967191636562,0.600359618664,0.690372750738
1554974695030725025,481,1554974695030246271,,-0.964557349682,0.600599110126,0.689632021398
1554974695041113391,482,1554974695040619232,,-0.96196949482,0.600764036179,0.690804702737
1554974695050319283,483,1554974695049870435,,-0.959296405315,0.600638091564,0.688362965903
1554974695060671153,484,1554974695060188927,,-0.956829607487,0.600612580776,0.689957377021
1554974695060819227,485,1554974695060228341,,-0.954033195972,0.60017478466,0.691162281117
1554974695093482653,486,1554974695089966096,,-0.951258122921,0.599947392941,0.692754584832
1554974695093490308,487,1554974695090006219,,-0.948803901672,0.599579453468,0.692891247087
1554974695093496547,488,1554974695090038516,,-0.945991516113,0.599107086658,0.692902846065
1554974695100873053,489,1554974695100399483,,-0.943377733231,0.598506748676,0.700448161203
1554974695111250315,490,1554974695110772696,,-0.940608084202,0.59773337841,0.699514062658
1554974695111413650,491,1554974695110811777,,-0.937914609909,0.596931993961,0.703269635272
1554974695120343760,492,1554974695120079362,,-0.935098290443,0.595999181271,0.704620957117
1554974695130873444,493,1554974695130420669,,-0.932452201843,0.595134198666,0.709027542589
1554974695141243223,494,1554974695140797795,,-0.929612934589,0.594050705433,0.711031452134
1554974695150517890,495,1554974695150065451,,-0.927018582821,0.593069434166,0.712516571885
1554974695160877356,496,1554974695160420162,,-0.924342155457,0.592089772224,0.717687700436
1554974695161046990,497,1554974695160460744,,-0.921815812588,0.590971887112,0.7238925581
1554974695190881877,498,1554974695190377447,,-0.919072508812,0.590207755566,0.726377851553
1554974695191047240,499,1554974695190420941,,-0.916537582874,0.589080989361,0.731166274195
1554974695191179166,500,1554974695190457999,,-0.914172172546,0.588508367538,0.733485358892
1554974695200935208,501,1554974695200669244,,-0.911583960056,0.587297677994,0.736979253213
1554974695210488723,502,1554974695210016716,,-0.909187853336,0.58635956049,0.73844449311
1554974695210638402,503,1554974695210058403,,-0.907058000565,0.585401058197,0.744067876
1554974695220874551,504,1554974695220324764,,-0.904660642147,0.584276914597,0.748089235947
1554974695231124911,505,1554974695230608575,,-0.90213394165,0.583478987217,0.749916169171
1554974695240457566,506,1554974695239962107,,-0.899997591972,0.582793235779,0.755206866223
1554974695250805689,507,1554974695250335008,,-0.897757291794,0.581607341766,0.756360177047
1554974695261168594,508,1554974695260697890,,-0.895508468151,0.580772936344,0.760227158761
1554974695261325420,509,1554974695260732884,,-0.893389999866,0.57996314764,0.764509276577
1554974695270251402,510,1554974695269959434,,-0.891050219536,0.578909993172,0.766658274233
1554974695301261351,511,1554974695300806067,,-0.888668835163,0.577728509903,0.761764246302
1554974695301477444,512,1554974695300851154,,-0.884123325348,0.575576841831,0.759544136271
1554974695310657540,513,1554974695310182678,,-0.88194078207,0.574637115002,0.758617036347
1554974695310786794,514,1554974695310220432,,-0.879666507244,0.573537826538,0.755759562586
1554974695320700788,515,1554974695320404974,,-0.877331674099,0.571879446507,0.746833521994
1554974695330951499,516,1554974695330650680,,-0.875084519386,0.570858716965,0.745203438266
1554974695340519665,517,1554974695340005833,,-0.87276995182,0.569657623768,0.73898827671
1554974695350753265,518,1554974695350242032,,-0.870495140553,0.568271100521,0.731994730366
1554974695361104678,519,1554974695360597671,,-0.868239402771,0.566917896271,0.723586599527
1554974695361285246,520,1554974695360635691,,-0.865972757339,0.565410375595,0.710945942774
1554974695370081966,521,1554974695369803655,,-0.863704025745,0.564114928246,0.697971425534
1554974695401255568,522,1554974695400799557,,-0.861382961273,0.562966346741,0.686004736997
1554974695401397986,523,1554974695400845445,,-0.85683619976,0.55943852663,0.662688446112
1554974695410346608,524,1554974695410034037,,-0.854613244534,0.55792504549,0.645969649794
1554974695420819868,525,1554974695420328719,,-0.852285146713,0.556532084942,0.630912537072
1554974695420942431,526,1554974695420361598,,-0.849877953529,0.554801642895,0.61397283915
1554974695430753305,527,1554974695430475136,,-0.847711384296,0.553228497505,0.593284270488
1554974695441284141,528,1554974695440795300,,-0.845343768597,0.551398277283,0.574496935409
1554974695450351083,529,1554974695450071793,,-0.843336820602,0.549795567989,0.552819125124
1554974695460906045,530,1554974695460414318,,-0.840694189072,0.547634601593,0.530870314782
1554974695461079529,531,1554974695460453449,,-0.838501632214,0.545659184456,0.509486999987
1554974695470957874,532,1554974695470670907,,-0.836168408394,0.543831110001,0.482035382354
1554974695500949807,533,1554974695500496732,,-0.834004282951,0.542223036289,0.460554528732
1554974695501152285,534,1554974695500541658,,-0.829418420792,0.538387835026,0.405755782535
1554974695510318349,535,1554974695509768694,,-0.827286124229,0.536433815956,0.380319762646
1554974695520526171,536,1554974695520068507,,-0.825196623802,0.5341360569,0.350824987948
1554974695520688320,537,1554974695520099247,,-0.8230022192,0.532278895378,0.322761738279
1554974695530552326,538,1554974695530253254,,-0.820858120918,0.529828190804,0.290736007087
1554974695540720204,539,1554974695540455005,,-0.818616211414,0.527608752251,0.261394427313
1554974695551266134,540,1554974695550771628,,-0.81660503149,0.525691092014,0.228963508459
1554974695560662094,541,1554974695560083671,,-0.814614295959,0.5235055089,0.193399854701
1554974695560759095,542,1554974695560122645,,-0.812705993652,0.521446228027,0.159795772789
1554974695570577783,543,1554974695570293334,,-0.810538947582,0.519214987755,0.124261446065
1554974695581059459,544,1554974695580600666,,-0.80858528614,0.516615748405,0.0879201957499
1554974695600618234,545,1554974695600127504,,-0.806690394878,0.51400667429,0.0476325207617
1554974695600772440,546,1554974695600162908,,-0.804708957672,0.512209296227,0.0109346209504
1554974695610904891,547,1554974695610446428,,-0.802997887135,0.509642243385,-0.0327869440993
1554974695611116861,548,1554974695610483305,,-0.801164507866,0.507262766361,-0.0722074502956
1554974695630140198,549,1554974695629855857,,-0.799446821213,0.504977107048,-0.11107305224
1554974695630299904,550,1554974695629874233,,-0.797729969025,0.502342402935,-0.153748657516
1554974695640296219,551,1554974695640063160,,-0.796279728413,0.499982059002,-0.193115654367
1554974695650484111,552,1554974695650241763,,-0.794738054276,0.497352749109,-0.22850010289
1554974695660683850,553,1554974695660430322,,-0.793247640133,0.495036810637,-0.267627304818
1554974695660839024,554,1554974695660447897,,-0.791803061962,0.492665797472,-0.302190601933
1554974695671016792,555,1554974695670667788,,-0.790617823601,0.489801377058,-0.341812717906
1554974695680429629,556,1554974695679978269,,-0.789289593697,0.487457364798,-0.376188002163
1554974695700906549,557,1554974695700469771,,-0.788160502911,0.4850679636,-0.405168019429
1554974695701076968,558,1554974695700501413,,-0.787002563477,0.482569992542,-0.438641207515
1554974695710262042,559,1554974695709794405,,-0.786142885685,0.47993850708,-0.467419817659
1554974695720641051,560,1554974695720165640,,-0.78517639637,0.47737082839,-0.495630124993
1554974695720817035,561,1554974695720200691,,-0.784170627594,0.474838495255,-0.526219305115
1554974695730637222,562,1554974695730355084,,-0.783488988876,0.472335904837,-0.552978652872
1554974695741202031,563,1554974695740661657,,-0.782456219196,0.469619184732,-0.589639792778
1554974695750417132,564,1554974695749983013,,-0.781859338284,0.467288047075,-0.616761915495
1554974695760784982,565,1554974695760283906,,-0.781254351139,0.464505493641,-0.647817554574
1554974695760955583,566,1554974695760321850,,-0.780622422695,0.462058007717,-0.681002260082
1554974695770963498,567,1554974695770500319,,-0.779944956303,0.459464818239,-0.714076798154
1554974695781243788,568,1554974695780777984,,-0.779467403889,0.456607073545,-0.749033133082
1554974695811024288,569,1554974695810467967,,-0.779137134552,0.454273849726,-0.781524791476
1554974695811212424,570,1554974695810520112,,-0.778193414211,0.446621239185,-0.888446836962
1554974695821239799,571,1554974695820771099,,-0.777957558632,0.444272100925,-0.926310712504
1554974695830586835,572,1554974695830103246,,-0.777783751488,0.441933006048,-0.963743716358
1554974695840900984,573,1554974695840435785,,-0.777506291866,0.439542382956,-1.00163803781
1554974695851255764,574,1554974695850777243,,-0.777318835258,0.437529861927,-1.03463666741
1554974695860470010,575,1554974695860073750,,-0.777215123177,0.435349106789,-1.07251656018
1554974695870822700,576,1554974695870354470,,-0.776898980141,0.433172345161,-1.11091574781
1554974695870958955,577,1554974695870388963,,-0.776723861694,0.43126475811,-1.14740078171
1554974695881243804,578,1554974695880742236,,-0.776615917683,0.429266124964,-1.18730281409
1554974695911278782,579,1554974695910784495,,-0.776394605637,0.427267253399,-1.22174698307
1554974695911629252,580,1554974695910825022,,-0.776221334934,0.425460278988,-1.25756821989
1554974695911638851,581,1554974695910854381,,-0.776054263115,0.423675835133,-1.29567303545
1554974695911645994,582,1554974695910869731,,-0.775848865509,0.422196149826,-1.32753935662
1554974695920320820,583,1554974695920060424,,-0.775585174561,0.420559674501,-1.36163910205
1554974695930828346,584,1554974695930359636,,-0.775482416153,0.418893009424,-1.40143583108
1554974695941192491,585,1554974695940712884,,-0.775266051292,0.417424291372,-1.43747958892
1554974695950171360,586,1554974695949915558,,-0.775077581406,0.41586124897,-1.48144368021
1554974695960501918,587,1554974695960119535,,-0.775174796581,0.414505332708,-1.51844201868
1554974695960509486,588,1554974695960136470,,-0.775158345699,0.41308927536,-1.56078550417
1554974695970537652,589,1554974695970317552,,-0.775207102299,0.41194948554,-1.59960110211
1554974695980765835,590,1554974695980507067,,-0.775245428085,0.410677164793,-1.64726693834
1554974695991059300,591,1554974695990758839,,-0.775366485119,0.409543067217,-1.69455434737
1554974696010733908,592,1554974696010257338,,-0.775654017925,0.40862184763,-1.7359973156
1554974696010973873,593,1554974696010297586,,-0.775664746761,0.407258480787,-1.78399401086
1554974696021049488,594,1554974696020553647,,-0.77576893568,0.406484603882,-1.82887565218
1554974696021206063,595,1554974696020586733,,-0.776161432266,0.405296295881,-1.87571820764
1554974696040466485,596,1554974696039990990,,-0.776404976845,0.404703110456,-1.92353765361
1554974696040624475,597,1554974696040028435,,-0.776723027229,0.403864264488,-1.97788821471
1554974696050740217,598,1554974696050295628,,-0.777005732059,0.403063833714,-2.03007081726
1554974696061036660,599,1554974696060575759,,-0.777385175228,0.402463823557,-2.0836358413
1554974696061185715,600,1554974696060612532,,-0.7777582407,0.401763498783,-2.13512288135
1554974696070050557,601,1554974696069778120,,-0.778058469296,0.40139913559,-2.18934400696
1554974696080243357,602,1554974696079971003,,-0.778474926949,0.400945335627,-2.24708429223
1554974696090758024,603,1554974696090260714,,-0.778866648674,0.400420159101,-2.30266114135
1554974696110367627,604,1554974696109732492,,-0.779226064682,0.400150030851,-2.36380894882
1554974696110534771,605,1554974696109770520,,-0.779586851597,0.399979174137,-2.42382234458
1554974696120299064,606,1554974696119997800,,-0.780052065849,0.399854123592,-2.48325939185
1554974696120472476,607,1554974696120015488,,-0.780285537243,0.400118947029,-2.54262962695
1554974696130559483,608,1554974696130205199,,-0.780713260174,0.399979740381,-2.6043091625
1554974696141040730,609,1554974696140545865,,-0.781005859375,0.39984318614,-2.67201399484
1554974696150265605,610,1554974696149784436,,-0.781586885452,0.400210410357,-2.73168634764
1554974696160565458,611,1554974696160082878,,-0.781834363937,0.400461822748,-2.79281397782
1554974696170756139,612,1554974696170295267,,-0.782268464565,0.401109784842,-2.84791472413
1554974696170917970,613,1554974696170325457,,-0.782498121262,0.401763767004,-2.90972288083
1554974696181092709,614,1554974696180627586,,-0.782872796059,0.402216643095,-2.97210056562
1554974696190438751,615,1554974696189970412,,-0.783236920834,0.403198748827,-3.03278823733
1554974696210996121,616,1554974696210504310,,-0.783397197723,0.404127657413,-3.08986128664
1554974696211120627,617,1554974696210547682,,-0.783791959286,0.406154215336,3.06769090692
1554974696220191106,618,1554974696219759161,,-0.783913075924,0.407386064529,3.01233260382
1554974696230529400,619,1554974696230090984,,-0.783898293972,0.408505946398,2.95627888009
1554974696240932885,620,1554974696240449856,,-0.783733665943,0.409777849913,2.89897376983
1554974696251238103,621,1554974696250804147,,-0.783669412136,0.411126434803,2.84210739227
1554974696260365197,622,1554974696260064742,,-0.783563494682,0.412183046341,2.79119555296
1554974696260533046,623,1554974696260088515,,-0.783331573009,0.413550853729,2.74080922392
1554974696270633497,624,1554974696270343696,,-0.782974660397,0.415075808764,2.68834208774
1554974696281149755,625,1554974696280634122,,-0.782596230507,0.416375309229,2.63697632993
1554974696290468678,626,1554974696290000338,,-0.782107770443,0.418184250593,2.58876338584
1554974696300785836,627,1554974696300320561,,-0.781716346741,0.419320374727,2.54546617345
1554974696320382094,628,1554974696319902972,,-0.781173229218,0.420944929123,2.49606186041
1554974696320562889,629,1554974696319937263,,-0.780634641647,0.422386467457,2.44821634609
1554974696320786321,630,1554974696319964817,,-0.779896497726,0.424105286598,2.4015455578
1554974696330703064,631,1554974696330257699,,-0.779222071171,0.425741076469,2.36468577429
1554974696340740647,632,1554974696340481905,,-0.778361320496,0.427269160748,2.31986870445
1554974696351233601,633,1554974696350789238,,-0.777474284172,0.429025888443,2.27786198731
1554974696360590425,634,1554974696360101065,,-0.776354849339,0.430872291327,2.23286358376
1554974696360751327,635,1554974696360141467,,-0.775372505188,0.432496994734,2.19561218717
1554974696381129219,636,1554974696380663921,,-0.774195671082,0.434328764677,2.15208040062
1554974696381299376,637,1554974696380704375,,-0.772926390171,0.43619042635,2.11039877301
1554974696390151053,638,1554974696389885393,,-0.771459519863,0.437985956669,2.06724271557
1554974696400700283,639,1554974696400240449,,-0.769962131977,0.439700067043,2.02719090548
1554974696430659283,640,1554974696430122586,,-0.768189847469,0.441582947969,1.98649064115
1554974696430805536,641,1554974696430173462,,-0.762720406055,0.44712421298,1.87078871355
1554974696440859437,642,1554974696440388918,,-0.76075899601,0.449268877506,1.82555529661
1554974696451062335,643,1554974696450608708,,-0.758718132973,0.451191693544,1.79197626482
1554974696460263615,644,1554974696459840908,,-0.756490767002,0.452985942364,1.75045839463
1554974696470377126,645,1554974696470098759,,-0.754251718521,0.45494312048,1.71143286689
1554974696480903475,646,1554974696480454936,,-0.751706957817,0.456538975239,1.67625194466
1554974696481022012,647,1554974696480495509,,-0.749110043049,0.458274394274,1.63319124977
1554974696490228659,648,1554974696489736095,,-0.746347129345,0.460032880306,1.60086413508
1554974696500572650,649,1554974696500130376,,-0.743685185909,0.461755990982,1.56035015858
1554974696530538358,650,1554974696530030861,,-0.740843296051,0.463370382786,1.52512353708
1554974696530713823,651,1554974696530091585,,-0.732100248337,0.468111157417,1.41659982187
1554974696540840193,652,1554974696540354524,,-0.728852510452,0.469497829676,1.37607870358
1554974696551112424,653,1554974696550712787,,-0.725776076317,0.470924139023,1.34329468251
1554974696560625354,654,1554974696560048891,,-0.722759962082,0.472374200821,1.31000248278
1554974696570819913,655,1554974696570374303,,-0.719646930695,0.47366759181,1.27938301625
1554974696570998723,656,1554974696570404533,,-0.716768980026,0.474905729294,1.24897621203
1554974696580906835,657,1554974696580630345,,-0.713562786579,0.475943386555,1.21957776588
1554974696590316102,658,1554974696589887356,,-0.710183024406,0.477094709873,1.19101628973
1554974696600703420,659,1554974696600253890,,-0.707005739212,0.478091537952,1.16339566081
1554974696620168749,660,1554974696619716473,,-0.703668236732,0.478907734156,1.13772202273
1554974696620321083,661,1554974696619752015,,-0.700459063053,0.479904860258,1.11414637867
