%time,field.header.seq,field.header.stamp,field.header.frame_id,field.point.x,field.point.y,field.point.z
1555407030044258822,1,1555407030043322340,,-2.60947966576,-1.18998420238,-2.88919554791
1555407030044469592,2,1555407030043506358,,-2.60823631287,-1.1909276247,-2.97293417602
1555407030064615903,3,1555407030063988295,,-2.60685157776,-1.19284105301,-3.05573303441
1555407030064628418,4,1555407030064025102,,-2.60558152199,-1.19365537167,-3.12881620249
1555407030064634663,5,1555407030064048591,,-2.60508918762,-1.19553267956,3.07205618
1555407030073443616,6,1555407030073168291,,-2.60405182838,-1.19682562351,2.98381239241
1555407030083990644,7,1555407030083526549,,-2.6030049324,-1.1985180378,2.90192419264
1555407030094373338,8,1555407030093910066,,-2.60248780251,-1.19950771332,2.80210322863
1555407030104832242,9,1555407030104287199,,-2.60195970535,-1.20022296906,2.72764942118
1555407030104845282,10,1555407030104324663,,-2.6009581089,-1.20155262947,2.63050997679
1555407030114147168,11,1555407030113658311,,-2.60028743744,-1.20276474953,2.55755864069
1555407030124481532,12,1555407030124029218,,-2.59982252121,-1.20414340496,2.45587458258
1555407030133760285,13,1555407030133278099,,-2.59914636612,-1.20519459248,2.360586747
1555407030154429336,14,1555407030153962674,,-2.59879136086,-1.20626759529,2.27787865324
1555407030154641533,15,1555407030153995968,,-2.59838986397,-1.20685732365,2.18336649881
1555407030154651042,16,1555407030154016982,,-2.59823966026,-1.20757901669,2.10766334638
1555407030164448699,17,1555407030164209002,,-2.59794664383,-1.20695948601,2.01785066211
1555407030173988624,18,1555407030173548815,,-2.59691214561,-1.20879256725,1.90867534258
1555407030184398119,19,1555407030183926563,,-2.59640359879,-1.20936226845,1.8275844383
1555407030194755820,20,1555407030194281326,,-2.59602713585,-1.20863938332,1.74068523221
1555407030204158825,21,1555407030203645842,,-2.5949947834,-1.21022844315,1.64760865534
1555407030214416869,22,1555407030213971685,,-2.59435939789,-1.21027219296,1.56750171162
1555407030214557911,23,1555407030214004008,,-2.59363746643,-1.21058034897,1.48471393922
1555407030223719861,24,1555407030223258390,,-2.59288311005,-1.21034562588,1.40868305714
1555407030234012121,25,1555407030233591768,,-2.59211587906,-1.210958004,1.3289337456
1555407030254628343,26,1555407030254167553,,-2.59086346626,-1.21020686626,1.24827157735
1555407030254776288,27,1555407030254200732,,-2.59002280235,-1.20957732201,1.1792277877
1555407030254877358,28,1555407030254229026,,-2.58872652054,-1.20992028713,1.1074527173
1555407030263729548,29,1555407030263476008,,-2.58760905266,-1.20970320702,1.02898322188
1555407030274206511,30,1555407030273783384,,-2.58575558662,-1.2084133625,0.94744010754
1555407030284624319,31,1555407030284166037,,-2.58424258232,-1.20891809464,0.899109803402
1555407030293939426,32,1555407030293480207,,-2.58376145363,-1.20829927921,0.824415766619
1555407030304308359,33,1555407030303832010,,-2.58136129379,-1.20759618282,0.769378885218
1555407030304476926,34,1555407030303868616,,-2.57940793037,-1.20596933365,0.70172387638
1555407030314673121,35,1555407030314234483,,-2.57861495018,-1.20485830307,0.660284798307
1555407030324056056,36,1555407030323578257,,-2.57610225677,-1.20516109467,0.578458503308
1555407030334089281,37,1555407030333753909,,-2.57432985306,-1.20429718494,0.535524331064
1555407030364022235,38,1555407030363490117,,-2.57203769684,-1.20352864265,0.4782162967
1555407030364143104,39,1555407030363543348,,-2.56420946121,-1.2011307478,0.347941963961
1555407030373970734,40,1555407030373697580,,-2.56235551834,-1.199909091,0.28987870609
1555407030384522748,41,1555407030384023977,,-2.55942940712,-1.20022082329,0.254457877483
1555407030393767739,42,1555407030393265338,,-2.55660223961,-1.19902551174,0.197280154194
1555407030404065020,43,1555407030403564319,,-2.55348014832,-1.19829285145,0.168032378346
1555407030414328379,44,1555407030413851776,,-2.55046343803,-1.19750404358,0.128056181312
1555407030414467520,45,1555407030413884806,,-2.54717230797,-1.19646048546,0.0807587782944
1555407030424321088,46,1555407030424076256,,-2.54382109642,-1.19568765163,0.0378051748985
1555407030433740785,47,1555407030433283916,,-2.54046106339,-1.19418311119,-0.00696565165652
1555407030444153290,48,1555407030443645608,,-2.53661799431,-1.19381046295,-0.0512004382174
1555407030464736246,49,1555407030464245573,,-2.53245997429,-1.19351410866,-0.0852981219674
1555407030464840798,50,1555407030464285635,,-2.52527570724,-1.19176495075,-0.171592349688
1555407030473775492,51,1555407030473473813,,-2.52094841003,-1.19124591351,-0.213928605238
1555407030484325508,52,1555407030483830839,,-2.51683855057,-1.19086050987,-0.249617151716
1555407030494703876,53,1555407030494216564,,-2.51283478737,-1.19023144245,-0.28692930155
1555407030504106431,54,1555407030503578406,,-2.50706076622,-1.19053816795,-0.324515373842
1555407030514501868,55,1555407030514002846,,-2.50364542007,-1.18921792507,-0.370214484534
1555407030514608242,56,1555407030514040380,,-2.49881649017,-1.18970227242,-0.395999440755
1555407030523396705,57,1555407030523163882,,-2.49430012703,-1.18919754028,-0.432157637176
1555407030544282511,58,1555407030543790676,,-2.48971867561,-1.1890553236,-0.468377885252
1555407030544416281,59,1555407030543827386,,-2.48512649536,-1.18956840038,-0.499171244209
1555407030564007891,60,1555407030563513842,,-2.4807612896,-1.18998813629,-0.511589613098
1555407030564199243,61,1555407030563555745,,-2.47147893906,-1.18987834454,-0.576001641937
1555407030574350613,62,1555407030573855316,,-2.46680617332,-1.19098484516,-0.595501032739
1555407030584453919,63,1555407030584130126,,-2.46231675148,-1.19111061096,-0.631330132394
1555407030593965149,64,1555407030593486819,,-2.45707178116,-1.19184923172,-0.652061693858
1555407030603971598,65,1555407030603691380,,-2.45238757133,-1.1919157505,-0.68667326606
1555407030606264388,66,1555407030603707246,,-2.44808650017,-1.19283533096,-0.700631231762
1555407030614508667,67,1555407030614040911,,-2.44297766685,-1.19326758385,-0.725457142846
1555407030623754063,68,1555407030623267516,,-2.43805480003,-1.19396352768,-0.750975959476
1555407030634070426,69,1555407030633577779,,-2.43382167816,-1.19449317455,-0.771916309023
1555407030644461500,70,1555407030643957046,,-2.42840337753,-1.19550585747,-0.790916588608
1555407030664101093,71,1555407030663601326,,-2.42380690575,-1.1953369379,-0.816705638387
1555407030664280501,72,1555407030663644058,,-2.41444563866,-1.19799351692,-0.849770330837
1555407030674451589,73,1555407030673983937,,-2.40924620628,-1.19824326038,-0.874703176979
1555407030684464900,74,1555407030684203778,,-2.40542221069,-1.19940698147,-0.897442691235
1555407030693687825,75,1555407030693395144,,-2.40051054955,-1.20041453838,-0.916579263129
1555407030704262162,76,1555407030703720933,,-2.39549636841,-1.20160448551,-0.940061859322
1555407030704376600,77,1555407030703755995,,-2.39101314545,-1.20233881474,-0.973116471992
1555407030714190992,78,1555407030713946561,,-2.38564491272,-1.20382928848,-0.997070111071
1555407030724801012,79,1555407030724306648,,-2.38074636459,-1.20514321327,-1.02886277359
1555407030734010217,80,1555407030733552104,,-2.37567949295,-1.20631074905,-1.06339017709
1555407030744417542,81,1555407030743918313,,-2.37052536011,-1.20813536644,-1.09172390253
1555407030754816951,82,1555407030754327836,,-2.36539983749,-1.20975363255,-1.12899689368
1555407030764122774,83,1555407030763632465,,-2.36072707176,-1.21128320694,-1.16468333812
1555407030764264954,84,1555407030763666323,,-2.35444331169,-1.21310377121,-1.21189724467
1555407030774049050,85,1555407030773820184,,-2.34992575645,-1.21472299099,-1.2460637364
1555407030784363070,86,1555407030784070632,,-2.34514498711,-1.21645963192,-1.2865187646
1555407030793790512,87,1555407030793299321,,-2.3398706913,-1.21826267242,-1.32760845329
1555407030804121834,88,1555407030803631923,,-2.33489012718,-1.21997618675,-1.36677186885
1555407030804257215,89,1555407030803665395,,-2.32908511162,-1.22185635567,-1.41586850773
1555407030814475741,90,1555407030814003480,,-2.32492566109,-1.22372353077,-1.45017801642
1555407030823744807,91,1555407030823253570,,-2.31973743439,-1.22590780258,-1.49262554077
1555407030833869152,92,1555407030833490581,,-2.31496667862,-1.22755300999,-1.53312274999
1555407030844279115,93,1555407030843784525,,-2.30918836594,-1.22962486744,-1.58390076589
1555407030854588684,94,1555407030854106718,,-2.30514502525,-1.23159527779,-1.6150222367
1555407030874077070,95,1555407030873628912,,-2.2999227047,-1.23361563683,-1.66065250763
1555407030874250994,96,1555407030873669035,,-2.28997015953,-1.23760044575,-1.74385074414
1555407030884494525,97,1555407030884006579,,-2.28549623489,-1.24008905888,-1.78430533096
1555407030893726866,98,1555407030893256277,,-2.28107643127,-1.24126076698,-1.82423076065
1555407030904098663,99,1555407030903615110,,-2.2754535675,-1.24349188805,-1.87799529865
1555407030904251803,100,1555407030903648331,,-2.27166867256,-1.24551224709,-1.90887679016
1555407030914244396,101,1555407030913874485,,-2.26603960991,-1.24802947044,-1.95490211575
1555407030924581751,102,1555407030924161470,,-2.26182842255,-1.24995911121,-1.997314488
1555407030934063439,103,1555407030933568187,,-2.25694966316,-1.25154578686,-2.03945860161
1555407030944260629,104,1555407030943839530,,-2.25182557106,-1.25335085392,-2.08516011268
1555407030954630704,105,1555407030954109836,,-2.24742555618,-1.25604963303,-2.13528896093
1555407030974177517,106,1555407030973702995,,-2.24304246902,-1.25782442093,-2.16733739061
1555407030974284078,107,1555407030973746029,,-2.23483586311,-1.26110649109,-2.24413478301
1555407030984499414,108,1555407030984034468,,-2.2306895256,-1.26375520229,-2.29155574625
1555407030993754447,109,1555407030993272141,,-2.22652626038,-1.26593983173,-2.33554043706
1555407031004011633,110,1555407031003541568,,-2.22310471535,-1.26777541637,-2.36946857566
1555407031004131704,111,1555407031003574860,,-2.21902227402,-1.27042365074,-2.40975219089
1555407031014091674,112,1555407031013797266,,-2.21514582634,-1.27286601067,-2.46188532753
1555407031024564974,113,1555407031024117662,,-2.2122130394,-1.27497434616,-2.49710726854
1555407031033926796,114,1555407031033497830,,-2.20825386047,-1.27808582783,-2.55506333411
1555407031044395960,115,1555407031043890784,,-2.20546197891,-1.28050744534,-2.60050920443
1555407031054719035,116,1555407031054254271,,-2.20228242874,-1.2829117775,-2.64057624869
1555407031074498335,117,1555407031073971014,,-2.20016860962,-1.28568446636,-2.68211095587
1555407031074652289,118,1555407031074009469,,-2.19738268852,-1.28781116009,-2.7369551092
1555407031074798199,119,1555407031074038808,,-2.19470000267,-1.29063796997,-2.77927652486
1555407031083730736,120,1555407031083281313,,-2.19259405136,-1.29279375076,-2.82632080782
1555407031093764643,121,1555407031093494199,,-2.18939614296,-1.29532849789,-2.87318332513
1555407031104242626,122,1555407031103793345,,-2.18782281876,-1.29825758934,-2.9074055875
1555407031104447248,123,1555407031103829133,,-2.18546080589,-1.30032372475,-2.95978220804
1555407031114575768,124,1555407031114139404,,-2.18375253677,-1.30266785622,-3.00284445462
1555407031123917526,125,1555407031123508132,,-2.18210363388,-1.30456233025,-3.04481130443
1555407031134019210,126,1555407031133728338,,-2.17951464653,-1.30733954906,-3.09183126433
1555407031144198477,127,1555407031143905834,,-2.17749190331,-1.30922365189,-3.13852743411
1555407031154878966,128,1555407031154201756,,-2.17554092407,-1.31129729748,3.09775586555
1555407031154887959,129,1555407031154236648,,-2.17374444008,-1.31375324726,3.05525097564
1555407031184433764,130,1555407031183924261,,-2.17157053947,-1.31608331203,3.00318490437
1555407031184620855,131,1555407031183970695,,-2.17019605637,-1.3183068037,2.96392837893
1555407031184755114,132,1555407031184001690,,-2.16790032387,-1.32017052174,2.90841036642
1555407031194436270,133,1555407031194206816,,-2.16682291031,-1.32211649418,2.85782444034
1555407031203641612,134,1555407031203401140,,-2.16505861282,-1.32405900955,2.80504902482
1555407031214163609,135,1555407031213701081,,-2.16406321526,-1.32638001442,2.75714978842
1555407031214340418,136,1555407031213740381,,-2.16239023209,-1.32762765884,2.69978074562
1555407031224559445,137,1555407031224118799,,-2.16131663322,-1.32985496521,2.65004124903
1555407031233641549,138,1555407031233351364,,-2.16014099121,-1.33159708977,2.59323190633
1555407031244176509,139,1555407031243709151,,-2.15968465805,-1.33290684223,2.52752857577
1555407031254499990,140,1555407031254074022,,-2.15829515457,-1.33445179462,2.47505024963
1555407031254679912,141,1555407031254111660,,-2.15745830536,-1.33622479439,2.41074382221
1555407031284487594,142,1555407031283991357,,-2.15672373772,-1.33735752106,2.34644769056
1555407031284654099,143,1555407031284031392,,-2.1557226181,-1.33872997761,2.28606886134
1555407031284795354,144,1555407031284063284,,-2.15492296219,-1.34053766727,2.23156668059
1555407031293383462,145,1555407031293182223,,-2.1542506218,-1.34105885029,2.15665319756
1555407031303587392,146,1555407031303356460,,-2.15391182899,-1.34215271473,2.08646383111
1555407031303712964,147,1555407031303391351,,-2.15265750885,-1.34318459034,2.02947144375
1555407031314138753,148,1555407031313670478,,-2.15231108665,-1.34382772446,1.96460756775
1555407031324475906,149,1555407031324032639,,-2.1506280899,-1.34540772438,1.89192015717
1555407031333482688,150,1555407031333215721,,-2.1509115696,-1.34607791901,1.83086851063
1555407031344049358,151,1555407031343577543,,-2.14991211891,-1.34701037407,1.76527810923
1555407031354414697,152,1555407031353911118,,-2.14897632599,-1.34799683094,1.69804886983
1555407031354588873,153,1555407031353947679,,-2.14769983292,-1.34855270386,1.64554070037
1555407031384334274,154,1555407031383865702,,-2.14696335793,-1.34969997406,1.57107599072
1555407031384511102,155,1555407031383901734,,-2.14585733414,-1.35000085831,1.50640451743
1555407031384651380,156,1555407031383945180,,-2.14537572861,-1.35114765167,1.44545245596
1555407031394385720,157,1555407031394148576,,-2.14413738251,-1.35150766373,1.38563887027
1555407031404045099,158,1555407031403528202,,-2.14288973808,-1.35219967365,1.31902986449
1555407031414361334,159,1555407031413898691,,-2.14221286774,-1.35281443596,1.26393965917
1555407031414615908,160,1555407031413939418,,-2.14105391502,-1.35330355167,1.19411208162
1555407031424805211,161,1555407031424321480,,-2.1396458149,-1.35356092453,1.15971153298
1555407031433843379,162,1555407031433604902,,-2.13862633705,-1.35272443295,1.10494364792
1555407031444111814,163,1555407031443831338,,-2.13652992249,-1.35336327553,1.04281223368
1555407031454797096,164,1555407031454166122,,-2.134786129,-1.35373067856,1.00701313708
1555407031454965759,165,1555407031454203704,,-2.13271141052,-1.35383498669,0.954650157171
1555407031464112521,166,1555407031463567115,,-2.13212656975,-1.35369122028,0.909410419242
1555407031484689284,167,1555407031484187114,,-2.12937283516,-1.35389232635,0.868120233662
1555407031484883500,168,1555407031484228095,,-2.1279873848,-1.35329592228,0.817136639798
1555407031494053122,169,1555407031493578662,,-2.12636041641,-1.35314702988,0.787489809855
1555407031504389724,170,1555407031503940287,,-2.1245701313,-1.35280156136,0.743692308466
1555407031504560712,171,1555407031503978548,,-2.12216567993,-1.352602005,0.703297089215
1555407031514734779,172,1555407031514253267,,-2.12000346184,-1.35253477097,0.659536036477
1555407031524154538,173,1555407031523681731,,-2.11681246758,-1.35161232948,0.612296191426
1555407031534233736,174,1555407031533933517,,-2.11456990242,-1.35096001625,0.568824715473
1555407031544784200,175,1555407031544293987,,-2.11210489273,-1.34957170486,0.533868299787
1555407031554093627,176,1555407031553672735,,-2.10870218277,-1.34832465649,0.490105497202
1555407031554265288,177,1555407031553710436,,-2.10670661926,-1.34817743301,0.444854780754
1555407031564525894,178,1555407031564062301,,-2.1035592556,-1.34679067135,0.401572610477
1555407031584293007,179,1555407031583719312,,-2.09952449799,-1.34627079964,0.37345293814
1555407031584344615,180,1555407031583756690,,-2.09607291222,-1.34471344948,0.321335902082
1555407031594193924,181,1555407031593959520,,-2.09301948547,-1.3437308073,0.278668626174
1555407031603687714,182,1555407031603209267,,-2.08938097954,-1.34233725071,0.235664548475
1555407031614068306,183,1555407031613568645,,-2.08500027657,-1.34096515179,0.184211660972
1555407031614255967,184,1555407031613612419,,-2.08144831657,-1.34063494205,0.155773749168
1555407031624446820,185,1555407031623998574,,-2.07680058479,-1.33870124817,0.101445579053
1555407031633819391,186,1555407031633280081,,-2.07303333282,-1.33726227283,0.0523316047956
1555407031644134746,187,1555407031643669330,,-2.06853628159,-1.33658051491,0.0124211449148
1555407031654518808,188,1555407031654037739,,-2.06366562843,-1.33591485023,-0.0295482556328
1555407031654693189,189,1555407031654097706,,-2.05912232399,-1.33443522453,-0.078434103538
1555407031663852464,190,1555407031663407871,,-2.05404853821,-1.33390665054,-0.119458536999
1555407031684346485,191,1555407031683910276,,-2.0488910675,-1.33296096325,-0.165829910836
1555407031684503552,192,1555407031683966752,,-2.04378199577,-1.33186066151,-0.215910565008
1555407031694754158,193,1555407031694300142,,-2.03810358047,-1.33088684082,-0.269501840952
1555407031704229660,194,1555407031703745010,,-2.03311824799,-1.33067548275,-0.311775906486
1555407031704387143,195,1555407031703785637,,-2.02763485909,-1.32948005199,-0.366765087922
1555407031714626441,196,1555407031714148923,,-2.0216422081,-1.32918131351,-0.411197198868
1555407031723996232,197,1555407031723533036,,-2.0159497261,-1.32909691334,-0.460882984803
1555407031734012864,198,1555407031733755973,,-2.00990152359,-1.32857716084,-0.508913916529
1555407031744198585,199,1555407031743938655,,-2.00386333466,-1.32886993885,-0.557133041786
1555407031754698492,200,1555407031754249935,,-1.99779057503,-1.3286793232,-0.608201370498
1555407031754858883,201,1555407031754305104,,-1.99186122417,-1.32887554169,-0.650249591162
1555407031763788777,202,1555407031763538957,,-1.98602235317,-1.32926046848,-0.706769816172
1555407031774315604,203,1555407031773896629,,-1.97937381268,-1.32963168621,-0.754844031993
1555407031784686798,204,1555407031784249949,,-1.97297143936,-1.32981193066,-0.817241117059
1555407031794039251,205,1555407031793604415,,-1.96620881557,-1.33004772663,-0.883104646813
1555407031804482184,206,1555407031804014111,,-1.96014916897,-1.33127319813,-0.929571644483
1555407031804637720,207,1555407031804052185,,-1.95412933826,-1.33215665817,-0.981472625522
1555407031813843491,208,1555407031813318724,,-1.94761228561,-1.33323073387,-1.0366305736
1555407031824180086,209,1555407031823716831,,-1.9408031702,-1.33439528942,-1.10024650151
1555407031834463025,210,1555407031834025452,,-1.93402671814,-1.3353253603,-1.16996871522
1555407031843432200,211,1555407031843190386,,-1.92711925507,-1.33672475815,-1.23252251325
1555407031854043106,212,1555407031853556492,,-1.92103254795,-1.33799374104,-1.2937882149
1555407031854255603,213,1555407031853600895,,-1.91456484795,-1.33974719048,-1.3578434867
1555407031864420086,214,1555407031863984474,,-1.90824234486,-1.34166657925,-1.42573876213
1555407031873729681,215,1555407031873258936,,-1.90195190907,-1.34322428703,-1.49333899387
1555407031884124405,216,1555407031883655150,,-1.89573001862,-1.34527051449,-1.56014670701
1555407031894453482,217,1555407031894028641,,-1.88949358463,-1.34769332409,-1.6291361429
1555407031903736784,218,1555407031903262678,,-1.88310658932,-1.34969735146,-1.70598408614
1555407031914053486,219,1555407031913505141,,-1.87701749802,-1.35240519047,-1.77459110683
1555407031914063103,220,1555407031913557822,,-1.87125504017,-1.35447144508,-1.84789033397
1555407031924384111,221,1555407031923921526,,-1.86605155468,-1.3575296402,-1.92180231485
1555407031934496720,222,1555407031934240958,,-1.85953140259,-1.3604272604,-1.99809135586
1555407031944048915,223,1555407031943607084,,-1.85406672955,-1.36310482025,-2.08097699923
1555407031954433032,224,1555407031953999019,,-1.84874951839,-1.36599349976,-2.15006087134
1555407031954553262,225,1555407031954038121,,-1.84389054775,-1.36979830265,-2.22862464164
1555407031963402917,226,1555407031963174491,,-1.83949124813,-1.372600317,-2.2933578347
1555407031973980810,227,1555407031973519263,,-1.83369684219,-1.37576234341,-2.37624131326
1555407031984347183,228,1555407031983904836,,-1.82924354076,-1.37928581238,-2.45180721793
1555407031994500975,229,1555407031994215731,,-1.82506489754,-1.38216900826,-2.52485130554
1555407032004036425,230,1555407032003580174,,-1.82031011581,-1.38494157791,-2.59600805999
1555407032004168557,231,1555407032003619557,,-1.81625294685,-1.38821697235,-2.66842339035
1555407032014417345,232,1555407032013949015,,-1.81199944019,-1.39137470722,-2.74544463231
1555407032023656715,233,1555407032023205284,,-1.80793440342,-1.39407241344,-2.81363471227
1555407032034026123,234,1555407032033563600,,-1.80362319946,-1.39729237556,-2.89669230914
1555407032044421799,235,1555407032043947348,,-1.79990375042,-1.40045273304,-2.97220096732
1555407032053682818,236,1555407032053206946,,-1.7959561348,-1.40343999863,-3.04798892749
1555407032064238914,237,1555407032063579311,,-1.79167950153,-1.40617501736,-3.11854501034
1555407032064249711,238,1555407032063618789,,-1.78784310818,-1.40874326229,3.08975934514
1555407032074458870,239,1555407032073919627,,-1.78408968449,-1.41148340702,3.0151600492
1555407032084836526,240,1555407032084306938,,-1.78062546253,-1.41432356834,2.93392584652
1555407032094129100,241,1555407032093678298,,-1.77669167519,-1.41703748703,2.85481047467
1555407032104545619,242,1555407032104062918,,-1.77344655991,-1.41958940029,2.77116600588
1555407032113797547,243,1555407032113296675,,-1.76983559132,-1.42217600346,2.68916426984
1555407032113984762,244,1555407032113333983,,-1.76680648327,-1.42471122742,2.6100581216
1555407032124085230,245,1555407032123630767,,-1.76383650303,-1.42735111713,2.528672911
1555407032134051274,246,1555407032133829849,,-1.76036381721,-1.42932379246,2.43935638296
1555407032144591072,247,1555407032144149720,,-1.75739622116,-1.4313390255,2.35295495134
1555407032153993378,248,1555407032153514838,,-1.75468969345,-1.43408691883,2.26511271531
1555407032164331993,249,1555407032163869645,,-1.75223088264,-1.43546020985,2.16223981944
1555407032164476012,250,1555407032163903626,,-1.74910712242,-1.43683350086,2.0780882847
1555407032174699270,251,1555407032174243077,,-1.74629580975,-1.43870317936,1.9880898686
1555407032184067367,252,1555407032183595236,,-1.74442994595,-1.44040369987,1.88779910275
1555407032194419288,253,1555407032193953127,,-1.74118733406,-1.442040205,1.80346850235
1555407032203692221,254,1555407032203208257,,-1.73826467991,-1.44361793995,1.71786202843
1555407032213785503,255,1555407032213496011,,-1.73522603512,-1.44468569756,1.6327641868
1555407032213943578,256,1555407032213513035,,-1.73307526112,-1.4457256794,1.541354316
1555407032224294388,257,1555407032223821890,,-1.72953891754,-1.44694411755,1.4558887096
1555407032234635144,258,1555407032234191012,,-1.72772228718,-1.44834673405,1.37138508891
1555407032244085178,259,1555407032243576361,,-1.72454118729,-1.44959139824,1.2968316895
1555407032254438394,260,1555407032253955451,,-1.7211805582,-1.44967103004,1.22715970953
1555407032254605645,261,1555407032253991221,,-1.71771275997,-1.45008456707,1.14157736319
1555407032263704238,262,1555407032263221102,,-1.71535825729,-1.45086705685,1.07596142579
1555407032274083521,263,1555407032273601619,,-1.71272492409,-1.4514477253,0.989320997276
1555407032284426058,264,1555407032283995846,,-1.70898532867,-1.45167434216,0.911664924446
1555407032293725083,265,1555407032293221944,,-1.70509648323,-1.45244371891,0.861406299567
1555407032304087119,266,1555407032303578260,,-1.70025062561,-1.45149958134,0.822949581597
1555407032314346294,267,1555407032313899023,,-1.69885253906,-1.45340144634,0.710530066273
1555407032314528808,268,1555407032313939436,,-1.69526863098,-1.45362985134,0.652159853225
1555407032324480227,269,1555407032324194982,,-1.69173192978,-1.45394694805,0.585528104183
1555407032333970926,270,1555407032333523497,,-1.68683540821,-1.45403850079,0.528197710854
1555407032344363310,271,1555407032343894105,,-1.68313467503,-1.4540220499,0.473931563517
1555407032354739507,272,1555407032354277069,,-1.67894542217,-1.4547303915,0.418488086286
1555407032354930527,273,1555407032354335793,,-1.67519009113,-1.45453643799,0.347407624035
1555407032363852739,274,1555407032363618895,,-1.67014729977,-1.45575213432,0.321241269554
1555407032374051511,275,1555407032373802949,,-1.66677844524,-1.45605707169,0.252154033006
1555407032384557558,276,1555407032384143480,,-1.66173326969,-1.45548808575,0.19403374583
1555407032393913191,277,1555407032393483182,,-1.6578540802,-1.45588600636,0.148800107737
1555407032404342429,278,1555407032403838993,,-1.65375328064,-1.45634245872,0.0965968888454
1555407032404519698,279,1555407032403877439,,-1.64990079403,-1.45667815208,0.0353888613878
1555407032414673405,280,1555407032414234213,,-1.64495551586,-1.45786345005,-0.0114360528435
1555407032424020378,281,1555407032423567717,,-1.64080405235,-1.4576010704,-0.0512097265771
1555407032434407126,282,1555407032433942320,,-1.63642394543,-1.45795917511,-0.102911637877
1555407032443663337,283,1555407032443209519,,-1.63203644753,-1.45887446404,-0.152405615132
1555407032454011538,284,1555407032453547724,,-1.6277961731,-1.45897698402,-0.201929371646
1555407032454158530,285,1555407032453590187,,-1.62355005741,-1.45954549313,-0.239611891504
1555407032464049593,286,1555407032463799879,,-1.61934328079,-1.46073186398,-0.290675324333
1555407032474208282,287,1555407032473975785,,-1.61508476734,-1.46070027351,-0.341381322344
1555407032484487788,288,1555407032484217784,,-1.61044120789,-1.46116185188,-0.397308498316
1555407032493989538,289,1555407032493547988,,-1.60629224777,-1.46187639236,-0.447404024466
1555407032504423125,290,1555407032503958723,,-1.60141921043,-1.46315848827,-0.48825161099
1555407032504600100,291,1555407032503997485,,-1.597194314,-1.46423602104,-0.543329622998
1555407032513780599,292,1555407032513268948,,-1.59247589111,-1.46534609795,-0.59325926179
1555407032524067545,293,1555407032523606349,,-1.58784806728,-1.46546947956,-0.664766733686
1555407032534129360,294,1555407032533823111,,-1.58330368996,-1.46705591679,-0.72065833325
1555407032544608350,295,1555407032544150355,,-1.57848155499,-1.46798932552,-0.779762725693
1555407032554053832,296,1555407032553549355,,-1.57373738289,-1.46967542171,-0.83222159033
1555407032554219950,297,1555407032553587484,,-1.56887733936,-1.47114026546,-0.889453833494
1555407032564171037,298,1555407032563869592,,-1.56390810013,-1.47178137302,-0.964743610258
1555407032574613339,299,1555407032574192320,,-1.55909395218,-1.47329556942,-1.02306265926
1555407032584019114,300,1555407032583561164,,-1.55454897881,-1.47503185272,-1.0875925501
1555407032594399785,301,1555407032593947054,,-1.54909098148,-1.47660553455,-1.15971411645
1555407032606687988,302,1555407032606220724,,-1.54468393326,-1.47904992104,-1.20880935007
1555407032606861926,303,1555407032606254994,,-1.53990888596,-1.48053598404,-1.27565657005
1555407032613705259,304,1555407032613459190,,-1.53498852253,-1.48296010494,-1.32588296322
1555407032624155858,305,1555407032623684422,,-1.53074645996,-1.48484396935,-1.39542887082
1555407032634459754,306,1555407032634005131,,-1.52704465389,-1.4872854948,-1.44739779958
1555407032643731874,307,1555407032643267792,,-1.52157485485,-1.48958981037,-1.49219714831
1555407032653993071,308,1555407032653529127,,-1.51798057556,-1.4922119379,-1.55343690932
1555407032654205443,309,1555407032653564132,,-1.51362097263,-1.4944870472,-1.60397914279
1555407032664032792,310,1555407032663754718,,-1.50947010517,-1.49730563164,-1.66161370426
1555407032674450704,311,1555407032674005755,,-1.50565958023,-1.49998807907,-1.71514018826
1555407032683687094,312,1555407032683243225,,-1.50136435032,-1.50267481804,-1.76764606944
1555407032694038305,313,1555407032693571877,,-1.49763143063,-1.5058273077,-1.80719845245
1555407032714779247,314,1555407032714296313,,-1.49376511574,-1.50892305374,-1.86460366448
1555407032714947339,315,1555407032714338691,,-1.48640418053,-1.51412308216,-1.96338289317
1555407032723834966,316,1555407032723531897,,-1.48207890987,-1.51726639271,-2.0272353478
1555407032734069512,317,1555407032733799562,,-1.47924208641,-1.51985490322,-2.06322125394
1555407032744230764,318,1555407032743977210,,-1.47525477409,-1.52263820171,-2.12147008178
1555407032754759892,319,1555407032754262266,,-1.47100222111,-1.52618253231,-2.18021414458
1555407032754935859,320,1555407032754295347,,-1.46897232533,-1.52842879295,-2.21009987137
1555407032763752389,321,1555407032763490225,,-1.46564424038,-1.53122544289,-2.2566331725
1555407032774295425,322,1555407032773833940,,-1.46195936203,-1.53403246403,-2.30936175192
1555407032784604698,323,1555407032784188604,,-1.45898532867,-1.53673374653,-2.35440182433
1555407032793994216,324,1555407032793566379,,-1.45530188084,-1.53990733624,-2.41308129338
1555407032814589095,325,1555407032814084155,,-1.4520586729,-1.54263699055,-2.4626919215
1555407032814786207,326,1555407032814126842,,-1.44929003716,-1.54533612728,-2.50087198306
1555407032814862671,327,1555407032814155707,,-1.445966959,-1.5484265089,-2.55359846387
1555407032823662745,328,1555407032823407575,,-1.44298243523,-1.55095791817,-2.60330104031
1555407032833836282,329,1555407032833603460,,-1.43928956985,-1.55370259285,-2.65090537497
1555407032844465799,330,1555407032843983835,,-1.43599176407,-1.55629658699,-2.69462237371
1555407032853795948,331,1555407032853248929,,-1.43350863457,-1.55917584896,-2.73652897017
1555407032853826129,332,1555407032853313302,,-1.43060314655,-1.56177854538,-2.78601294197
1555407032863788712,333,1555407032863558012,,-1.42756962776,-1.56456100941,-2.83650840105
1555407032874335682,334,1555407032873866133,,-1.42497563362,-1.56742155552,-2.88121952055
1555407032884614191,335,1555407032884148297,,-1.42158818245,-1.56987023354,-2.93685988405
1555407032893958587,336,1555407032893484553,,-1.41981065273,-1.5726583004,-2.97169006812
1555407032904290712,337,1555407032903844376,,-1.41736292839,-1.57516336441,-3.0148952495
1555407032923673368,338,1555407032923205166,,-1.41491258144,-1.57773423195,-3.05895983898
1555407032923811216,339,1555407032923248698,,-1.40988504887,-1.58281874657,-3.13951377083
1555407032933839794,340,1555407032933596999,,-1.40768456459,-1.58499133587,3.11252571205
1555407032944396825,341,1555407032943961736,,-1.40580058098,-1.58748626709,3.06726106178
1555407032954874744,342,1555407032954257832,,-1.40362393856,-1.58974051476,3.04137655802
1555407032954882864,343,1555407032954297452,,-1.40101110935,-1.59161531925,3.00401435788
1555407032963774160,344,1555407032963506740,,-1.40069103241,-1.5936986208,2.98348603224
1555407032973984909,345,1555407032973710457,,-1.39826285839,-1.59644818306,2.94929000541
1555407032984532755,346,1555407032984009970,,-1.39587247372,-1.59832954407,2.91328300655
1555407032993730198,347,1555407032993275012,,-1.39449095726,-1.60038435459,2.88780172704
1555407033003793050,348,1555407033003559238,,-1.39260387421,-1.60138678551,2.88351543631
1555407033024753796,349,1555407033024210349,,-1.39185369015,-1.60416316986,2.83379925738
1555407033024929297,350,1555407033024249754,,-1.38906264305,-1.60601568222,2.80271553568
1555407033025168729,351,1555407033024280922,,-1.38881218433,-1.60848391056,2.77280580344
1555407033033799200,352,1555407033033500890,,-1.3876516819,-1.60985159874,2.75775780655
1555407033044018004,353,1555407033043697708,,-1.38547205925,-1.61356556416,2.69688216983
1555407033054469884,354,1555407033053990683,,-1.38389182091,-1.6139446497,2.70038613723
1555407033054620899,355,1555407033054023354,,-1.38202142715,-1.61594355106,2.6704090322
1555407033064453682,356,1555407033064197560,,-1.38132739067,-1.61705040932,2.65108158911
1555407033074062041,357,1555407033073532676,,-1.37997245789,-1.61918699741,2.61712587817
1555407033084453510,358,1555407033083908995,,-1.37799620628,-1.62115049362,2.601658673
1555407033094811979,359,1555407033094298553,,-1.37655246258,-1.62306940556,2.56295490033
1555407033104160332,360,1555407033103666074,,-1.37476837635,-1.62421429157,2.54997420741
1555407033123674816,361,1555407033123206280,,-1.37446224689,-1.62632668018,2.5054884399
1555407033125363780,362,1555407033123249584,,-1.37246930599,-1.62900769711,2.43688830989
1555407033134044660,363,1555407033133554387,,-1.37257933617,-1.63041269779,2.40497847189
1555407033144376915,364,1555407033143895129,,-1.37164747715,-1.63245403767,2.36862677328
1555407033154755923,365,1555407033154196069,,-1.37087118626,-1.63331091404,2.33799675905
1555407033154939145,366,1555407033154238854,,-1.37045395374,-1.63445675373,2.30332965294
1555407033163696764,367,1555407033163442155,,-1.37038254738,-1.63573503494,2.24971364471
1555407033174238554,368,1555407033173779604,,-1.36957836151,-1.63622581959,2.21475921089
1555407033184658438,369,1555407033184167559,,-1.36856174469,-1.63740301132,2.16775726842
1555407033193976893,370,1555407033193548828,,-1.36826395988,-1.63829529285,2.12260020939
1555407033204438553,371,1555407033203955035,,-1.3678702116,-1.63940632343,2.08700035409
1555407033204637499,372,1555407033203994587,,-1.36903083324,-1.63985085487,2.0246477369
1555407033224043724,373,1555407033223580420,,-1.36905491352,-1.64032769203,1.96877513563
1555407033224205350,374,1555407033223618615,,-1.36924207211,-1.64117050171,1.91456037438
1555407033234430164,375,1555407033233953067,,-1.3688211441,-1.6411062479,1.87100519117
1555407033243666215,376,1555407033243228450,,-1.36907732487,-1.64166259766,1.81205939586
1555407033253994729,377,1555407033253538227,,-1.3694037199,-1.64135420322,1.75955871816
1555407033264395301,378,1555407033263904873,,-1.36916589737,-1.6412460804,1.69987609229
1555407033264561149,379,1555407033263954962,,-1.37052035332,-1.64094603062,1.62608650205
1555407033274589558,380,1555407033274233005,,-1.36999440193,-1.64143466949,1.56757720461
1555407033284061254,381,1555407033283551418,,-1.3702839613,-1.64042794704,1.50554475608
1555407033294342258,382,1555407033293889593,,-1.37050116062,-1.64013564587,1.44209073192
1555407033304705264,383,1555407033304216267,,-1.37075936794,-1.64029479027,1.37367364
1555407033304896858,384,1555407033304255362,,-1.37073373795,-1.6390478611,1.29698256836
1555407033324356987,385,1555407033323892845,,-1.37119066715,-1.63839828968,1.22578115222
1555407033324499669,386,1555407033323957876,,-1.37047851086,-1.63729333878,1.16385709715
1555407033334385790,387,1555407033334149543,,-1.3714543581,-1.63682842255,1.08767857796
1555407033343633710,388,1555407033343337803,,-1.37083768845,-1.63523435593,1.0157783623
1555407033354057505,389,1555407033353610227,,-1.37056672573,-1.63467001915,0.934974021362
1555407033354222632,390,1555407033353644946,,-1.37098395824,-1.63324058056,0.861166280729
1555407033364421065,391,1555407033363944609,,-1.3703520298,-1.63187754154,0.788060601509
1555407033374807384,392,1555407033374340783,,-1.37054383755,-1.6309876442,0.700284717483
1555407033384197668,393,1555407033383710836,,-1.36891281605,-1.62888348103,0.626409200377
1555407033394489301,394,1555407033394021011,,-1.36932313442,-1.62803888321,0.546866249328
1555407033403741581,395,1555407033403254581,,-1.36783707142,-1.62577009201,0.472559505511
1555407033414023071,396,1555407033413572580,,-1.36733782291,-1.62434840202,0.380674692369
1555407033434476594,397,1555407033434058043,,-1.36647057533,-1.62352752686,0.319806600713
1555407033434641045,398,1555407033434097486,,-1.36403787136,-1.6202378273,0.182301248544
1555407033443458139,399,1555407033443215307,,-1.3623650074,-1.61850190163,0.101936886935
1555407033453946292,400,1555407033453482898,,-1.36127233505,-1.61758196354,0.0359011356805
1555407033454089402,401,1555407033453518259,,-1.35951125622,-1.61658132076,-0.0255367488628
1555407033463943187,402,1555407033463684773,,-1.35809421539,-1.61568892002,-0.0921746975616
1555407033474513013,403,1555407033474024732,,-1.35682833195,-1.6146825552,-0.155537741632
1555407033483758381,404,1555407033483277075,,-1.3550401926,-1.61398565769,-0.212471608184
1555407033494079101,405,1555407033493599202,,-1.35291850567,-1.61347365379,-0.271707109678
1555407033504437177,406,1555407033503965095,,-1.35071051121,-1.61198270321,-0.348440549612
1555407033504609224,407,1555407033503999849,,-1.3493155241,-1.61092221737,-0.404561636205
1555407033534259090,408,1555407033533803037,,-1.34833204746,-1.61103606224,-0.466204393128
1555407033534480485,409,1555407033533846841,,-1.34435105324,-1.60986292362,-0.57774970555
1555407033544280671,410,1555407033544035066,,-1.34212863445,-1.60906529427,-0.65216274939
1555407033553458027,411,1555407033553156535,,-1.3400657177,-1.60825932026,-0.700116501661
1555407033564003658,412,1555407033563489174,,-1.33928620815,-1.60898864269,-0.756681785667
1555407033564251979,413,1555407033563528764,,-1.33757841587,-1.60883808136,-0.807302943494
1555407033574325354,414,1555407033573850951,,-1.33554852009,-1.60814166069,-0.867511389231
1555407033584693679,415,1555407033584232456,,-1.33395600319,-1.60779094696,-0.920906689196
1555407033594034415,416,1555407033593567447,,-1.33285880089,-1.60866296291,-0.978952624135
1555407033606609063,417,1555407033603897652,,-1.33088064194,-1.60779070854,-1.03583949386
1555407033606768719,418,1555407033603944630,,-1.32919228077,-1.60834121704,-1.08335978763
1555407033614647006,419,1555407033614165469,,-1.32680857182,-1.6082546711,-1.14485298768
1555407033644094840,420,1555407033643750143,,-1.32552111149,-1.60864448547,-1.18881049349
1555407033644247502,421,1555407033643775822,,-1.32108747959,-1.60937643051,-1.27634173061
1555407033654372931,422,1555407033653999479,,-1.32034575939,-1.60999786854,-1.32626874586
1555407033654389071,423,1555407033654016526,,-1.31892502308,-1.6110612154,-1.36137019424
1555407033664435617,424,1555407033664189126,,-1.31852662563,-1.61197721958,-1.40083312188
1555407033673704997,425,1555407033673427639,,-1.31635081768,-1.61262059212,-1.43907588171
1555407033684262250,426,1555407033683790288,,-1.31388306618,-1.61373245716,-1.44963262916
1555407033694604772,427,1555407033694121471,,-1.313382864,-1.61481273174,-1.51861938461
1555407033704002166,428,1555407033703516298,,-1.31218111515,-1.61593842506,-1.54396929857
1555407033704135381,429,1555407033703555342,,-1.31073832512,-1.61712145805,-1.57687102737
1555407033713996832,430,1555407033713747957,,-1.31050729752,-1.61839866638,-1.59263976947
1555407033744129517,431,1555407033743610858,,-1.30833721161,-1.61980259418,-1.62135639312
1555407033744299060,432,1555407033743653067,,-1.30752122402,-1.62314975262,-1.66200762364
1555407033754142187,433,1555407033753842050,,-1.30666124821,-1.62512791157,-1.68507434343
1555407033754289591,434,1555407033753858938,,-1.30544424057,-1.62681317329,-1.7227171549
1555407033764267578,435,1555407033764013948,,-1.30532026291,-1.62819099426,-1.74239687934
1555407033774491109,436,1555407033774208097,,-1.30348277092,-1.63046050072,-1.7643520522
1555407033783982730,437,1555407033783509049,,-1.30401945114,-1.63224804401,-1.76976464461
1555407033794267557,438,1555407033793810545,,-1.30331003666,-1.63417100906,-1.78675726652
1555407033804675424,439,1555407033804199251,,-1.30220115185,-1.63677155972,-1.80637492527
1555407033804870871,440,1555407033804232268,,-1.30199801922,-1.63860523701,-1.81926287786
1555407033813938791,441,1555407033813486298,,-1.30141305923,-1.64127385616,-1.8305092297
1555407033843666571,442,1555407033843206709,,-1.30116999149,-1.64377868176,-1.84898551229
1555407033843913685,443,1555407033843250905,,-1.30121815205,-1.64920771122,-1.86663468031
1555407033853774374,444,1555407033853495034,,-1.30101156235,-1.6519408226,-1.88363750736
1555407033853912273,445,1555407033853511960,,-1.30032670498,-1.65517055988,-1.90590704168
1555407033863865775,446,1555407033863666127,,-1.29888141155,-1.65818250179,-1.93440150769
1555407033874425500,447,1555407033873943068,,-1.30070602894,-1.66158175468,-1.93572109386
1555407033884762761,448,1555407033884296363,,-1.3012111187,-1.66486775875,-1.94513455669
1555407033894115728,449,1555407033893634252,,-1.30157375336,-1.66824305058,-1.95705294808
1555407033904440707,450,1555407033903950246,,-1.30137932301,-1.67196512222,-1.98331313851
1555407033904621906,451,1555407033903985209,,-1.30257439613,-1.67525720596,-1.99526163489
1555407033914444221,452,1555407033914144542,,-1.30283033848,-1.67965054512,-2.01541027225
1555407033923995768,453,1555407033923493116,,-1.30255532265,-1.68355536461,-2.04121236383
1555407033944616278,454,1555407033944160691,,-1.30291974545,-1.68768763542,-2.0614232457
1555407033944772165,455,1555407033944198914,,-1.30457651615,-1.69118309021,-2.06976511198
1555407033953596850,456,1555407033953359289,,-1.30527317524,-1.69623553753,-2.08634535037
1555407033953709550,457,1555407033953394489,,-1.30546069145,-1.70123386383,-2.12778553386
1555407033963807760,458,1555407033963559781,,-1.30660629272,-1.70595192909,-2.14610523658
1555407033974334260,459,1555407033973890805,,-1.30757427216,-1.71070456505,-2.1715687647
1555407033984730127,460,1555407033984267933,,-1.30977785587,-1.71425879002,-2.15785748003
1555407033994140102,461,1555407033993643530,,-1.31137084961,-1.71910667419,-2.18241626914
1555407034004474385,462,1555407034004030797,,-1.31298804283,-1.72381305695,-2.19173143939
1555407034004660847,463,1555407034004066873,,-1.31431341171,-1.72797548771,-2.2057401246
1555407034013762582,464,1555407034013295194,,-1.31535542011,-1.73315310478,-2.24401825268
1555407034024136194,465,1555407034023655376,,-1.3172570467,-1.73830378056,-2.26053799892
1555407034043693103,466,1555407034043226109,,-1.31920993328,-1.74292111397,-2.27473655503
1555407034043844284,467,1555407034043261202,,-1.32026302814,-1.74807453156,-2.29395107675
1555407034054057477,468,1555407034053579324,,-1.32210254669,-1.75252509117,-2.30984288461
1555407034054255395,469,1555407034053625346,,-1.32422661781,-1.75729906559,-2.3277440869
1555407034064400798,470,1555407034063919844,,-1.32501399517,-1.76190173626,-2.35186549409
1555407034074462579,471,1555407034074189167,,-1.32639157772,-1.76751768589,-2.37783551483
1555407034083616317,472,1555407034083380110,,-1.3287602663,-1.77212381363,-2.38862876828
1555407034094140612,473,1555407034093688193,,-1.33063364029,-1.77686715126,-2.41368088959
1555407034104537118,474,1555407034104036168,,-1.3321223259,-1.78170049191,-2.42309860743
1555407034104701837,475,1555407034104074852,,-1.33462500572,-1.78623092175,-2.44105080828
1555407034113767243,476,1555407034113290868,,-1.33622503281,-1.79149258137,-2.46811123463
1555407034124111710,477,1555407034123635903,,-1.33807480335,-1.79619967937,-2.48486247683
1555407034144620994,478,1555407034144154569,,-1.34010338783,-1.8013292551,-2.49804561857
1555407034144763554,479,1555407034144194254,,-1.34190988541,-1.80559682846,-2.51550975687
1555407034153710034,480,1555407034153418621,,-1.34437644482,-1.81012940407,-2.53003259155
1555407034153866426,481,1555407034153450146,,-1.34610128403,-1.81493020058,-2.54849533433
1555407034163825133,482,1555407034163617701,,-1.34768986702,-1.81997430325,-2.57373567322
1555407034174077092,483,1555407034173812172,,-1.34959340096,-1.82489597797,-2.58596342651
1555407034184571779,484,1555407034184095481,,-1.35212731361,-1.82984995842,-2.60811839688
1555407034193864010,485,1555407034193400536,,-1.35277295113,-1.83386027813,-2.63705514311
1555407034204145495,486,1555407034203683662,,-1.35579538345,-1.84003841877,-2.65504696105
1555407034204314679,487,1555407034203719157,,-1.35815382004,-1.84472942352,-2.66412876549
1555407034214477346,488,1555407034213969157,,-1.36039626598,-1.84871101379,-2.67699025247
1555407034224671231,489,1555407034224221807,,-1.36275196075,-1.8539993763,-2.70663473186
1555407034254490132,490,1555407034253997537,,-1.36515641212,-1.85830438137,-2.73114859435
1555407034254663326,491,1555407034254050662,,-1.37250244617,-1.87381327152,-2.81065005023
1555407034263739130,492,1555407034263269641,,-1.37538158894,-1.87889254093,-2.846170555
1555407034274056211,493,1555407034273585133,,-1.37844562531,-1.88424086571,-2.87219927294
1555407034284361090,494,1555407034283918410,,-1.38069951534,-1.88882339001,-2.90314772857
1555407034294519544,495,1555407034294236773,,-1.3844203949,-1.89396047592,-2.93755513545
1555407034304138754,496,1555407034303596676,,-1.38735032082,-1.89878416061,-2.96408991665
1555407034304301175,497,1555407034303637696,,-1.39001870155,-1.90367484093,-2.98467286642
1555407034314038563,498,1555407034313815911,,-1.39355456829,-1.90854620934,-3.02134383109
1555407034324274223,499,1555407034323997555,,-1.39678907394,-1.9132475853,-3.04875389118
1555407034334719816,500,1555407034334277270,,-1.40001404285,-1.91808962822,-3.07456784835
1555407034354270700,501,1555407034353797708,,-1.40359687805,-1.92262971401,-3.0970788009
1555407034354467279,502,1555407034353841264,,-1.41079199314,-1.93153035641,-3.13623989146
1555407034364523684,503,1555407034364079282,,-1.41392540932,-1.93664968014,3.12667404662
1555407034373849462,504,1555407034373382754,,-1.41826558113,-1.94084262848,3.10320998987
1555407034384209078,505,1555407034383747653,,-1.42243683338,-1.94513070583,3.08772131348
1555407034394512420,506,1555407034394060860,,-1.42533588409,-1.94950842857,3.06172725122
1555407034414076361,507,1555407034413573212,,-1.43061566353,-1.95414304733,3.05916226621
1555407034414213806,508,1555407034413617994,,-1.43936121464,-1.96276164055,3.0066169618
1555407034424056641,509,1555407034423800614,,-1.44306719303,-1.96651721001,2.97361557894
1555407034434234333,510,1555407034433989981,,-1.4480317831,-1.97047424316,2.957934256
1555407034474314964,511,1555407034473823528,,-1.45449471474,-1.9742628336,2.94867439578
1555407034474459178,512,1555407034473879782,,-1.47461819649,-1.98959100246,2.84034483372
1555407034484397966,513,1555407034484060193,,-1.48038649559,-1.9933668375,2.81181158973
1555407034493818458,514,1555407034493289518,,-1.4856338501,-1.99761843681,2.78311707734
1555407034504096917,515,1555407034503623891,,-1.49051260948,-2.00077438354,2.75880078294
1555407034504250401,516,1555407034503660939,,-1.4970678091,-2.00425219536,2.73706755579
1555407034514082352,517,1555407034513844075,,-1.50351178646,-2.00687336922,2.69801681986
1555407034524574306,518,1555407034524141412,,-1.50972187519,-2.01113510132,2.66503910596
1555407034533600204,519,1555407034533344956,,-1.51510512829,-2.01381087303,2.61563652297
1555407034554329405,520,1555407034553845469,,-1.52118647099,-2.01720809937,2.57346293831
1555407034554508826,521,1555407034553886656,,-1.53383994102,-2.02269053459,2.49616831128
1555407034564311825,522,1555407034564055004,,-1.54078483582,-2.02572727203,2.46430825267
1555407034573709162,523,1555407034573253252,,-1.54653346539,-2.02876877785,2.42062909935
1555407034584112554,524,1555407034583618816,,-1.55279886723,-2.03131771088,2.37002828208
1555407034594365190,525,1555407034593907105,,-1.5596255064,-2.03458285332,2.33609090571
1555407034606456650,526,1555407034604129364,,-1.56599330902,-2.036870718,2.28120587882
1555407034606642901,527,1555407034604147400,,-1.57263588905,-2.04023337364,2.24570678178
1555407034613558780,528,1555407034613327272,,-1.57915830612,-2.04221153259,2.19976285454
1555407034624122442,529,1555407034623641060,,-1.5846875906,-2.04528474808,2.14758269809
1555407034634169904,530,1555407034633854599,,-1.59141349792,-2.04763221741,2.10515706196
1555407034644633628,531,1555407034644175380,,-1.59777200222,-2.05046415329,2.06414217081
1555407034664271723,532,1555407034663793802,,-1.60442340374,-2.0524058342,2.02325102121
1555407034664439167,533,1555407034663840668,,-1.61752462387,-2.05770611763,1.91958514712
1555407034674261277,534,1555407034674033059,,-1.62349760532,-2.06033277512,1.8899454267
1555407034683731920,535,1555407034683251042,,-1.6302999258,-2.06222653389,1.83643507539
1555407034694087632,536,1555407034693587821,,-1.63595223427,-2.06456208229,1.79784286012
1555407034704086776,537,1555407034703790262,,-1.64228713512,-2.06632232666,1.76579092891
1555407034704222318,538,1555407034703806898,,-1.64879500866,-2.06839871407,1.7170295252
1555407034714173756,539,1555407034713954827,,-1.65452837944,-2.07112360001,1.6797715556
1555407034724651763,540,1555407034724193573,,-1.66112780571,-2.07285404205,1.63673272013
1555407034733667432,541,1555407034733372836,,-1.66633856297,-2.07400298119,1.61658454979
1555407034743849144,542,1555407034743532787,,-1.67254281044,-2.07560253143,1.5797892129
1555407034764512036,543,1555407034764043226,,-1.67899310589,-2.07755064964,1.54615227155
1555407034764664669,544,1555407034764079614,,-1.68469595909,-2.07923746109,1.50523884687
1555407034784105132,545,1555407034783607596,,-1.69054591656,-2.08031964302,1.4767146277
1555407034784242826,546,1555407034783653401,,-1.70205652714,-2.0830206871,1.41984203205
1555407034794051078,547,1555407034793811126,,-1.70732212067,-2.08380079269,1.40336545773
1555407034804330010,548,1555407034803969444,,-1.71310710907,-2.08499121666,1.36951112371
1555407034804488444,549,1555407034803986648,,-1.71831011772,-2.08600831032,1.35111113704
1555407034813686126,550,1555407034813201224,,-1.72372472286,-2.08700060844,1.3164331604
1555407034823706229,551,1555407034823475031,,-1.72926425934,-2.08660340309,1.288060706
1555407034833930822,552,1555407034833684571,,-1.73411107063,-2.08763313293,1.26108688047
1555407034844133907,553,1555407034843892478,,-1.73910307884,-2.08806276321,1.23735453868
1555407034864046921,554,1555407034863486167,,-1.74472177029,-2.08774805069,1.19922861068
1555407034864207636,555,1555407034863527556,,-1.74921476841,-2.0883398056,1.18327143865
1555407034864338423,556,1555407034863552415,,-1.75395357609,-2.08785867691,1.15468746856
1555407034874078898,557,1555407034873763428,,-1.7587531805,-2.08854579926,1.12695495601
1555407034884290421,558,1555407034883972305,,-1.76335763931,-2.08772158623,1.10046007186
1555407034894771606,559,1555407034894304617,,-1.76832425594,-2.08758616447,1.07089831824
1555407034904231827,560,1555407034903628888,,-1.77273905277,-2.08651256561,1.04514093834
1555407034904240204,561,1555407034903664322,,-1.77752518654,-2.08632969856,1.01179708435
1555407034914105634,562,1555407034913824374,,-1.78185987473,-2.08635282516,1.0112582787
1555407034924543655,563,1555407034924111579,,-1.78522086143,-2.0854306221,0.984049758644
1555407034933990424,564,1555407034933512055,,-1.78918778896,-2.0849673748,0.963321768158
1555407034963762752,565,1555407034963286667,,-1.80525875092,-2.08260369301,0.906610380799
1555407034974122044,566,1555407034973662855,,-1.80899810791,-2.08077001572,0.88453187942
1555407034984180802,567,1555407034983845371,,-1.81232237816,-2.08056473732,0.874650607728
1555407034994654575,568,1555407034994186624,,-1.81607627869,-2.07990598679,0.858451752175
1555407035003648217,569,1555407035003385171,,-1.81923723221,-2.07835626602,0.842413409332
1555407035003785882,570,1555407035003406808,,-1.82205760479,-2.07645463943,0.819772026592
1555407035013858218,571,1555407035013606361,,-1.8249502182,-2.07546901703,0.80915002289
1555407035024328132,572,1555407035023880173,,-1.82841324806,-2.07462120056,0.792033921641
1555407035034753876,573,1555407035034259467,,-1.83123874664,-2.07264184952,0.757819157741
1555407035044133123,574,1555407035043638730,,-1.83385014534,-2.07170295715,0.755673781087
1555407035054457961,575,1555407035054005609,,-1.83587431908,-2.06944775581,0.739499026034
1555407035074202751,576,1555407035073524594,,-1.83815264702,-2.0679795742,0.710042835701
1555407035074426317,577,1555407035073601322,,-1.84322464466,-2.064453125,0.672127264906
1555407035084102736,578,1555407035083811502,,-1.84503626823,-2.06307315826,0.658837754624
1555407035174021799,579,1555407035173577298,,-1.86369979382,-2.0457572937,0.4755173665
1555407035174172294,580,1555407035173612777,,-1.86569130421,-2.04361343384,0.454604841464
1555407035184361543,581,1555407035183903603,,-1.86734354496,-2.042273283,0.450042118433
1555407035194403320,582,1555407035194097709,,-1.86876559258,-2.03898358345,0.407977642615
1555407035203832763,583,1555407035203359038,,-1.87053537369,-2.0378973484,0.402785564111
1555407035204002371,584,1555407035203394930,,-1.87163853645,-2.03627991676,0.39429351953
1555407035214161998,585,1555407035213699959,,-1.87324142456,-2.03435659409,0.381250532323
1555407035224262709,586,1555407035223992218,,-1.87439107895,-2.03345251083,0.373842443449
1555407035234513288,587,1555407035234209848,,-1.87537360191,-2.03182888031,0.357302043805
1555407035244080021,588,1555407035243590782,,-1.87669575214,-2.02958059311,0.356607077272
1555407035254124515,589,1555407035253867732,,-1.8775100708,-2.02704381943,0.347039432328
1555407035273899176,590,1555407035273438013,,-1.87877631187,-2.02701067924,0.353992660201
1555407035274052828,591,1555407035273481349,,-1.87996518612,-2.02292919159,0.339657126187
1555407035284242153,592,1555407035283791992,,-1.88091921806,-2.02145504951,0.348061377663
1555407035294306623,593,1555407035294005476,,-1.88107383251,-2.01977825165,0.354072336204
1555407035303659750,594,1555407035303246088,,-1.8814278841,-2.01887130737,0.360489918296
1555407035313775467,595,1555407035313500561,,-1.88145196438,-2.01752591133,0.385108421981
1555407035313915410,596,1555407035313517639,,-1.88244581223,-2.01529765129,0.368046632761
1555407035323960342,597,1555407035323713648,,-1.88252151012,-2.01375055313,0.376093923956
1555407035334474017,598,1555407035334008216,,-1.88237714767,-2.01226234436,0.377510032644
1555407035353910113,599,1555407035353455001,,-1.882984519,-2.00866627693,0.427005577325
1555407035374570273,600,1555407035374099785,,-1.88272333145,-2.00640058517,0.411389323828
1555407035374739463,601,1555407035374137387,,-1.8822003603,-2.00598812103,0.457227905771
1555407035383552704,602,1555407035383297969,,-1.88172054291,-2.00471138954,0.478819001756
1555407035394092527,603,1555407035393615793,,-1.88107526302,-2.00263142586,0.48302728011
1555407035404402546,604,1555407035403961033,,-1.88135457039,-2.00079131126,0.485998104555
1555407035404555136,605,1555407035403995230,,-1.88046944141,-1.99918186665,0.509294128166
1555407035414398176,606,1555407035414171728,,-1.87991142273,-1.99771666527,0.518496898703
1555407035423944820,607,1555407035423480616,,-1.87917423248,-1.99678599834,0.538260871062
1555407035434242221,608,1555407035433779428,,-1.87895870209,-1.994566679,0.537760620263
1555407035444595730,609,1555407035444118426,,-1.87710273266,-1.99172639847,0.532776219845
1555407035453952212,610,1555407035453384252,,-1.87645995617,-1.98922419548,0.531527374614
1555407035453960349,611,1555407035453420548,,-1.87596487999,-1.98945403099,0.564086696598
1555407035484640437,612,1555407035484166604,,-1.87248277664,-1.98159813881,0.539457171425
1555407035493943172,613,1555407035493467650,,-1.87109494209,-1.98060417175,0.562760664951
1555407035504230372,614,1555407035503771287,,-1.86827671528,-1.97792553902,0.546236108118
1555407035504395858,615,1555407035503808884,,-1.86788535118,-1.97695934772,0.563213697981
1555407035514559977,616,1555407035514088652,,-1.8663264513,-1.97424995899,0.554546130491
1555407035523867806,617,1555407035523417025,,-1.86343169212,-1.97050690651,0.536527104529
1555407035533934202,618,1555407035533643762,,-1.86189305782,-1.9683277607,0.534081163377
1555407035584622731,619,1555407035584168240,,-1.8464243412,-1.952044487,0.509983349936
1555407035593960575,620,1555407035593466105,,-1.84457910061,-1.95008099079,0.517211691381
1555407035606422300,621,1555407035603785630,,-1.84118533134,-1.94551730156,0.493022140594
1555407035606587717,622,1555407035603820426,,-1.83788442612,-1.94324827194,0.495578219285
1555407035614545715,623,1555407035614095986,,-1.83470547199,-1.93987333775,0.48076554331
1555407035623892948,624,1555407035623422777,,-1.83091318607,-1.93725919724,0.481859424406
1555407035634253699,625,1555407035633788111,,-1.82765769958,-1.93278539181,0.453500250207
1555407035644655998,626,1555407035644164023,,-1.82376933098,-1.93040132523,0.470272877225
1555407035653976962,627,1555407035653521589,,-1.82081317902,-1.92730236053,0.439458030024
1555407035654128959,628,1555407035653556650,,-1.81672215462,-1.92327702045,0.429537664923
1555407035684800250,629,1555407035684298907,,-1.81326723099,-1.92084825039,0.422346400975
1555407035684977483,630,1555407035684342438,,-1.80446124077,-1.91304767132,0.411764857657
1555407035694179597,631,1555407035693677199,,-1.80042171478,-1.91128587723,0.416463830986
1555407035704498624,632,1555407035704045078,,-1.79637312889,-1.90651297569,0.390983645488
1555407035704655939,633,1555407035704080878,,-1.7920255661,-1.90432989597,0.402668574865
1555407035713812475,634,1555407035713312216,,-1.7877188921,-1.900400877,0.385343844122
1555407035724089474,635,1555407035723616938,,-1.7829656601,-1.89738333225,0.388440953231
1555407035734478045,636,1555407035733998623,,-1.7789003849,-1.89329397678,0.370644078513
1555407035743744157,637,1555407035743254842,,-1.77366542816,-1.88996720314,0.377350483314
1555407035754070713,638,1555407035753619196,,-1.7681992054,-1.88630473614,0.367659057557
1555407035754213616,639,1555407035753654458,,-1.76344299316,-1.88366901875,0.389997429163
1555407035764442242,640,1555407035763995592,,-1.75941073895,-1.88023197651,0.383804233363
1555407035784058986,641,1555407035783570823,,-1.75463736057,-1.87725293636,0.391305066272
1555407035784219085,642,1555407035783606775,,-1.74947285652,-1.87383377552,0.386081654984
1555407035794008185,643,1555407035793781721,,-1.7449567318,-1.87097012997,0.402904175621
1555407035804230892,644,1555407035803955265,,-1.73989236355,-1.86743962765,0.405838533178
1555407035804372385,645,1555407035803991337,,-1.73443162441,-1.86368834972,0.402838076691
1555407035814427797,646,1555407035814192537,,-1.73015224934,-1.86031591892,0.406737786332
1555407035823983437,647,1555407035823512504,,-1.72536027431,-1.85700106621,0.405606969229
1555407035834407401,648,1555407035833908764,,-1.71993470192,-1.85506379604,0.429710405875
1555407035844778347,649,1555407035844298116,,-1.71439361572,-1.85073769093,0.430971719957
1555407035854094286,650,1555407035853653776,,-1.71003770828,-1.84743762016,0.430025093032
1555407035854253304,651,1555407035853693132,,-1.70465159416,-1.84413313866,0.429493432337
1555407035864178233,652,1555407035863897811,,-1.70012426376,-1.84101271629,0.445737793067
1555407035884089249,653,1555407035883482802,,-1.69482898712,-1.8384449482,0.462554784292
1555407035884099404,654,1555407035883521915,,-1.68985664845,-1.83450996876,0.457202256965
1555407035893989970,655,1555407035893742542,,-1.6844419241,-1.83064389229,0.454541618381
1555407035904221676,656,1555407035903960873,,-1.67951869965,-1.82909417152,0.486530470167
1555407035904401937,657,1555407035903992328,,-1.67337810993,-1.82459008694,0.49427481037
1555407035914733768,658,1555407035914288440,,-1.66823387146,-1.82108461857,0.480107334889
1555407035924138336,659,1555407035923663628,,-1.66237699986,-1.81775605679,0.491733612173
1555407035934610184,660,1555407035934152516,,-1.65623438358,-1.81200671196,0.466774957966
1555407035943965991,661,1555407035943489424,,-1.65002286434,-1.81072378159,0.507154079346
1555407035954290342,662,1555407035953824995,,-1.64495360851,-1.80664813519,0.50444949171
1555407035954473634,663,1555407035953867737,,-1.63873910904,-1.80243051052,0.50228123221
1555407035964642764,664,1555407035964191992,,-1.6324095726,-1.79936563969,0.511091444505
1555407036034489976,665,1555407036034047495,,-1.5822968483,-1.76708364487,0.54099606927
1555407036043716980,666,1555407036043241726,,-1.57621359825,-1.76418507099,0.532375561814
1555407036054006547,667,1555407036053541828,,-1.56956243515,-1.76019632816,0.53857226655
1555407036054158349,668,1555407036053575883,,-1.56236839294,-1.75602984428,0.553620774348
1555407036064376731,669,1555407036063884242,,-1.55665099621,-1.75232863426,0.539767825392
1555407036074711562,670,1555407036074243953,,-1.54955625534,-1.74802649021,0.542182777143
