%time,field.header.seq,field.header.stamp,field.header.frame_id,field.point.x,field.point.y,field.point.z
1554974746161560557,1,1554974746161118908,,0.859844505787,0.0260248780251,-1.04191197191
1554974746182386862,2,1554974746181809169,,0.857209324837,0.0262664370239,-1.06613449989
1554974746182396662,3,1554974746181843974,,0.854718923569,0.026435200125,-1.09236752838
1554974746192255157,4,1554974746192013691,,0.851968109608,0.0263950489461,-1.116428393
1554974746192401425,5,1554974746192039963,,0.849177122116,0.0265266727656,-1.14457126519
1554974746201462115,6,1554974746201207672,,0.846589028835,0.0267186202109,-1.1715622387
1554974746212048704,7,1554974746211565882,,0.84378182888,0.0268533099443,-1.20206874007
1554974746222390472,8,1554974746221935804,,0.840907275677,0.0269780531526,-1.23378613495
1554974746231618131,9,1554974746231138007,,0.838038504124,0.0272664539516,-1.26675299214
1554974746241751768,10,1554974746241374280,,0.835055887699,0.0274869948626,-1.30167085075
1554974746252002116,11,1554974746251642426,,0.832150161266,0.0278302039951,-1.33657736677
1554974746252013030,12,1554974746251658867,,0.829339087009,0.028242951259,-1.37117491864
1554974746262475929,13,1554974746261995070,,0.826245009899,0.0286644753069,-1.40849693782
1554974746282089663,14,1554974746281655386,,0.823168337345,0.0289739891887,-1.44909252932
1554974746282246342,15,1554974746281691355,,0.820177257061,0.0294023919851,-1.4874606083
1554974746292146390,16,1554974746291906190,,0.817048430443,0.0299258381128,-1.52568212551
1554974746292360962,17,1554974746291933743,,0.814099371433,0.0305400043726,-1.56779442469
1554974746301635573,18,1554974746301162065,,0.811206221581,0.0309968851507,-1.60991406871
1554974746311639116,19,1554974746311346708,,0.808494091034,0.0315890423954,-1.64885161745
1554974746322082484,20,1554974746321634616,,0.805435538292,0.0321671143174,-1.69332346062
1554974746332471790,21,1554974746331997541,,0.802570939064,0.0328075923026,-1.73606489917
1554974746341722714,22,1554974746341257714,,0.79978531599,0.033509876579,-1.77876196281
1554974746352101618,23,1554974746351607947,,0.797082781792,0.0342740304768,-1.81860388224
1554974746352259755,24,1554974746351643299,,0.794363200665,0.0350436158478,-1.85996565251
1554974746362439223,25,1554974746361962544,,0.791705727577,0.0359239131212,-1.90403410884
1554974746392295435,26,1554974746391752930,,0.789127290249,0.0367325097322,-1.94689978544
1554974746392436943,27,1554974746391796619,,0.784157931805,0.0386785194278,-2.03694341285
1554974746402354100,28,1554974746402006386,,0.781371235847,0.0395767018199,-2.07933404479
1554974746402409756,29,1554974746402022554,,0.778773546219,0.0405636914074,-2.12287265087
1554974746411528778,30,1554974746411219812,,0.776298463345,0.0417464338243,-2.16756429796
1554974746422015816,31,1554974746421546539,,0.773621737957,0.0430597439408,-2.20982880127
1554974746432374505,32,1554974746431919336,,0.771079242229,0.0443869866431,-2.2555388687
1554974746441483335,33,1554974746441092299,,0.768290817738,0.0458786673844,-2.29542544967
1554974746451874178,34,1554974746451405000,,0.76565849781,0.0473599471152,-2.34306367965
1554974746451996337,35,1554974746451438842,,0.763098955154,0.0492032803595,-2.38566678022
1554974746462232882,36,1554974746461778205,,0.760263085365,0.0510740764439,-2.42736224095
1554974746472602497,37,1554974746472142797,,0.757583320141,0.0527546666563,-2.47065399882
1554974746492229836,38,1554974746491776230,,0.754787623882,0.054853040725,-2.51290049261
1554974746492390319,39,1554974746491811218,,0.75205296278,0.0571698471904,-2.55799124812
1554974746502579842,40,1554974746502133009,,0.749299347401,0.0594638250768,-2.60052667043
1554974746502745813,41,1554974746502166585,,0.746496737003,0.0617157369852,-2.64762968011
1554974746511958333,42,1554974746511498273,,0.743858218193,0.0641812905669,-2.69189837323
1554974746522333820,43,1554974746521885945,,0.741122126579,0.066840223968,-2.73271234962
1554974746531575320,44,1554974746531130103,,0.73849773407,0.0697450935841,-2.7771396506
1554974746541836499,45,1554974746541426724,,0.735949039459,0.0725140497088,-2.82156635493
1554974746552243772,46,1554974746551787321,,0.73326086998,0.0754274204373,-2.86507418818
1554974746552399343,47,1554974746551825536,,0.730800271034,0.0785689875484,-2.90839566914
1554974746562285497,48,1554974746562035508,,0.72829002142,0.0818649455905,-2.95199953015
1554974746571782966,49,1554974746571347392,,0.72588545084,0.0851121917367,-2.99722901015
1554974746592536122,50,1554974746592051506,,0.7235481143,0.0884533822536,-3.03740184004
1554974746592788092,51,1554974746592089457,,0.721180081367,0.0921275690198,-3.07877217415
1554974746592797698,52,1554974746592117082,,0.718998014927,0.0955155715346,-3.11910648464
1554974746601854301,53,1554974746601600726,,0.716790616512,0.0991134047508,3.12383730326
1554974746612406878,54,1554974746611971909,,0.714868187904,0.10286308825,3.08451654535
1554974746621812874,55,1554974746621356264,,0.712727129459,0.10657055676,3.04577491096
1554974746632194923,56,1554974746631759707,,0.710763633251,0.110538899899,3.00850744543
1554974746642552239,57,1554974746642117073,,0.708938002586,0.114157266915,2.97425327628
1554974746642715648,58,1554974746642152461,,0.706981539726,0.117973253131,2.93711818888
1554974746651567612,59,1554974746651341467,,0.705150902271,0.122054770589,2.90440825267
1554974746662157037,60,1554974746661706090,,0.703674256802,0.126058667898,2.87129836578
1554974746672211827,61,1554974746671967378,,0.702050924301,0.130071386695,2.84200599338
1554974746691976389,62,1554974746691511314,,0.700445353985,0.134130552411,2.80713283722
1554974746692113195,63,1554974746691549596,,0.699005126953,0.138113453984,2.77903801548
1554974746702043708,64,1554974746701771754,,0.697604000568,0.142214462161,2.75069663272
1554974746702179137,65,1554974746701802392,,0.696151077747,0.146280437708,2.72428341725
1554974746712289139,66,1554974746712000232,,0.69461363554,0.150177150965,2.69087090771
1554974746721817408,67,1554974746721338634,,0.693329691887,0.154163643718,2.66352976075
1554974746732216149,68,1554974746731732269,,0.691976249218,0.158021688461,2.63462813676
1554974746742546489,69,1554974746742095265,,0.690675497055,0.16201095283,2.61003934606
1554974746742678484,70,1554974746742131402,,0.689483940601,0.166015595198,2.58536320617
1554974746751627966,71,1554974746751382087,,0.688181638718,0.169839471579,2.56042330626
1554974746762204141,72,1554974746761739361,,0.686989665031,0.173562601209,2.53307154383
1554974746772595937,73,1554974746772118853,,0.685893833637,0.177493929863,2.5077700262
1554974746781921547,74,1554974746781447224,,0.684704244137,0.181286901236,2.48235206796
1554974746802551122,75,1554974746802079665,,0.68358206749,0.18495182693,2.45731388084
1554974746802787328,76,1554974746802121350,,0.681476175785,0.192751407623,2.41490640616
1554974746811934934,77,1554974746811462606,,0.680544495583,0.19633486867,2.39097363806
1554974746822318793,78,1554974746821849643,,0.679777979851,0.200191423297,2.37132261999
1554974746831569744,79,1554974746831103984,,0.678911805153,0.204008132219,2.3543751173
1554974746841753730,80,1554974746841341150,,0.678039252758,0.207671836019,2.33589736794
1554974746852139644,81,1554974746851657272,,0.67754393816,0.211391404271,2.32147385758
1554974746852275591,82,1554974746851690716,,0.67693066597,0.215400248766,2.30603152557
1554974746862512309,83,1554974746862021033,,0.676433146,0.21917206049,2.2943835532
1554974746871840294,84,1554974746871357320,,0.675748109818,0.223018586636,2.27863591732
1554974746882199339,85,1554974746881705805,,0.675411701202,0.226821660995,2.27146896138
1554974746901931271,86,1554974746901417942,,0.675109624863,0.230503067374,2.2590722989
1554974746902110352,87,1554974746901458794,,0.674243271351,0.238058522344,2.23931213419
1554974746911931592,88,1554974746911673764,,0.673817813396,0.241805642843,2.23236984979
1554974746922413667,89,1554974746921979402,,0.673651814461,0.245553553104,2.2238700799
1554974746931832737,90,1554974746931351958,,0.673200070858,0.249267920852,2.21981065357
1554974746942095632,91,1554974746941630793,,0.673043370247,0.252837330103,2.21277954931
1554974746952427220,92,1554974746951952039,,0.67256462574,0.256331592798,2.2063796648
1554974746952563814,93,1554974746951986961,,0.672507762909,0.259987384081,2.20134013797
1554974746962072798,94,1554974746961294699,,0.67217451334,0.263503700495,2.19466827631
1554974746972150047,95,1554974746971694570,,0.671803593636,0.267166703939,2.1904286928
1554974746982527270,96,1554974746982056248,,0.671640753746,0.270575374365,2.18618470587
1554974747002314833,97,1554974747001821654,,0.671178817749,0.274133503437,2.18261952603
1554974747002452809,98,1554974747001864708,,0.670439779758,0.280860930681,2.17408558462
1554974747012326934,99,1554974747012053274,,0.670208930969,0.2842015028,2.17160598007
1554974747021673741,100,1554974747021277369,,0.669903755188,0.287443608046,2.17127916895
1554974747032130217,101,1554974747031711453,,0.669673740864,0.29085958004,2.16687529295
1554974747042471283,102,1554974747042023752,,0.669318914413,0.293980062008,2.16827846167
1554974747051914097,103,1554974747051423544,,0.669077455997,0.297225296497,2.16540089211
1554974747052014136,104,1554974747051456238,,0.668623805046,0.300589352846,2.16560891719
1554974747061962758,105,1554974747061675441,,0.668229103088,0.303654015064,2.16628622272
1554974747072463613,106,1554974747072009084,,0.667983949184,0.306765735149,2.1662619955
1554974747081905516,107,1554974747081437941,,0.667627811432,0.309918403625,2.16599446798
1554974747102606958,108,1554974747102141578,,0.667374491692,0.313077628613,2.16866849823
1554974747102748051,109,1554974747102182395,,0.666984498501,0.319434195757,2.17487598207
1554974747111582130,110,1554974747111351705,,0.66685461998,0.322303771973,2.18138242757
1554974747122096553,111,1554974747121640891,,0.666532635689,0.325324743986,2.18723972838
1554974747132529169,112,1554974747132006830,,0.666569590569,0.328488141298,2.19517343755
1554974747141917158,113,1554974747141323160,,0.66663223505,0.33147957921,2.20303147603
1554974747152247970,114,1554974747151660142,,0.666550219059,0.334500432014,2.21410921156
1554974747152421281,115,1554974747151697801,,0.666803717613,0.337757110596,2.22731239939
1554974747162481370,116,1554974747162039076,,0.666972219944,0.340940743685,2.24092878655
1554974747171816502,117,1554974747171350854,,0.667084157467,0.344061493874,2.25568156014
1554974747182178787,118,1554974747181714333,,0.66744017601,0.347248822451,2.27124736321
1554974747192530075,119,1554974747192061524,,0.667756736279,0.350329756737,2.28789522259
1554974747212285622,120,1554974747211794531,,0.668142914772,0.353564292192,2.31011961712
1554974747212486840,121,1554974747211839279,,0.669138014317,0.359813272953,2.34751264145
1554974747222653110,122,1554974747222163263,,0.66947132349,0.363248974085,2.36746188257
1554974747231998889,123,1554974747231495538,,0.670083463192,0.36654484272,2.38381029209
1554974747242175867,124,1554974747241736265,,0.670526325703,0.369947463274,2.40439719752
1554974747252522487,125,1554974747252061827,,0.671352207661,0.373459458351,2.41908245409
1554974747252693239,126,1554974747252096067,,0.672021687031,0.376925528049,2.43842659253
1554974747261632016,127,1554974747261285338,,0.672633767128,0.380395799875,2.45174104853
1554974747272131882,128,1554974747271636287,,0.673389554024,0.384022980928,2.46943764907
1554974747282545128,129,1554974747282021120,,0.67422658205,0.387538224459,2.4825504497
1554974747291887859,130,1554974747291378772,,0.675008416176,0.391119390726,2.49496941303
1554974747312664294,131,1554974747312038514,,0.675875008106,0.394784480333,2.5108159138
1554974747312673521,132,1554974747312084242,,0.677308917046,0.402121186256,2.53565609958
1554974747321638857,133,1554974747321305526,,0.678211152554,0.405746728182,2.55274093801
1554974747332146692,134,1554974747331653615,,0.678996026516,0.409236162901,2.565879428
1554974747342427523,135,1554974747341963842,,0.679841995239,0.412908881903,2.57763235524
1554974747351804069,136,1554974747351333978,,0.68062633276,0.416559994221,2.59109018613
1554974747351946195,137,1554974747351377347,,0.681538522243,0.420190989971,2.60354563355
1554974747362120978,138,1554974747361661966,,0.682309746742,0.42367964983,2.61597711756
1554974747372413351,139,1554974747371961116,,0.683041453362,0.427307993174,2.63246583692
1554974747381806123,140,1554974747381296135,,0.683883368969,0.430955260992,2.64528711682
1554974747392090336,141,1554974747391601958,,0.684683144093,0.434512108564,2.65792739671
1554974747412561763,142,1554974747412055507,,0.685358166695,0.438136965036,2.66913499082
1554974747412721451,143,1554974747412097041,,0.686909973621,0.445304751396,2.69351746729
1554974747421893787,144,1554974747421418872,,0.687695026398,0.448858201504,2.70836394639
1554974747432316890,145,1554974747431796220,,0.688406467438,0.452288895845,2.72115339682
1554974747442473993,146,1554974747442055325,,0.689056575298,0.45572707057,2.73420330511
1554974747442616800,147,1554974747442086837,,0.689747035503,0.459236860275,2.74635042996
1554974747451599873,148,1554974747451273566,,0.690477728844,0.462570458651,2.7603458357
1554974747462064318,149,1554974747461583489,,0.691016674042,0.46603167057,2.77029838482
1554974747472348639,150,1554974747471891342,,0.691810309887,0.469265460968,2.78399395011
1554974747481623765,151,1554974747481132975,,0.692186772823,0.472835659981,2.79493614968
1554974747492038574,152,1554974747491502292,,0.693010151386,0.476310104132,2.80976415664
1554974747502280358,153,1554974747501813515,,0.693659126759,0.479861438274,2.82101383512
1554974747521851600,154,1554974747521366646,,0.694247961044,0.483286589384,2.83148494116
1554974747522120381,155,1554974747521415530,,0.694976091385,0.48696616292,2.8426641124
1554974747522130967,156,1554974747521462467,,0.695758998394,0.490720361471,2.85493147529
1554974747532412856,157,1554974747531910964,,0.696426331997,0.494468092918,2.86613471439
1554974747541605464,158,1554974747541132360,,0.697234213352,0.498513460159,2.87453550187
1554974747551731095,159,1554974747551352076,,0.698180794716,0.502441763878,2.8889869525
1554974747551886452,160,1554974747551369455,,0.698944687843,0.506671905518,2.9015372299
1554974747562576111,161,1554974747561650167,,0.699756979942,0.510801911354,2.91023349981
1554974747572447273,162,1554974747572011393,,0.700747191906,0.515099525452,2.92322081413
1554974747581890369,163,1554974747581370212,,0.701817929745,0.519485890865,2.93561763914
1554974747592208518,164,1554974747591718000,,0.702716112137,0.52413803339,2.9500424541
1554974747602524955,165,1554974747602097467,,0.703838825226,0.528593599796,2.96382559946
1554974747622265845,166,1554974747621700669,,0.704832792282,0.533074200153,2.97653820427
1554974747622515668,167,1554974747621736924,,0.705879211426,0.538009822369,2.99398268591
1554974747622523612,168,1554974747621763485,,0.706796765327,0.542625844479,3.00862400499
1554974747632596440,169,1554974747632131389,,0.708090484142,0.547476291656,3.02703218022
1554974747641785267,170,1554974747641429256,,0.709104835987,0.552139520645,3.0452065354
1554974747652221651,171,1554974747651771447,,0.71016907692,0.557049751282,3.06383735532
1554974747652405874,172,1554974747651810115,,0.711248457432,0.562051475048,3.0847955689
1554974747662641015,173,1554974747662168093,,0.712535142899,0.567161202431,3.10584422221
1554974747671934227,174,1554974747671500273,,0.713890910149,0.572272777557,3.1300509243
1554974747682335700,175,1554974747681879014,,0.71482115984,0.577277064323,-3.13147283957
1554974747691634827,176,1554974747691144776,,0.715901613235,0.582467973232,-3.10752215951
1554974747701917654,177,1554974747701458549,,0.71701157093,0.587647557259,-3.08515881199
1554974747722526996,178,1554974747722049803,,0.718112707138,0.593005776405,-3.06406249123
1554974747722698559,179,1554974747722085383,,0.719386458397,0.598248958588,-3.04433146481
1554974747722839320,180,1554974747722116274,,0.720287561417,0.603639185429,-3.02399729972
1554974747731541556,181,1554974747731304664,,0.721459686756,0.609149575233,-3.00500941177
1554974747741930769,182,1554974747741564302,,0.722371399403,0.614664912224,-2.98618063901
1554974747752374771,183,1554974747751893917,,0.723477125168,0.620150864124,-2.96785797475
1554974747752570709,184,1554974747751931068,,0.72436863184,0.625879943371,-2.95183199025
1554974747761589296,185,1554974747761145462,,0.725546658039,0.631575405598,-2.93379386801
1554974747771909572,186,1554974747771474615,,0.72634857893,0.637474119663,-2.9204571312
1554974747782259622,187,1554974747781842255,,0.727336585522,0.643122136593,-2.90877042546
1554974747791550714,188,1554974747791122772,,0.728213965893,0.64904499054,-2.89446991103
1554974747801923649,189,1554974747801460549,,0.729182124138,0.655086398125,-2.88659039626
1554974747822695936,190,1554974747822099903,,0.729971885681,0.66106981039,-2.87504549223
1554974747822832383,191,1554974747822135409,,0.731015920639,0.667220056057,-2.86438525504
1554974747822838976,192,1554974747822168961,,0.731774747372,0.673538267612,-2.85170747517
1554974747831976620,193,1554974747831496806,,0.732518434525,0.68003308773,-2.84178941096
1554974747842254443,194,1554974747841844125,,0.733401238918,0.686569452286,-2.82939791201
1554974747851541374,195,1554974747851101648,,0.733847796917,0.69342726469,-2.81731077172
1554974747851703602,196,1554974747851138024,,0.734724283218,0.700170040131,-2.80395231004
1554974747861585497,197,1554974747861337538,,0.73531550169,0.70705139637,-2.79459694162
1554974747871814548,198,1554974747871541277,,0.735869586468,0.713956534863,-2.78219427404
1554974747882284872,199,1554974747881841837,,0.736493527889,0.72096991539,-2.77069116368
1554974747891572480,200,1554974747891092063,,0.737159252167,0.72822445631,-2.75788825279
1554974747901945027,201,1554974747901421956,,0.73751860857,0.735351860523,-2.74558524879
1554974747902096575,202,1554974747901460458,,0.73819488287,0.742440998554,-2.73180979263
1554974747922472173,203,1554974747922027492,,0.738815844059,0.749636471272,-2.71871043598
1554974747922643976,204,1554974747922061849,,0.739352405071,0.756870508194,-2.70647505406
1554974747931891051,205,1554974747931398045,,0.739792823792,0.764105737209,-2.69608673547
1554974747942162493,206,1554974747941716279,,0.740241467953,0.771185040474,-2.68263402741
1554974747952516432,207,1554974747952035581,,0.740790605545,0.778215825558,-2.67293517914
1554974747952676336,208,1554974747952067802,,0.741346776485,0.785397171974,-2.65866803043
1554974747961890810,209,1554974747961417806,,0.741901814938,0.792521893978,-2.64940169254
1554974747972188617,210,1554974747971734761,,0.742362380028,0.79961180687,-2.63668940375
1554974747982565562,211,1554974747982084970,,0.742866873741,0.806784570217,-2.62537503007
1554974747991912035,212,1554974747991416635,,0.743149399757,0.813788115978,-2.61946233993
1554974748002199254,213,1554974748001676169,,0.743631243706,0.821147561073,-2.6077404154
1554974748002271898,214,1554974748001710264,,0.743845999241,0.828346014023,-2.5954573635
1554974748032207809,215,1554974748031698019,,0.744169414043,0.83571857214,-2.58482657416
1554974748032446800,216,1554974748031745133,,0.744457125664,0.850878179073,-2.56430913585
1554974748042376923,217,1554974748041962453,,0.744669675827,0.858473598957,-2.55114634939
1554974748042552205,218,1554974748041993369,,0.744541823864,0.866238057613,-2.54096476696
1554974748051767771,219,1554974748051263472,,0.744683980942,0.874135315418,-2.52648540662
1554974748062102399,220,1554974748061635104,,0.74445950985,0.882161736488,-2.52000971557
1554974748072428074,221,1554974748071976401,,0.744345366955,0.890209496021,-2.50663175462
1554974748081787412,222,1554974748081314165,,0.744045674801,0.898388683796,-2.49162451999
1554974748092190395,223,1554974748091689468,,0.743790209293,0.906399548054,-2.48290749078
1554974748102530652,224,1554974748102025840,,0.743122339249,0.914958059788,-2.46901698504
1554974748102689214,225,1554974748102067260,,0.742630839348,0.923361420631,-2.45709097321
1554974748132274077,226,1554974748131795574,,0.742144286633,0.931656420231,-2.44987344592
1554974748132427687,227,1554974748131841360,,0.740733385086,0.949187278748,-2.42288000672
1554974748142439794,228,1554974748142023448,,0.739779114723,0.958004951477,-2.40915691834
1554974748142594292,229,1554974748142054037,,0.738822102547,0.966987788677,-2.39654814721
1554974748151800094,230,1554974748151308324,,0.737796247005,0.975888669491,-2.3842617103
1554974748162254915,231,1554974748161598447,,0.736791193485,0.985312759876,-2.37009259278
1554974748172360410,232,1554974748171927073,,0.735555827618,0.99426561594,-2.35904513952
1554974748181612390,233,1554974748181170405,,0.73430788517,1.00337648392,-2.34644928371
1554974748192015344,234,1554974748191549569,,0.733006358147,1.01291358471,-2.33093386356
1554974748202369737,235,1554974748201902214,,0.731687664986,1.02201318741,-2.31792995433
1554974748202607283,236,1554974748201937434,,0.730257213116,1.0311858654,-2.30625816335
1554974748211685434,237,1554974748211159769,,0.728982210159,1.0405908823,-2.29206201948
1554974748232219536,238,1554974748231706359,,0.727518320084,1.04975187778,-2.28139984688
1554974748232380164,239,1554974748231742087,,0.726222753525,1.05903232098,-2.26742563915
1554974748242348116,240,1554974748241940802,,0.724674403667,1.06846618652,-2.25592773578
1554974748242471940,241,1554974748241972418,,0.723355770111,1.0777848959,-2.24428735476
1554974748251500593,242,1554974748251245318,,0.722069323063,1.08691394329,-2.23398523753
1554974748262056257,243,1554974748261595337,,0.720402300358,1.09630775452,-2.22120759613
1554974748272367976,244,1554974748271937402,,0.719013273716,1.10540723801,-2.21221749201
1554974748281712632,245,1554974748281172926,,0.7179235816,1.11447548866,-2.20452615702
1554974748292019193,246,1554974748291544173,,0.71606105566,1.12388825417,-2.18997473188
1554974748302273041,247,1554974748301815176,,0.714622199535,1.13291990757,-2.17848224535
1554974748302401599,248,1554974748301849817,,0.712894082069,1.14239275455,-2.16388663515
1554974748312235768,249,1554974748312001609,,0.711218237877,1.1516443491,-2.15889858605
1554974748332082307,250,1554974748331615179,,0.709495842457,1.16108942032,-2.14752371323
1554974748332221105,251,1554974748331652329,,0.707435429096,1.17058169842,-2.13128750687
1554974748342223530,252,1554974748341865381,,0.705320298672,1.18008196354,-2.12233078565
1554974748342387342,253,1554974748341889165,,0.703206658363,1.18953084946,-2.11228015819
1554974748351275504,254,1554974748351035144,,0.700897872448,1.19889092445,-2.09703684418
1554974748361890956,255,1554974748361383555,,0.698573768139,1.20873808861,-2.08755874064
1554974748372172528,256,1554974748371688333,,0.695824444294,1.21861934662,-2.07227629147
1554974748382497110,257,1554974748382014417,,0.693205356598,1.22841119766,-2.06123366371
1554974748391887163,258,1554974748391347560,,0.690610945225,1.23812007904,-2.05043060153
1554974748402123471,259,1554974748401637449,,0.68769723177,1.24801695347,-2.03808411382
1554974748402281262,260,1554974748401669405,,0.684570908546,1.25780308247,-2.02148872283
1554974748412349825,261,1554974748411885910,,0.681418836117,1.2682158947,-2.01341264661
1554974748442197612,262,1554974748441723775,,0.678269028664,1.27797138691,-1.99799780318
1554974748442384607,263,1554974748441769003,,0.671392261982,1.29831135273,-1.9712452833
1554974748452499503,264,1554974748452027547,,0.667744636536,1.30844068527,-1.96100150502
1554974748452694890,265,1554974748452061757,,0.66411793232,1.31881248951,-1.94698695773
1554974748461596778,266,1554974748461284139,,0.660220861435,1.32923460007,-1.92864839578
1554974748472097438,267,1554974748471630222,,0.656216442585,1.33929955959,-1.91474722915
1554974748482439507,268,1554974748481972885,,0.652314424515,1.34961104393,-1.90127099963
1554974748491827683,269,1554974748491345154,,0.648230314255,1.36005222797,-1.88245296245
1554974748502188525,270,1554974748501694355,,0.643810033798,1.370246768,-1.86705021465
1554974748502290779,271,1554974748501734639,,0.639637470245,1.38059902191,-1.85167284759
1554974748512580675,272,1554974748512102350,,0.635197043419,1.39128422737,-1.83194444842
1554974748542578955,273,1554974748542116913,,0.63080739975,1.40144169331,-1.81412731538
1554974748542710813,274,1554974748542156769,,0.626182079315,1.4116859436,-1.795363999
1554974748542852348,275,1554974748542188593,,0.621702313423,1.42204248905,-1.77380599447
1554974748542960798,276,1554974748542202215,,0.617019951344,1.43218648434,-1.75204196629
1554974748551608146,277,1554974748551377809,,0.612437784672,1.44260144234,-1.7260629356
1554974748561892795,278,1554974748561573213,,0.60732448101,1.45300889015,-1.70028378483
1554974748572341862,279,1554974748571874834,,0.602743208408,1.4632396698,-1.67462879828
1554974748581669230,280,1554974748581141660,,0.59771323204,1.47351968288,-1.64876041282
1554974748592036206,281,1554974748591502815,,0.592840015888,1.48360967636,-1.62151186841
1554974748602330673,282,1554974748601829589,,0.587812006474,1.49371385574,-1.59164292233
1554974748602530255,283,1554974748601871610,,0.582686722279,1.50400662422,-1.55932816197
1554974748612307008,284,1554974748612064158,,0.577640116215,1.51409137249,-1.52745269351
1554974748621886222,285,1554974748621430104,,0.572467207909,1.52417623997,-1.49207394755
1554974748642300822,286,1554974748641871780,,0.566931009293,1.53436160088,-1.45648835951
1554974748642443445,287,1554974748641907746,,0.561686038971,1.54443824291,-1.42253877892
1554974748642591862,288,1554974748641941864,,0.556510448456,1.55444836617,-1.38030087909
1554974748651306718,289,1554974748651059810,,0.551102221012,1.56440842152,-1.34209051896
1554974748661810448,290,1554974748661370427,,0.545607686043,1.57443392277,-1.29805549928
1554974748672243241,291,1554974748671753427,,0.540264904499,1.58407044411,-1.25963292258
1554974748682642571,292,1554974748682160404,,0.534495055676,1.59393358231,-1.21333992639
1554974748692036669,293,1554974748691522017,,0.528953075409,1.60379588604,-1.17277076528
1554974748702367658,294,1554974748701885238,,0.523425340652,1.61320209503,-1.12587999021
1554974748702515720,295,1554974748701925305,,0.517686784267,1.6227889061,-1.08339254626
1554974748711287852,296,1554974748711061048,,0.511990785599,1.63240563869,-1.04287563771
1554974748721843853,297,1554974748721375846,,0.506055176258,1.64157295227,-0.997415079536
1554974748742392491,298,1554974748741953459,,0.500047445297,1.65081703663,-0.953987186095
1554974748742528921,299,1554974748741987542,,0.494174689054,1.66007077694,-0.905123018519
1554974748742682078,300,1554974748742015580,,0.488121420145,1.66879737377,-0.857672011073
1554974748751489896,301,1554974748751267626,,0.481900542974,1.67759239674,-0.813353297047
1554974748761858351,302,1554974748761477904,,0.475751519203,1.68641030788,-0.761359856261
1554974748772247889,303,1554974748771735788,,0.469654768705,1.69498956203,-0.722646464111
1554974748782244717,304,1554974748781968868,,0.463468432426,1.70323133469,-0.672463610631
1554974748791664267,305,1554974748791195478,,0.457253992558,1.71161079407,-0.623483093557
1554974748802102349,306,1554974748801488005,,0.450892657042,1.72027933598,-0.581368153007
1554974748802110293,307,1554974748801532275,,0.444636583328,1.72828578949,-0.527760279776
1554974748811993615,308,1554974748811706280,,0.43859025836,1.73637580872,-0.486017611932
1554974748822369544,309,1554974748821942747,,0.432541996241,1.74448037148,-0.438052667656
1554974748852284274,310,1554974748851799904,,0.42645612359,1.75237357616,-0.393915098755
1554974748852434744,311,1554974748851850244,,0.408850610256,1.77657306194,-0.254094708121
1554974748862274263,312,1554974748862002608,,0.40297177434,1.78443849087,-0.210244369574
1554974748871807581,313,1554974748871332346,,0.397209137678,1.79208743572,-0.161847526211
1554974748882132089,314,1554974748881699234,,0.391546159983,1.79995763302,-0.118070488361
1554974748892448746,315,1554974748891980069,,0.385746479034,1.80761039257,-0.0707953597298
1554974748892676617,316,1554974748892014246,,0.379862397909,1.81583654881,-0.0317108682149
1554974748901438515,317,1554974748901166942,,0.374411016703,1.82347452641,0.0178228335214
1554974748912002872,318,1554974748911478703,,0.369084745646,1.83105623722,0.0648144373772
1554974748922237499,319,1554974748921805869,,0.363670110703,1.83891618252,0.108062751006
1554974748932690826,320,1554974748932198409,,0.35809469223,1.84672212601,0.16161566465
1554974748952114148,321,1554974748951654905,,0.352592200041,1.85417091846,0.210557256952
1554974748952248019,322,1554974748951699759,,0.341617435217,1.86924862862,0.312769780519
1554974748962122194,323,1554974748961864606,,0.336186558008,1.87678647041,0.372218707504
1554974748972574049,324,1554974748972148932,,0.330957651138,1.88432312012,0.4270190291
1554974748981938630,325,1554974748981478057,,0.325559854507,1.89189255238,0.477497543909
1554974748992250364,326,1554974748991783419,,0.320394188166,1.89914548397,0.535028014871
1554974748992415950,327,1554974748991818432,,0.31509411335,1.90673100948,0.589363731858
1554974749002512586,328,1554974749002071854,,0.309909969568,1.91383826733,0.653213622981
1554974749011842785,329,1554974749011374379,,0.304798752069,1.92119801044,0.71283365216
1554974749022070957,330,1554974749021632081,,0.299480587244,1.92823505402,0.774014462922
1554974749032530431,331,1554974749032049394,,0.294510185719,1.93535780907,0.837036870766
1554974749052096976,332,1554974749051641825,,0.28925383091,1.94283950329,0.89612050883
1554974749052236220,333,1554974749051681946,,0.279576778412,1.95700347424,1.02052378998
1554974749062111208,334,1554974749061844790,,0.274543851614,1.96375322342,1.08582843903
1554974749072652899,335,1554974749072190969,,0.269557774067,1.97106802464,1.15622401771
1554974749081942487,336,1554974749081470079,,0.264616012573,1.97805702686,1.21933500786
1554974749092286499,337,1554974749091798513,,0.259737491608,1.98520898819,1.28607230163
1554974749102505198,338,1554974749102077816,,0.254864633083,1.99214708805,1.35351042299
1554974749102738042,339,1554974749102112753,,0.25031632185,1.9992159605,1.42866646524
1554974749111866282,340,1554974749111411633,,0.245304793119,2.00619840622,1.49169779251
1554974749122214662,341,1554974749121747525,,0.240518018603,2.01294207573,1.55977742795
1554974749132552561,342,1554974749132087069,,0.235690847039,2.01979708672,1.63059804173
1554974749152231746,343,1554974749151670990,,0.230922147632,2.02680850029,1.70204107698
1554974749152422837,344,1554974749151716218,,0.22143393755,2.04048037529,1.83778776699
1554974749162451158,345,1554974749161995521,,0.216442927718,2.04696965218,1.91461059483
1554974749171835778,346,1554974749171349659,,0.211967125535,2.0537648201,1.98350807225
1554974749182224033,347,1554974749181733177,,0.206759393215,2.06054806709,2.05757333345
1554974749192495960,348,1554974749192038222,,0.202005937696,2.06696605682,2.12754600626
1554974749192666227,349,1554974749192073039,,0.196924865246,2.07361412048,2.19599743631
1554974749201540863,350,1554974749201242742,,0.192163571715,2.08033275604,2.27131691696
1554974749211937867,351,1554974749211487940,,0.187451466918,2.08663344383,2.34149950435
1554974749222262689,352,1554974749221771887,,0.182637199759,2.093760252,2.41632423612
1554974749232545364,353,1554974749232051816,,0.177739754319,2.0997979641,2.48596793258
1554974749262407393,354,1554974749261796426,,0.172801628709,2.10618042946,2.56120911767
1554974749262549354,355,1554974749261854229,,0.157853171229,2.12453913689,2.77606463222
1554974749272614910,356,1554974749272129818,,0.153296232224,2.13112330437,2.85458857477
1554974749281977372,357,1554974749281468381,,0.148323208094,2.13706088066,2.92783512453
1554974749292330350,358,1554974749291863903,,0.143472701311,2.1428437233,3.00271686161
1554974749292500620,359,1554974749291899105,,0.13864377141,2.14886546135,3.0721808659
1554974749311844073,360,1554974749311354609,,0.133828982711,2.15509343147,-3.13144800677
1554974749312085346,361,1554974749311394329,,0.128981858492,2.16115045547,-3.05378211461
1554974749322077690,362,1554974749321620440,,0.124374121428,2.16677832603,-2.97888783628
1554974749332383389,363,1554974749331914669,,0.119499564171,2.17275524139,-2.90327717534
1554974749341520029,364,1554974749341092134,,0.114814855158,2.17856884003,-2.8273267734
1554974749362276937,365,1554974749361812181,,0.110241211951,2.18444037437,-2.74692342816
1554974749362486585,366,1554974749361855144,,0.100777439773,2.19648885727,-2.5875777142
1554974749372569832,367,1554974749372137043,,0.0961234793067,2.2022151947,-2.50697071528
1554974749381945052,368,1554974749381473572,,0.091508038342,2.20851802826,-2.42387060352
1554974749392298182,369,1554974749391804774,,0.0869115516543,2.21442985535,-2.33647586259
1554974749402500476,370,1554974749402044470,,0.0821457058191,2.22063446045,-2.25203770931
1554974749402668112,371,1554974749402075918,,0.0775852575898,2.22654294968,-2.16904806099
1554974749411526891,372,1554974749411231928,,0.0727572962642,2.23300218582,-2.07920192224
1554974749421974654,373,1554974749421517356,,0.068160071969,2.2389383316,-1.99322889683
1554974749432443537,374,1554974749431902291,,0.0633354708552,2.24504518509,-1.90092679823
1554974749441511824,375,1554974749441117070,,0.0584439374506,2.25132441521,-1.81951939586
1554974749481926508,376,1554974749481456068,,0.0537606179714,2.25762939453,-1.73118492818
1554974749482087376,377,1554974749481494352,,0.0487406291068,2.26341509819,-1.64611421564
1554974749482242082,378,1554974749481520959,,0.0435388311744,2.26983165741,-1.56052015342
1554974749482338739,379,1554974749481548649,,0.033131480217,2.28190159798,-1.39016829599
1554974749492200720,380,1554974749491766137,,0.0280997324735,2.28781294823,-1.29836437599
1554974749502547444,381,1554974749502118001,,0.0225773844868,2.29343795776,-1.21572012354
1554974749502702910,382,1554974749502157713,,0.0173565223813,2.29984378815,-1.13237028309
1554974749511945936,383,1554974749511494339,,0.0120104439557,2.30584478378,-1.03853202224
1554974749522338513,384,1554974749521853785,,0.00652825739235,2.31193161011,-0.959976988051
1554974749532649325,385,1554974749532165569,,0.00115054822527,2.3173289299,-0.879280463738
1554974749541975675,386,1554974749541503553,,-0.00428723730147,2.32266616821,-0.797197226131
1554974749562620904,387,1554974749562157855,,-0.00975450314581,2.32862377167,-0.715394329604
1554974749562812609,388,1554974749562199592,,-0.0205753501505,2.33938837051,-0.569364767291
1554974749571921087,389,1554974749571496155,,-0.0260827764869,2.34505915642,-0.497578703638
1554974749582401263,390,1554974749581859893,,-0.0317256450653,2.35080718994,-0.422146386036
1554974749591673395,391,1554974749591110552,,-0.0369538776577,2.35592150688,-0.348457691732
1554974749601972227,392,1554974749601466206,,-0.0423895344138,2.36106538773,-0.27500686913
1554974749602130859,393,1554974749601501403,,-0.0477350950241,2.366304636,-0.209354934021
1554974749612310324,394,1554974749611851870,,-0.0527497045696,2.37150192261,-0.13516098554
1554974749622592831,395,1554974749622106793,,-0.0579648315907,2.37683844566,-0.0687975572267
1554974749631927897,396,1554974749631451408,,-0.0633085295558,2.38177132607,0.00417605150379
1554974749642256499,397,1554974749641796471,,-0.0683289021254,2.38726568222,0.0679222419591
1554974749642403835,398,1554974749641848752,,-0.0734393447638,2.39261341095,0.135584705619
1554974749672230768,399,1554974749671735369,,-0.0786439329386,2.39804196358,0.200718869263
1554974749672372430,400,1554974749671779151,,-0.0885790288448,2.40838241577,0.332582896008
1554974749682575225,401,1554974749682111546,,-0.0933808237314,2.41360187531,0.399957239525
1554974749691925562,402,1554974749691441486,,-0.0984608903527,2.41889643669,0.464931419667
1554974749702230987,403,1554974749701737434,,-0.103191405535,2.42406272888,0.523972770685
1554974749702393272,404,1554974749701773277,,-0.107824601233,2.42926836014,0.587574428275
1554974749712185992,405,1554974749711954108,,-0.112822651863,2.43448448181,0.648531277842
1554974749721363908,406,1554974749721080636,,-0.117327183485,2.43948912621,0.705604756259
1554974749731522340,407,1554974749731251899,,-0.121860578656,2.4443833828,0.76591354918
1554974749741929001,408,1554974749741508901,,-0.126501202583,2.44947266579,0.823553490677
1554974749752288757,409,1554974749751842904,,-0.130804017186,2.45434784889,0.877644649891
1554974749771873618,410,1554974749771403063,,-0.135183244944,2.45952057838,0.93317467425
1554974749772037186,411,1554974749771445860,,-0.144113272429,2.46934747696,1.03242137568
1554974749781958464,412,1554974749781627738,,-0.148129180074,2.47424650192,1.08372522038
1554974749792403377,413,1554974749791936101,,-0.152405232191,2.47920751572,1.13255407701
1554974749792607177,414,1554974749791970019,,-0.156573995948,2.48387265205,1.17843081755
1554974749801713379,415,1554974749801178187,,-0.16058845818,2.48876690865,1.23200777648
1554974749812009238,416,1554974749811511515,,-0.164360687137,2.4934592247,1.27984363202
1554974749822272511,417,1554974749821818594,,-0.16834937036,2.49788498878,1.32752616356
1554974749832599098,418,1554974749832094552,,-0.172240749002,2.50307893753,1.38102809764
1554974749841802750,419,1554974749841363363,,-0.175852939487,2.50777626038,1.43135790763
1554974749852100043,420,1554974749851631645,,-0.179991096258,2.51229596138,-1.323536292
1554974749871658532,421,1554974749871119539,,-0.183029100299,2.51664113998,1.54224202578
1554974749871809122,422,1554974749871168767,,-0.190452679992,2.52574920654,1.64980652956
1554974749881582904,423,1554974749881321598,,-0.193620637059,2.53033924103,1.70368790199
1554974749892154593,424,1554974749891667320,,-0.196821883321,2.53495764732,1.76206838397
1554974749902492846,425,1554974749902000233,,-0.200521022081,2.5392742157,1.82216578221
1554974749902659399,426,1554974749902034246,,-0.203821212053,2.54399967194,1.8782253258
1554974749911429893,427,1554974749911197673,,-0.207458689809,2.54826426506,1.93193250828
1554974749921706432,428,1554974749921410182,,-0.210533574224,2.55248022079,1.99559585655
1554974749931940299,429,1554974749931657031,,-0.214165642858,2.55712842941,2.04919899304
1554974749942325337,430,1554974749941898447,,-0.21755117178,2.56129407883,2.11127063173
1554974749942474685,431,1554974749941930613,,-0.221058011055,2.56572437286,2.16928958439
1554974749961901572,432,1554974749961350284,,-0.224488556385,2.56967973709,2.23280600962
1554974749972163208,433,1554974749971684959,,-0.227674126625,2.57431221008,2.29414354986
1554974749972345462,434,1554974749971721015,,-0.230967923999,2.57825541496,2.35364786104
1554974749982539632,435,1554974749982074200,,-0.23444879055,2.58263278008,2.41131998347
1554974749991904797,436,1554974749991432502,,-0.237677052617,2.58712625504,2.4726531327
1554974750002160033,437,1554974750001715525,,-0.241059586406,2.59115052223,2.53572749738
1554974750002310056,438,1554974750001753876,,-0.244333967566,2.59546303749,2.59722895676
1554974750012180703,439,1554974750011922536,,-0.247470706701,2.59971308708,2.65410147797
1554974750021355876,440,1554974750021041991,,-0.250505954027,2.60418725014,2.71878277455
1554974750032127650,441,1554974750031655661,,-0.253834664822,2.60838985443,2.7752714327
1554974750042293832,442,1554974750041892408,,-0.256899058819,2.61304521561,2.84076702887
1554974750051625835,443,1554974750051128708,,-0.25983440876,2.61776089668,2.90569947141
1554974750051734813,444,1554974750051164964,,-0.262685507536,2.62233495712,2.96272961726
1554974750072193578,445,1554974750071724937,,-0.26570725441,2.62716031075,3.02682307992
1554974750072448030,446,1554974750071759915,,-0.268614470959,2.63191771507,3.09018154688
1554974750082208156,447,1554974750081957812,,-0.2714830935,2.63657546043,-3.135342737
1554974750091647018,448,1554974750091184674,,-0.274417549372,2.64179205894,-3.06441049613
1554974750102016778,449,1554974750101528696,,-0.277306705713,2.6463727951,-3.00834051702
1554974750102158915,450,1554974750101565823,,-0.280184954405,2.65176415443,-2.94040040751
1554974750112028886,451,1554974750111735187,,-0.283004134893,2.65670204163,-2.87388972601
1554974750122441487,452,1554974750121992588,,-0.285816818476,2.66174054146,-2.80800669214
1554974750131816850,453,1554974750131352777,,-0.288816124201,2.66698598862,-2.74527637874
1554974750141980569,454,1554974750141596565,,-0.291876405478,2.67197704315,-2.67221316503
1554974750152430249,455,1554974750151924940,,-0.294374495745,2.67678308487,-2.60852557417
1554974750152564219,456,1554974750151956022,,-0.297332584858,2.6817855835,-2.54356558951
1554974750182212487,457,1554974750181589008,,-0.300018131733,2.68682718277,-2.47369202441
1554974750182400174,458,1554974750181634604,,-0.306057959795,2.69756555557,-2.32832969815
1554974750192443784,459,1554974750191899268,,-0.308880746365,2.70264530182,-2.25451224877
1554974750201673418,460,1554974750201142568,,-0.311965852976,2.70785737038,-2.18014664056
1554974750201803626,461,1554974750201178555,,-0.314982414246,2.71298789978,-2.10622182955
1554974750211651126,462,1554974750211360442,,-0.318184643984,2.71876645088,-2.0343866969
1554974750222080407,463,1554974750221625457,,-0.321499615908,2.72368407249,-1.96150004973
1554974750232445839,464,1554974750231941600,,-0.324711233377,2.72903370857,-1.88839428076
1554974750241545134,465,1554974750241111384,,-0.328204274178,2.73437070847,-1.81551739437
1554974750251896380,466,1554974750251424726,,-0.331661045551,2.73941850662,-1.74475639295
1554974750252033306,467,1554974750251457990,,-0.3351521492,2.74494624138,-1.66586181213
1554974750282519467,468,1554974750282035249,,-0.338868886232,2.75028729439,-1.59603569682
1554974750282653217,469,1554974750282078613,,-0.346357673407,2.76087117195,-1.44977452913
1554974750291460328,470,1554974750291227575,,-0.349942833185,2.76609945297,-1.37971889427
1554974750302024341,471,1554974750301568442,,-0.353776335716,2.77108860016,-1.30804071449
1554974750302185968,472,1554974750301608953,,-0.357630640268,2.77638173103,-1.23590715152
1554974750312394642,473,1554974750311906925,,-0.361355632544,2.7815823555,-1.16731511546
1554974750321574314,474,1554974750321113304,,-0.364699035883,2.78625202179,-1.08564348173
1554974750331818121,475,1554974750331355346,,-0.36837002635,2.79086065292,-1.01366498907
1554974750342096635,476,1554974750341645339,,-0.37193146348,2.7965054512,-0.95519465204
1554974750352465927,477,1554974750351986070,,-0.375830173492,2.80149149895,-0.890645398958
1554974750352619542,478,1554974750352024269,,-0.379811644554,2.80667543411,-0.810090584195
1554974750361817134,479,1554974750361362902,,-0.382868885994,2.8117146492,-0.744811160323
1554974750382526166,480,1554974750382038054,,-0.386360019445,2.81653428078,-0.676442589855
1554974750382678589,481,1554974750382078086,,-0.389667212963,2.82106423378,-0.617642182348
1554974750391581301,482,1554974750391274564,,-0.393217086792,2.82629299164,-0.542353909623
1554974750402073392,483,1554974750401586311,,-0.396701455116,2.83092021942,-0.479113593605
1554974750402252267,484,1554974750401630282,,-0.400152862072,2.83569002151,-0.4153063936
1554974750412348414,485,1554974750411867442,,-0.403243511915,2.84039473534,-0.356414050829
1554974750421613978,486,1554974750421115556,,-0.406798809767,2.84516954422,-0.294825546739
1554974750431923282,487,1554974750431452635,,-0.40991795063,2.84961342812,-0.235308761101
1554974750442290244,488,1554974750441781231,,-0.413180440664,2.85410141945,-0.17877034223
1554974750452529259,489,1554974750452099409,,-0.416693240404,2.85858488083,-0.121836181633
1554974750452677914,490,1554974750452131427,,-0.420071959496,2.86299514771,-0.0657586512635
1554974750461610745,491,1554974750461303073,,-0.423099726439,2.8670372963,-0.0146234829703
1554974750482420998,492,1554974750481953697,,-0.426570117474,2.87125229836,0.036353450173
1554974750482619794,493,1554974750481990865,,-0.429781109095,2.87528443336,0.0895671580479
1554974750491480592,494,1554974750491163446,,-0.432969897985,2.87928581238,0.139181037654
1554974750501982321,495,1554974750501522955,,-0.435923695564,2.88335156441,0.18275863405
1554974750502184169,496,1554974750501561591,,-0.439239770174,2.88729858398,0.228271042215
1554974750511962985,497,1554974750511730330,,-0.442128151655,2.89087438583,0.275745411349
1554974750522464090,498,1554974750522025012,,-0.445180505514,2.8944375515,0.319226186979
1554974750531845491,499,1554974750531349463,,-0.447902411222,2.89814424515,0.358053111678
1554974750542092847,500,1554974750541659951,,-0.450760304928,2.90165734291,0.39976098803
1554974750552444405,501,1554974750552011298,,-0.453536212444,2.90522384644,0.435610365522
1554974750552629797,502,1554974750552042505,,-0.456542313099,2.90864372253,0.469495744601
1554974750561802365,503,1554974750561334741,,-0.459163933992,2.91178059578,0.506372607452
1554974750591586387,504,1554974750591116113,,-0.461910605431,2.91498684883,0.53845832681
1554974750591717216,505,1554974750591158421,,-0.467046201229,2.92114329338,0.597615589132
1554974750601590642,506,1554974750601344561,,-0.469449073076,2.92421174049,0.631527940128
1554974750601774788,507,1554974750601379909,,-0.472037434578,2.92718529701,0.654697355078
1554974750612313297,508,1554974750611837918,,-0.474348664284,2.93005633354,0.681963896032
1554974750621562548,509,1554974750621089296,,-0.476489454508,2.93284201622,0.707453830118
1554974750631948609,510,1554974750631465067,,-0.478877395391,2.93569421768,0.727512540497
1554974750642286115,511,1554974750641812366,,-0.480886042118,2.93834090233,0.749323606598
1554974750642441825,512,1554974750641858224,,-0.483091264963,2.94107055664,0.7712955926
1554974750651552359,513,1554974750651071655,,-0.485047370195,2.9435441494,0.787582268364
1554974750661951711,514,1554974750661461435,,-0.487094968557,2.94623470306,0.8040090425
1554974750672209476,515,1554974750671746074,,-0.488578468561,2.94837021828,0.821079887603
1554974750691880062,516,1554974750691369233,,-0.490610569715,2.95087194443,0.831652409746
1554974750692070743,517,1554974750691410372,,-0.492430120707,2.95337462425,0.846160196118
1554974750702156769,518,1554974750701708374,,-0.493833661079,2.95546674728,0.863191963454
1554974750702319831,519,1554974750701746716,,-0.495399832726,2.95760893822,0.87036735712
1554974750712241947,520,1554974750711926006,,-0.497035354376,2.95984125137,0.876757484824
1554974750721622680,521,1554974750721148217,,-0.498499065638,2.96203660965,0.884989152527
1554974750731686073,522,1554974750731398407,,-0.499821722507,2.9638967514,0.888836641021
1554974750742102190,523,1554974750741620639,,-0.501292824745,2.96573853493,0.895847836838
1554974750752351191,524,1554974750751902973,,-0.502295970917,2.96795487404,0.89808983906
1554974750752512029,525,1554974750751935493,,-0.503534793854,2.96975469589,0.899908689973
1554974750761354829,526,1554974750761053517,,-0.504647493362,2.97143602371,0.901465045871
1554974750771759573,527,1554974750771284480,,-0.505584537983,2.97333097458,0.900162947552
1554974750792341677,528,1554974750791844007,,-0.506477534771,2.97500872612,0.897529429953
1554974750792511569,529,1554974750791890105,,-0.508253931999,2.97820830345,0.89371904565
1554974750801609085,530,1554974750801104067,,-0.509087443352,2.97968959808,0.893177904226
1554974750811899195,531,1554974750811433502,,-0.509798049927,2.98117518425,0.89212027811
1554974750822220508,532,1554974750821740692,,-0.510382413864,2.98270392418,0.894838821612
1554974750832593114,533,1554974750832112978,,-0.510796308517,2.98385572433,0.896446872427
1554974750841870273,534,1554974750841445530,,-0.511419594288,2.98514413834,0.896379439815
1554974750852295378,535,1554974750851776824,,-0.512136518955,2.98634362221,0.896269540548
1554974750852459981,536,1554974750851812813,,-0.512594223022,2.98756790161,0.902186864222
1554974750862632044,537,1554974750862151429,,-0.513039410114,2.98833990097,0.90764099231
1554974750871952531,538,1554974750871491788,,-0.51339417696,2.98937487602,0.914509572092
1554974750892522781,539,1554974750892024273,,-0.513555645943,2.99041938782,0.918809178285
1554974750892672121,540,1554974750892067608,,-0.514096796513,2.99205040932,0.930466406987
1554974750901523886,541,1554974750901239810,,-0.5142172575,2.99283957481,0.934432468676
1554974750911982420,542,1554974750911514036,,-0.514206826687,2.99340081215,0.939493539447
1554974750922308507,543,1554974750921843093,,-0.514101147652,2.99402689934,0.94310301907
1554974750932338366,544,1554974750932049592,,-0.514070630074,2.99466991425,0.947252718637
1554974750941808339,545,1554974750941343256,,-0.513922035694,2.99506735802,0.94847309783
1554974750952261308,546,1554974750951726150,,-0.513731539249,2.99550580978,0.949168197553
1554974750952269040,547,1554974750951765781,,-0.513498485088,2.99603796005,0.948873739062
1554974750962571140,548,1554974750962139047,,-0.513157248497,2.99631357193,0.946464952544
1554974750971708201,549,1554974750971444663,,-0.512849628925,2.99653458595,0.945707027893
1554974750992556812,550,1554974750992032435,,-0.512459099293,2.99694013596,0.945181011546
1554974750992717010,551,1554974750992070605,,-0.512201249599,2.99714779854,0.944869993548
1554974750992853142,552,1554974750992095586,,-0.51191419363,2.99737071991,0.942777595271
1554974751001505671,553,1554974751001278519,,-0.51163315773,2.99760866165,0.939690696898
1554974751011742438,554,1554974751011482849,,-0.51132440567,2.99774241447,0.937900248385
1554974751022028820,555,1554974751021731259,,-0.51116579771,2.9979095459,0.937709352011
1554974751031640301,556,1554974751031132243,,-0.51093173027,2.99803376198,0.935054598395
1554974751041985798,557,1554974751041537492,,-0.510683655739,2.99813914299,0.932106546647
1554974751052304999,558,1554974751051848672,,-0.5105676651,2.99835181236,0.928946320186
1554974751052446857,559,1554974751051884700,,-0.510223865509,2.9984164238,0.928949152679
1554974751062328867,560,1554974751062083574,,-0.510123670101,2.99859070778,0.929059026386
1554974751071891101,561,1554974751071451809,,-0.509981393814,2.99865531921,0.927760523534
1554974751082314078,562,1554974751081880475,,-0.509780108929,2.99876928329,0.92759859035
1554974751101868244,563,1554974751101370338,,-0.509653806686,2.99878501892,0.925832584082
1554974751102122489,564,1554974751101424898,,-0.509509265423,2.99880123138,0.925025577397
1554974751102190137,565,1554974751101454957,,-0.509210765362,2.99870300293,0.9238822344
1554974751111990233,566,1554974751111695969,,-0.509030103683,2.99869680405,0.920787661978
1554974751122462811,567,1554974751122034076,,-0.508811712265,2.99861335754,0.917638647555
1554974751131896869,568,1554974751131395329,,-0.50850379467,2.99851679802,0.914028626947
1554974751142286632,569,1554974751141812029,,-0.508307278156,2.99838161469,0.909239423249
1554974751142437978,570,1554974751141850897,,-0.50780248642,2.99822187424,0.901684891936
1554974751152555248,571,1554974751152120185,,-0.507486462593,2.99795198441,0.896686221873
1554974751161947535,572,1554974751161489331,,-0.507107377052,2.99778485298,0.888695095024
1554974751172153046,573,1554974751171771956,,-0.506682872772,2.99748015404,0.878853598517
1554974751182617993,574,1554974751182170301,,-0.506245613098,2.99724197388,0.867444415908
1554974751202233300,575,1554974751201742491,,-0.505739629269,2.99682474136,0.853092145953
1554974751202388670,576,1554974751201782009,,-0.505075275898,2.99638652802,0.840898531866
1554974751202530147,577,1554974751201815340,,-0.50472509861,2.99612689018,0.827222747624
1554974751212302417,578,1554974751212053731,,-0.504118680954,2.9957048893,0.813193939647
1554974751221899437,579,1554974751221427070,,-0.503474116325,2.99512434006,0.796726505914
1554974751232200788,580,1554974751231747461,,-0.502841293812,2.99456048012,0.780048145546
1554974751242509639,581,1554974751242074227,,-0.502172648907,2.9939622879,0.763283729691
1554974751242671610,582,1554974751242132385,,-0.501524746418,2.99338960648,0.745294283283
1554974751251552500,583,1554974751251324926,,-0.500826776028,2.99269413948,0.724345506761
1554974751261803962,584,1554974751261533676,,-0.50000679493,2.9919629097,0.708103354267
1554974751272243372,585,1554974751271807094,,-0.499094188213,2.99118685722,0.68473868052
1554974751282655895,586,1554974751282169848,,-0.498321712017,2.99041175842,0.661021556685
1554974751302287705,587,1554974751301791046,,-0.497424513102,2.98953318596,0.635718126159
1554974751302441567,588,1554974751301832440,,-0.496690541506,2.98851704597,0.610671010986
1554974751302594745,589,1554974751301862254,,-0.49579462409,2.98747730255,0.585786610206
1554974751312302350,590,1554974751312063202,,-0.494886815548,2.9864192009,0.56002802902
1554974751321520686,591,1554974751321272164,,-0.493922233582,2.98521924019,0.537435943553
1554974751332098892,592,1554974751331606348,,-0.493020653725,2.9839823246,0.51188473222
1554974751342442108,593,1554974751341854603,,-0.492001563311,2.98258709908,0.486746132279
1554974751342617648,594,1554974751341899596,,-0.491027593613,2.98112201691,0.460631432699
1554974751352770431,595,1554974751352146104,,-0.489905595779,2.97934317589,0.437000745785
1554974751361800197,596,1554974751361482645,,-0.488749951124,2.97763085365,0.412807305472
1554974751372190129,597,1554974751371736648,,-0.487722605467,2.97579979897,0.389754701566
1554974751382117730,598,1554974751381907648,,-0.48691880703,2.973954916,0.365336512245
1554974751392348377,599,1554974751392088155,,-0.485767632723,2.97196054459,0.342300424632
1554974751401885385,600,1554974751401415622,,-0.484783649445,2.96989250183,0.320135104547
1554974751402047702,601,1554974751401454966,,-0.483846664429,2.96771812439,0.299546758921
1554974751412239332,602,1554974751411791308,,-0.482949137688,2.96565914154,0.278215418569
1554974751422562047,603,1554974751422081259,,-0.481893360615,2.96329832077,0.263443001117
1554974751431846947,604,1554974751431373499,,-0.480950146914,2.96098542213,0.243635662976
1554974751442231689,605,1554974751441683075,,-0.480230331421,2.95855784416,0.228436263483
1554974751452413577,606,1554974751451965814,,-0.479378044605,2.95627260208,0.214825218454
1554974751452583361,607,1554974751451999534,,-0.478647321463,2.9537551403,0.196968448722
1554974751461788623,608,1554974751461304699,,-0.47762170434,2.95112705231,0.185175195217
1554974751471995355,609,1554974751471559154,,-0.476995944977,2.94860267639,0.172062290092
1554974751482364924,610,1554974751481892115,,-0.476329624653,2.9458925724,0.160482458807
1554974751491595393,611,1554974751491121082,,-0.475584805012,2.9432785511,0.147648918344
1554974751512201799,612,1554974751511744384,,-0.474666446447,2.94040250778,0.139643742616
1554974751512358295,613,1554974751511789916,,-0.47348934412,2.93427371979,0.125466351501
1554974751522198721,614,1554974751521971347,,-0.473066598177,2.93128800392,0.114194198472
1554974751531393700,615,1554974751531108466,,-0.472543537617,2.92806768417,0.102995947287
1554974751541956024,616,1554974751541435486,,-0.471949845552,2.92461037636,0.0986957019923
1554974751552257084,617,1554974751551761623,,-0.471189081669,2.92113232613,0.0894667291061
1554974751552430904,618,1554974751551799491,,-0.470975190401,2.91760778427,0.0816831033753
1554974751562558619,619,1554974751562089442,,-0.470277488232,2.9139020443,0.0751578440196
1554974751571835778,620,1554974751571366813,,-0.469927251339,2.91037988663,0.0682546587363
1554974751582175092,621,1554974751581698324,,-0.469841629267,2.90634703636,0.0596650124589
1554974751592498802,622,1554974751592037902,,-0.46937033534,2.90251064301,0.0545911669554
1554974751612052630,623,1554974751611557472,,-0.468963474035,2.89845323563,0.0466804596872
1554974751612221632,624,1554974751611596417,,-0.468698590994,2.889960289,0.0318329087569
1554974751622243012,625,1554974751621811727,,-0.468339413404,2.88552856445,0.0290418845398
1554974751632560362,626,1554974751632084438,,-0.468283176422,2.88095736504,0.0151851573607
1554974751641700035,627,1554974751641320030,,-0.468371897936,2.87652897835,0.0104377183191
1554974751652087005,628,1554974751651605119,,-0.468267083168,2.87180519104,0.00993097517971
1554974751652258614,629,1554974751651641505,,-0.468055874109,2.86692261696,0.00338727873973
1554974751662407611,630,1554974751661947790,,-0.468143105507,2.86205387115,-0.00279140024376
1554974751671667406,631,1554974751671198191,,-0.46806794405,2.85686349869,-0.00808049070518
1554974751681981397,632,1554974751681497808,,-0.4682508111,2.85190677643,-0.017827703499
1554974751692250092,633,1554974751691807421,,-0.468552231789,2.84675121307,-0.0210467816029
1554974751711718869,634,1554974751711258130,,-0.468555957079,2.84150719643,-0.0199228129163
1554974751711874538,635,1554974751711301780,,-0.469172000885,2.83058834076,-0.0234770966994
1554974751722031777,636,1554974751721551344,,-0.469046711922,2.82516431808,-0.0267333858272
1554974751732007523,637,1554974751731751107,,-0.469426333904,2.81980109215,-0.0263396811501
1554974751742494560,638,1554974751742025191,,-0.470070779324,2.81438207626,-0.0228397669916
1554974751742659373,639,1554974751742060244,,-0.470224142075,2.8085641861,-0.0216499907902
1554974751751475868,640,1554974751751223278,,-0.470768898726,2.80305886269,-0.0165815662091
1554974751762005125,641,1554974751761567699,,-0.47118934989,2.79722857475,-0.00951588613703
1554974751772314453,642,1554974751771846491,,-0.471784651279,2.79159021378,-0.00581141453073
1554974751782313816,643,1554974751782057160,,-0.472097098827,2.78577661514,0.00323877349896
1554974751791898687,644,1554974751791390932,,-0.472631782293,2.78000259399,0.00666538610466
1554974751801939918,645,1554974751801685979,,-0.473310410976,2.77419066429,0.0185810850458
1554974751812441854,646,1554974751811958139,,-0.473827034235,2.76853275299,0.0283053395279
1554974751812614987,647,1554974751811997131,,-0.474472552538,2.76270961761,0.0365735631522
1554974751821825903,648,1554974751821313752,,-0.474787563086,2.75724411011,0.0447171627582
1554974751832142721,649,1554974751831691218,,-0.475555837154,2.75154495239,0.0500681235313
1554974751842548642,650,1554974751841996011,,-0.476187080145,2.74585556984,0.0610803178352
1554974751842560050,651,1554974751842040409,,-0.476814836264,2.74039936066,0.0687562087111
1554974751851420938,652,1554974751851196554,,-0.477378815413,2.73493123055,0.0785115235146
1554974751861991497,653,1554974751861538465,,-0.477789163589,2.72954130173,0.0866100708705
1554974751872351525,654,1554974751871924180,,-0.478569000959,2.723777771,0.096619990511
1554974751881658984,655,1554974751881181166,,-0.47938388586,2.71869492531,0.102301104273
1554974751891969318,656,1554974751891513347,,-0.479933291674,2.71320581436,0.113245987772
1554974751902325231,657,1554974751901883255,,-0.480657666922,2.70775985718,0.121886751288
1554974751921940972,658,1554974751921444440,,-0.481249839067,2.70265936852,0.13313736856
1554974751922101055,659,1554974751921485411,,-0.482186317444,2.69747591019,0.1417832108
1554974751922246913,660,1554974751921513966,,-0.482770860195,2.69207835197,0.152202211455
1554974751932334675,661,1554974751931874972,,-0.48343488574,2.68706345558,0.160187564975
1554974751941555446,662,1554974751941111462,,-0.484371125698,2.68214011192,0.169989419854
1554974751951988112,663,1554974751951480539,,-0.484827727079,2.67695593834,0.177022124411
1554974751952177718,664,1554974751951521313,,-0.485392361879,2.67200446129,0.1816650574
1554974751962344815,665,1554974751961887769,,-0.48634442687,2.66692757607,0.19292150414
1554974751971619733,666,1554974751971134744,,-0.486895829439,2.66211271286,0.200729216201
1554974751982003113,667,1554974751981529162,,-0.487570345402,2.65720820427,0.207377229253
1554974751992411607,668,1554974751991933417,,-0.488096863031,2.65230107307,0.213969373962
1554974751992583245,669,1554974751991967114,,-0.488880574703,2.6476688385,0.220891383833
1554974752022084222,670,1554974752021613111,,-0.489792317152,2.64280748367,0.229169506244
1554974752022230367,671,1554974752021653391,,-0.491021811962,2.63299751282,0.235686045749
