%time,field.header.seq,field.header.stamp,field.header.frame_id,field.point.x,field.point.y,field.point.z
1554974647689805298,1,1554974647689502630,,1.67745804787,-0.625803530216,1.21457986154
1554974647700342127,2,1554974647699863957,,1.67904019356,-0.625980496407,1.21838693063
1554974647709675025,3,1554974647709194250,,1.68083393574,-0.626549780369,1.21871032799
1554974647720053124,4,1554974647719501270,,1.68278825283,-0.626647651196,1.22344552002
1554974647720067054,5,1554974647719535771,,1.68416202068,-0.626862823963,1.23011364344
1554974647729953345,6,1554974647729724526,,1.68596017361,-0.627186357975,1.23078786297
1554974647740443791,7,1554974647740021620,,1.68777120113,-0.627220749855,1.23060913612
1554974647749656808,8,1554974647749301305,,1.68967938423,-0.627331018448,1.23002669281
1554974647760080968,9,1554974647759624271,,1.69157767296,-0.62762337923,1.22883224553
1554974647779796767,10,1554974647779213704,,1.69349598885,-0.628054916859,1.2285352302
1554974647779809669,11,1554974647779258564,,1.69809412956,-0.628516733646,1.22164330301
1554974647789647461,12,1554974647789429261,,1.69975054264,-0.628804683685,1.21996355056
1554974647800287239,13,1554974647799790054,,1.70170509815,-0.62925350666,1.2153001951
1554974647809523459,14,1554974647809040520,,1.70435321331,-0.629402399063,1.2049416607
1554974647819898854,15,1554974647819323465,,1.70629072189,-0.629821538925,1.19781304409
1554974647819911338,16,1554974647819364261,,1.70871639252,-0.630240499973,1.18737469313
1554974647829788619,17,1554974647829549711,,1.7111723423,-0.630714058876,1.17866592796
1554974647840350997,18,1554974647839897420,,1.71364235878,-0.631033718586,1.16471001077
1554974647849627335,19,1554974647849220904,,1.7161231041,-0.631389558315,1.15356395082
1554974647860009426,20,1554974647859543074,,1.71870446205,-0.631826162338,1.13941347551
1554974647879446174,21,1554974647879002386,,1.7211316824,-0.63251966238,1.12670044929
1554974647879583265,22,1554974647879045482,,1.72401034832,-0.632789313793,1.1050796949
1554974647879692752,23,1554974647879068795,,1.72646403313,-0.633172571659,1.08820728215
1554974647889449417,24,1554974647889240890,,1.72920656204,-0.634131133556,1.07721760231
1554974647900077229,25,1554974647899593804,,1.73199021816,-0.634598851204,1.05383254816
1554974647910450721,26,1554974647909993427,,1.73447072506,-0.635080337524,1.03298633826
1554974647919804124,27,1554974647919331487,,1.73699986935,-0.635867893696,-0.859203266885
1554974647930230556,28,1554974647929657236,,1.74000799656,-0.636200070381,0.992568967612
1554974647930243677,29,1554974647929695524,,1.74267423153,-0.636648476124,0.974037258533
1554974647940115044,30,1554974647939902354,,1.74514627457,-0.636827588081,0.95218130819
1554974647949578162,31,1554974647949176167,,1.74761497974,-0.637567460537,0.934089877228
1554974647959968423,32,1554974647959532159,,1.75035965443,-0.638132035732,0.917498218549
1554974647970326099,33,1554974647969890688,,1.75285208225,-0.638515353203,0.897761065183
1554974647990025885,34,1554974647989548014,,1.75539147854,-0.639055073261,0.873901821972
1554974647990179477,35,1554974647989585284,,1.75768756866,-0.639382719994,0.858359957056
1554974647990306441,36,1554974647989616875,,1.76009607315,-0.63962906599,0.842538340277
1554974648000401342,37,1554974647999919074,,1.76254677773,-0.640342175961,0.825726969771
1554974648009408804,38,1554974648009165914,,1.76520085335,-0.640821814537,0.806175142592
1554974648019588524,39,1554974648019371651,,1.76774895191,-0.641294658184,0.786653744208
1554974648030145838,40,1554974648029663968,,1.77027964592,-0.642031133175,0.770298354953
1554974648030294032,41,1554974648029720829,,1.77303743362,-0.643014907837,0.753761212625
1554974648040150067,42,1554974648039918092,,1.77556955814,-0.643731415272,0.735760242352
1554974648049548864,43,1554974648049190137,,1.77825450897,-0.644665181637,0.719028808295
1554974648059990797,44,1554974648059540920,,1.7811088562,-0.645445764065,0.700121966159
1554974648070346843,45,1554974648069912028,,1.78429722786,-0.646764338017,0.683981971218
1554974648090018200,46,1554974648089555104,,1.78711104393,-0.648012340069,0.666581094554
1554974648090123016,47,1554974648089593978,,1.79016458988,-0.649358570576,0.652678150169
1554974648090286664,48,1554974648089614161,,1.79332077503,-0.650754213333,0.635041369693
1554974648100008476,49,1554974648099798061,,1.79638206959,-0.652330338955,0.620076372181
1554974648109482873,50,1554974648109022595,,1.79953312874,-0.654208183289,0.601125297307
1554974648140506098,51,1554974648140031963,,1.80267703533,-0.655814111233,0.585425107187
1554974648140843751,52,1554974648140071134,,1.80587553978,-0.657904982567,0.575299786843
1554974648140853675,53,1554974648140098017,,1.80906260014,-0.660082042217,0.557551227751
1554974648140883331,54,1554974648140110367,,1.81224191189,-0.66187697649,0.542352592495
1554974648149540771,55,1554974648149292125,,1.81574642658,-0.664409160614,0.531620700881
1554974648160075127,56,1554974648159621770,,1.81897091866,-0.666944384575,0.513555756133
1554974648170338694,57,1554974648169904827,,1.82242715359,-0.669461131096,0.496965473997
1554974648190031141,58,1554974648189558764,,1.82552814484,-0.672210812569,0.489361756724
1554974648190179129,59,1554974648189597837,,1.82947039604,-0.674907803535,0.470410242764
1554974648190286259,60,1554974648189626664,,1.83241546154,-0.67774271965,0.458682521082
1554974648200029618,61,1554974648199813935,,1.83602881432,-0.680869042873,0.449266308358
1554974648209539015,62,1554974648209036682,,1.83965992928,-0.683596551418,0.434448704046
1554974648219898452,63,1554974648219423393,,1.84325671196,-0.687066674232,0.425169325831
1554974648220004835,64,1554974648219464205,,1.84652900696,-0.690129160881,0.412290925267
1554974648229976104,65,1554974648229700139,,1.85006713867,-0.693355381489,0.403645264957
1554974648240532614,66,1554974648239993851,,1.85325801373,-0.696425080299,0.398225283734
1554974648249626930,67,1554974648249264596,,1.85669147968,-0.700328111649,0.398857200505
1554974648259665841,68,1554974648259441853,,1.86019396782,-0.703607559204,0.38996025106
1554974648269836980,69,1554974648269616625,,1.86369633675,-0.707047879696,0.389745530938
1554974648280367678,70,1554974648279902243,,1.86724603176,-0.710647165775,0.393114923987
1554974648289741790,71,1554974648289274918,,1.87045812607,-0.714094519615,0.392359128838
1554974648289889652,72,1554974648289312974,,1.8735922575,-0.71758133173,0.392539556585
1554974648300191476,73,1554974648299664570,,1.87723755836,-0.721500039101,0.396843269271
1554974648310515670,74,1554974648309981249,,1.88060677052,-0.724562644958,0.395596978564
1554974648319835781,75,1554974648319360211,,1.8838378191,-0.728595614433,0.401461973028
1554974648330211855,76,1554974648329721180,,1.88689756393,-0.73189419508,0.40370831837
1554974648330381253,77,1554974648329761183,,1.89022886753,-0.735531449318,0.413692623347
1554974648339460039,78,1554974648339003382,,1.89350712299,-0.739053368568,0.41601541452
1554974648349523806,79,1554974648349240410,,1.89659523964,-0.742460489273,0.418990710794
1554974648359966892,80,1554974648359518245,,1.89973425865,-0.745781600475,0.429909802466
1554974648370345347,81,1554974648369892727,,1.90299403667,-0.748966813087,0.434399641448
1554974648370514837,82,1554974648369928275,,1.90622699261,-0.752397954464,0.438373241295
1554974648400341582,83,1554974648399872646,,1.90920674801,-0.755657732487,0.44866762218
1554974648400442211,84,1554974648399912939,,1.91217088699,-0.758703947067,0.453525629523
1554974648400618356,85,1554974648399935077,,1.91525447369,-0.762112379074,0.466651839509
1554974648409371246,86,1554974648409141014,,1.91825687885,-0.765309453011,0.471484778771
1554974648419951706,87,1554974648419503314,,1.92113888264,-0.768574237823,0.48299495977
1554974648420105059,88,1554974648419538394,,1.92429089546,-0.772001087666,0.494540121848
1554974648430327552,89,1554974648429850846,,1.92718112469,-0.775370538235,0.512940545151
1554974648439623349,90,1554974648439172176,,1.93033671379,-0.778653562069,0.523522041463
1554974648449968290,91,1554974648449529195,,1.93314516544,-0.781922340393,0.538964385021
1554974648460310019,92,1554974648459845826,,1.93601620197,-0.785882472992,0.56224056661
1554974648469536624,93,1554974648469058980,,1.93911075592,-0.7890214324,0.570962438277
1554974648479502588,94,1554974648479279323,,1.94210970402,-0.792832136154,0.598067181344
1554974648500166391,95,1554974648499663592,,1.94517278671,-0.796080887318,0.614909424817
1554974648500290010,96,1554974648499719875,,1.95094168186,-0.803484499454,0.663078744086
1554974648510592855,97,1554974648510077666,,1.95384609699,-0.807167470455,0.690725366583
1554974648520467498,98,1554974648519533418,,1.95666253567,-0.810417115688,0.712971170064
1554974648521080549,99,1554974648519602590,,1.95946907997,-0.814068257809,0.73635042117
1554974648530092199,100,1554974648529838961,,1.96238589287,-0.817570269108,0.764372532295
1554974648539557286,101,1554974648539074197,,1.96548676491,-0.820840954781,0.785481087615
1554974648549748905,102,1554974648549355327,,1.96805906296,-0.824147462845,0.812920407152
1554974648560238253,103,1554974648559727041,,1.97100567818,-0.827470839024,0.839418754607
1554974648570475571,104,1554974648569987587,,1.97384858131,-0.830678641796,0.859847084827
1554974648570632567,105,1554974648570020964,,1.97644305229,-0.833901286125,0.885304175804
1554974648600276404,106,1554974648599751693,,1.97927379608,-0.837135851383,0.913318584997
1554974648600401649,107,1554974648599797138,,1.98421096802,-0.843823432922,0.969531607877
1554974648609237809,108,1554974648608935761,,1.98685729504,-0.847003042698,0.998431209726
1554974648619685849,109,1554974648619191919,,1.98925602436,-0.84975373745,1.0189732952
1554974648630060921,110,1554974648629558851,,1.99191510677,-0.852963387966,1.04140979097
1554974648630197839,111,1554974648629595863,,1.99422562122,-0.855814039707,1.06606177786
1554974648640008622,112,1554974648639784935,,1.99661803246,-0.858855724335,1.09471741402
1554974648650371601,113,1554974648649989448,,1.99906730652,-0.861546337605,1.11751403662
1554974648659759524,114,1554974648659301808,,2.00147914886,-0.864337801933,1.13962058157
1554974648670115473,115,1554974648669642959,,2.0033416748,-0.86714476347,1.16727859447
1554974648670244205,116,1554974648669673039,,2.0057144165,-0.869823276997,1.19228795782
1554974648680057749,117,1554974648679840881,,2.00801229477,-0.872578620911,1.21739523038
1554974648699827169,118,1554974648699294148,,2.00986790657,-0.875350832939,1.24249851346
1554974648699987757,119,1554974648699336920,,2.01246213913,-0.877802014351,1.26588460104
1554974648710231034,120,1554974648709691963,,2.01450943947,-0.880332350731,1.29041351147
1554974648720436847,121,1554974648719964671,,2.01676297188,-0.883030772209,1.31617384312
1554974648720612166,122,1554974648719996807,,2.01897239685,-0.885596334934,1.34023928264
1554974648729695750,123,1554974648729215354,,2.02076292038,-0.888127744198,1.37479152067
1554974648739988953,124,1554974648739548021,,2.0233271122,-0.890893697739,1.39938280425
1554974648750160847,125,1554974648749782555,,2.0254919529,-0.893135309219,1.42902594021
1554974648759422374,126,1554974648758976844,,2.02762413025,-0.895989716053,1.46748755257
1554974648769767012,127,1554974648769227318,,2.03007912636,-0.898514449596,1.49320778652
1554974648779983168,128,1554974648779524636,,2.03258109093,-0.901283979416,1.52925324998
1554974648780148469,129,1554974648779561180,,2.03478956223,-0.903746247292,1.56305841159
1554974648809845830,130,1554974648809350894,,2.03735876083,-0.906108736992,1.59553678911
1554974648810004434,131,1554974648809409529,,2.04224491119,-0.910939395428,1.66440878993
1554974648820165439,132,1554974648819693692,,2.0447075367,-0.913282096386,1.70557528242
1554974648820331253,133,1554974648819732704,,2.04715442657,-0.915609240532,1.73814683695
1554974648830271289,134,1554974648829964760,,2.04980897903,-0.917625129223,1.77152715016
1554974648839761888,135,1554974648839287965,,2.05249643326,-0.919989645481,1.80946251465
1554974648849963165,136,1554974648849575205,,2.05498242378,-0.921990811825,1.84073680389
1554974648860436790,137,1554974648859918900,,2.05786824226,-0.924135029316,1.87047254013
1554974648869696815,138,1554974648869211756,,2.06043219566,-0.926578819752,1.8983091341
1554974648879976986,139,1554974648879502399,,2.06327867508,-0.928435325623,1.92918063733
1554974648880137050,140,1554974648879537751,,2.0660431385,-0.93041986227,1.95996087913
1554974648910012309,141,1554974648909370864,,2.06897926331,-0.932441234589,1.98047937203
1554974648910231013,142,1554974648909431248,,2.07447338104,-0.935883760452,2.03343211084
1554974648919939434,143,1554974648919618478,,2.07712268829,-0.937748074532,2.0609444419
1554974648920096944,144,1554974648919636018,,2.07998561859,-0.939550876617,2.08480221663
1554974648930063349,145,1554974648929808018,,2.08273720741,-0.941338121891,2.10463714771
1554974648939218209,146,1554974648938929194,,2.08568048477,-0.942890703678,2.13805969742
1554974648949635704,147,1554974648949188260,,2.08806347847,-0.944828510284,2.15704900375
1554974648960048378,148,1554974648959547447,,2.09104919434,-0.946263611317,2.18054655245
1554974648970258791,149,1554974648969801446,,2.09349703789,-0.948009967804,2.20559071026
1554974648970432042,150,1554974648969833206,,2.09598040581,-0.949870109558,2.22447773175
1554974648979494022,151,1554974648979009427,,2.09868907928,-0.95119702816,2.24801597998
1554974649000108823,152,1554974648999610763,,2.10112786293,-0.952906310558,2.26633615338
1554974649010480319,153,1554974649009989346,,2.10363006592,-0.954289257526,2.29459522452
1554974649010673412,154,1554974649010032686,,2.10609745979,-0.955821633339,2.31725701517
1554974649019657249,155,1554974649019293126,,2.10855007172,-0.957384228706,2.33647767301
1554974649030126034,156,1554974649029651381,,2.11085724831,-0.958919465542,2.35726236634
1554974649030312158,157,1554974649029694861,,2.11295557022,-0.960439920425,2.37715202915
1554974649040254352,158,1554974649039985101,,2.11536812782,-0.962033629417,2.40021933897
1554974649049812144,159,1554974649049289540,,2.11781263351,-0.963527917862,2.42294521194
1554974649060111579,160,1554974649059624335,,2.11989831924,-0.965049564838,2.44289771213
1554974649070417758,161,1554974649069963972,,2.12172198296,-0.966487050056,2.46449564414
1554974649070579759,162,1554974649070002994,,2.12381267548,-0.967633366585,2.48535228195
1554974649079840907,163,1554974649079319045,,2.12608647346,-0.969019114971,2.50537794188
1554974649090138392,164,1554974649089666138,,2.12827801704,-0.970302820206,2.52427862305
1554974649139476410,165,1554974649139018968,,2.13010025024,-0.971745312214,2.54525914716
1554974649139649492,166,1554974649139059852,,2.13217568398,-0.972776532173,2.5640830054
1554974649139864644,167,1554974649139093107,,2.13428926468,-0.973804414272,2.58291344241
1554974649139903163,168,1554974649139129836,,2.14102649689,-0.976127028465,2.63824488235
1554974649149549235,169,1554974649149307950,,2.1433827877,-0.976832211018,2.65785498734
1554974649160156023,170,1554974649159648629,,2.14553594589,-0.977253913879,2.67527562568
1554974649170418070,171,1554974649169950888,,2.14782977104,-0.977447390556,2.69486760545
1554974649170594208,172,1554974649169988725,,2.15016484261,-0.977495908737,2.71368424348
1554974649179778379,173,1554974649179303067,,2.15237236023,-0.977426469326,2.73172767069
1554974649190125022,174,1554974649189685117,,2.15500259399,-0.977581202984,2.75059406194
1554974649209849552,175,1554974649209341343,,2.15711808205,-0.977499723434,2.76670138581
1554974649210033894,176,1554974649209382160,,2.15924882889,-0.977131485939,2.78834679303
1554974649230069675,177,1554974649229788327,,2.16188097,-0.976628422737,2.81172223543
1554974649230267317,178,1554974649229819294,,2.16403770447,-0.976318001747,2.83494528148
1554974649230436625,179,1554974649229836706,,2.16640973091,-0.975905835629,2.85463827555
1554974649239430508,180,1554974649239190729,,2.1684718132,-0.975351452827,2.87879960126
1554974649249928240,181,1554974649249509859,,2.17089033127,-0.974643945694,2.90864493419
1554974649260344388,182,1554974649259888767,,2.17311525345,-0.973870754242,2.9331588718
1554974649269710814,183,1554974649269263547,,2.17557764053,-0.973082542419,2.95615524865
1554974649280192230,184,1554974649279715615,,2.17801165581,-0.972221374512,2.98395990094
1554974649280352753,185,1554974649279758474,,2.18046379089,-0.971155643463,3.01499103322
1554974649290228849,186,1554974649289964177,,2.18243813515,-0.970359921455,3.04359566231
1554974649320431054,187,1554974649319936144,,2.18476057053,-0.969268023968,3.07374608385
1554974649320603729,188,1554974649319980694,,2.18697977066,-0.968215465546,3.10536940687
1554974649320742805,189,1554974649320009625,,2.18923687935,-0.966977000237,3.13652810468
1554974649329503953,190,1554974649329224065,,2.19139003754,-0.965781927109,-3.11898489722
1554974649329652949,191,1554974649329255469,,2.19366574287,-0.964477658272,-3.09045578169
1554974649339642731,192,1554974649339418785,,2.19596099854,-0.962889373302,-3.060004282
1554974649349916035,193,1554974649349621359,,2.19807505608,-0.961692333221,-3.03631796525
1554974649360087258,194,1554974649359835871,,2.20020914078,-0.960051238537,-3.01192617665
1554974649369191466,195,1554974649368952010,,2.20228862762,-0.958456993103,-2.99030107503
1554974649379444271,196,1554974649379161493,,2.20425200462,-0.956686556339,-2.96665341972
1554974649379601429,197,1554974649379194883,,2.20611047745,-0.955213367939,-2.94792184209
1554974649389899775,198,1554974649389451126,,2.20801305771,-0.9532584548,-2.92336964771
1554974649400263834,199,1554974649399825049,,2.20994114876,-0.951364576817,-2.90883359855
1554974649439556316,200,1554974649438979844,,2.21167993546,-0.949524283409,-2.88769650937
1554974649439658423,201,1554974649439021010,,2.21368527412,-0.947085678577,-2.86744921306
1554974649439886745,202,1554974649439051126,,2.2152493,-0.945125520229,-2.854263762
1554974649439896095,203,1554974649439078318,,2.21827149391,-0.940126538277,-2.81395489853
1554974649449842853,204,1554974649449413762,,2.21987175941,-0.937659144402,-2.80317973849
1554974649460301515,205,1554974649459788715,,2.22139549255,-0.934548735619,-2.78525144212
1554974649469548433,206,1554974649469072507,,2.22281718254,-0.932069003582,-2.7677712864
1554974649479910369,207,1554974649479406128,,2.22409939766,-0.929099857807,-2.75359648605
1554974649480075494,208,1554974649479444063,,2.22541046143,-0.926229417324,-2.73422283337
1554974649490057392,209,1554974649489652207,,2.22663664818,-0.92309576273,-2.71574622813
1554974649500437400,210,1554974649499976375,,2.22781658173,-0.919991135597,-2.69910085294
1554974649520019648,211,1554974649519497187,,2.22888207436,-0.917335033417,-2.68212662502
1554974649520185581,212,1554974649519536974,,2.2312734127,-0.911039173603,-2.65433479421
1554974649530352616,213,1554974649529876831,,2.23234415054,-0.907596468925,-2.63464293147
1554974649539742752,214,1554974649539253010,,2.23343110085,-0.904774367809,-2.62225512922
1554974649550066724,215,1554974649549604820,,2.23435902596,-0.902119338512,-2.60887180934
1554974649560451352,216,1554974649559966928,,2.2355568409,-0.898383796215,-2.59406882072
1554974649569748633,217,1554974649569292222,,2.23634195328,-0.895668208599,-2.57946356221
1554974649569910302,218,1554974649569326733,,2.23722314835,-0.892846643925,-2.56328250898
1554974649580134458,219,1554974649579659840,,2.23805189133,-0.8898255229,-2.5540137576
1554974649590466778,220,1554974649589997847,,2.23900818825,-0.886881172657,-2.53999147977
1554974649599876008,221,1554974649599416776,,2.23998236656,-0.884055972099,-2.52523515121
1554974649620568297,222,1554974649620068534,,2.2405807972,-0.880944848061,-2.51153494653
1554974649620704793,223,1554974649620103988,,2.24135136604,-0.877656936646,-2.49498348595
1554974649620870179,224,1554974649620133270,,2.24214720726,-0.874502062798,-2.48044838933
1554974649630037044,225,1554974649629517394,,2.24252724648,-0.871242344379,-2.46826865514
1554974649640352988,226,1554974649639909596,,2.24304175377,-0.867853403091,-2.45579930049
1554974649649591282,227,1554974649649185642,,2.24347543716,-0.864618301392,-2.4429788814
1554974649659655062,228,1554974649659403039,,2.24379611015,-0.860762178898,-2.42855614473
1554974649670137351,229,1554974649669684470,,2.2440495491,-0.857288241386,-2.41743762621
1554974649670293573,230,1554974649669719400,,2.2442843914,-0.853672325611,-2.39773235015
1554974649680158636,231,1554974649679927226,,2.2443215847,-0.849888384342,-2.38455148664
1554974649689738960,232,1554974649689300958,,2.24434757233,-0.845675230026,-2.36743183238
1554974649700124990,233,1554974649699664902,,2.24414849281,-0.842106699944,-2.35254760017
1554974649710563345,234,1554974649710097840,,2.2440199852,-0.837991952896,-2.33680882394
1554974649730270487,235,1554974649729778067,,2.24348926544,-0.834186434746,-2.32209345911
1554974649730417343,236,1554974649729823072,,2.24341726303,-0.82956391573,-2.30833652695
1554974649730555937,237,1554974649729852606,,2.24283623695,-0.825606822968,-2.2924863453
1554974649739183298,238,1554974649738974233,,2.24233031273,-0.821042001247,-2.27514022526
1554974649749487233,239,1554974649749138149,,2.24179434776,-0.816270947456,-2.26053841945
1554974649760013321,240,1554974649759486325,,2.24113273621,-0.811544239521,-2.24622836436
1554974649770302660,241,1554974649769860919,,2.24017763138,-0.807103037834,-2.23356413047
1554974649770519672,242,1554974649769896758,,2.23957276344,-0.80210930109,-2.21334936889
1554974649779389344,243,1554974649779106251,,2.23841094971,-0.797236263752,-2.20339886547
1554974649789990262,244,1554974649789480553,,2.23739218712,-0.792200386524,-2.18588897496
1554974649800318206,245,1554974649799845153,,2.23631095886,-0.787042140961,-2.17074007015
1554974649809648773,246,1554974649809185904,,2.23504781723,-0.782304644585,-2.15478279776
1554974649830346390,247,1554974649829837001,,2.2341003418,-0.777657747269,-2.13963840042
1554974649830532910,248,1554974649829884038,,2.23149228096,-0.767875790596,-2.1028547603
1554974649839676969,249,1554974649839215946,,2.23061347008,-0.76284211874,-2.08898388656
1554974649849977549,250,1554974649849570992,,2.22931671143,-0.757805228233,-2.07539575465
1554974649860379863,251,1554974649859900011,,2.22832298279,-0.752959907055,-2.05802968175
1554974649869732046,252,1554974649869264531,,2.22729754448,-0.747797310352,-2.04637751181
1554974649880029892,253,1554974649879536958,,2.22592425346,-0.743227601051,-2.03082892725
1554974649880186616,254,1554974649879573703,,2.22506761551,-0.737938702106,-2.01788538656
1554974649890352227,255,1554974649889888042,,2.22397303581,-0.733377814293,-2.00332133087
1554974649899738577,256,1554974649899266300,,2.22276926041,-0.728496551514,-1.99021830389
1554974649910093145,257,1554974649909616724,,2.22162508965,-0.723637938499,-1.97320149051
1554974649929844695,258,1554974649929309199,,2.22022366524,-0.718591272831,-1.96468641938
1554974649929999214,259,1554974649929354859,,2.21707463264,-0.708612978458,-1.93163095126
1554974649940179944,260,1554974649939696970,,2.21553134918,-0.703896462917,-1.91889121652
1554974649950400991,261,1554974649949969083,,2.21409463882,-0.698535680771,-1.90713062929
1554974649959785666,262,1554974649959292233,,2.21184802055,-0.69345587492,-1.89473659274
1554974649970165376,263,1554974649969676768,,2.21004891396,-0.688272297382,-1.87768576385
1554974649970330261,264,1554974649969713046,,2.20801568031,-0.682900726795,-1.86504129775
1554974649980464082,265,1554974649980002504,,2.20568275452,-0.677781164646,-1.84777052916
1554974649989878070,266,1554974649989371223,,2.20330476761,-0.671913266182,-1.83245103015
1554974650000143453,267,1554974649999707643,,2.20095610619,-0.666980206966,-1.81679183696
1554974650010560604,268,1554974650010050699,,2.1982884407,-0.661541938782,-1.80130880932
1554974650030213249,269,1554974650029715294,,2.19559073448,-0.656027197838,-1.78816613885
1554974650030369420,270,1554974650029759658,,2.19243264198,-0.650649964809,-1.77092857426
1554974650030489564,271,1554974650029793022,,2.18978738785,-0.645186543465,-1.76576383174
1554974650040185102,272,1554974650039964416,,2.18651080132,-0.639604508877,-1.74324969638
1554974650049431830,273,1554974650049151368,,2.18321037292,-0.633819758892,-1.73292004134
1554974650060000937,274,1554974650059508149,,2.17996239662,-0.628625094891,-1.71183711449
1554974650070388561,275,1554974650069875288,,2.17633152008,-0.623127281666,-1.69676492171
1554974650070560121,276,1554974650069918871,,2.17228746414,-0.617470324039,-1.68424757777
1554974650079603669,277,1554974650079171572,,2.16847133636,-0.611873209476,-1.66650638987
1554974650090011882,278,1554974650089535491,,2.16487169266,-0.605936348438,-1.65590234702
1554974650100369707,279,1554974650099919120,,2.16089200974,-0.600484848022,-1.6377978486
1554974650109707043,280,1554974650109267439,,2.15686297417,-0.594841957092,-1.62065690111
1554974650120004335,281,1554974650119531822,,2.15254664421,-0.589367508888,-1.59907715761
1554974650139532324,282,1554974650139037476,,2.1481821537,-0.583861589432,-1.57715186101
1554974650139718222,283,1554974650139082385,,2.13943552971,-0.57212883234,-1.53657761033
1554974650149749285,284,1554974650149341955,,2.13491797447,-0.566608965397,-1.51577670559
1554974650160105625,285,1554974650159643678,,2.1302947998,-0.560885190964,-1.49066327807
1554974650170398004,286,1554974650169901825,,2.1257622242,-0.554976701736,-1.46353788139
1554974650170572911,287,1554974650169934073,,2.12109398842,-0.549418568611,-1.43488179987
1554974650179633112,288,1554974650179191405,,2.11624121666,-0.544072568417,-1.40454939326
1554974650189984034,289,1554974650189523123,,2.11119413376,-0.538578808308,-1.37446650657
1554974650200367027,290,1554974650199925394,,2.10653948784,-0.532942116261,-1.34956827641
1554974650209751541,291,1554974650209263859,,2.101375103,-0.527339756489,-1.3111617327
1554974650220040950,292,1554974650219558129,,2.09658813477,-0.521794438362,-1.2764376577
1554974650239483246,293,1554974650239004763,,2.0914747715,-0.516005575657,-1.24441222605
1554974650239719100,294,1554974650239050435,,2.08132410049,-0.50511020422,-1.17112169205
1554974650249734829,295,1554974650249274952,,2.07620477676,-0.499703645706,-1.13073463957
1554974650260031150,296,1554974650259561913,,2.07090258598,-0.494398772717,-1.095347734
1554974650270033079,297,1554974650269768605,,2.0657377243,-0.488694131374,-1.05388479859
1554974650270225447,298,1554974650269786815,,2.06047105789,-0.483431607485,-1.01142412634
1554974650280147324,299,1554974650279934087,,2.05503511429,-0.477923721075,-0.967136010449
1554974650289766484,300,1554974650289273986,,2.04976511002,-0.47264751792,-0.924839566657
1554974650300090020,301,1554974650299620159,,2.04422545433,-0.467699080706,-0.878556932645
1554974650310619974,302,1554974650309900647,,2.03872179985,-0.4622874856,-0.830918238638
1554974650319740606,303,1554974650319260816,,2.03301858902,-0.457195460796,-0.786079113464
1554974650340473455,304,1554974650339967325,,2.02765727043,-0.452524781227,-0.738688476661
1554974650340644920,305,1554974650340012846,,2.01624512672,-0.442708343267,-0.638818112664
1554974650349698037,306,1554974650349272214,,2.01034617424,-0.43799996376,-0.590449390204
1554974650360067594,307,1554974650359581529,,2.00470948219,-0.43380022049,-0.544538954061
1554974650370414665,308,1554974650369912836,,1.9988117218,-0.429210662842,-0.495126578828
1554974650370568893,309,1554974650369948203,,1.99282407761,-0.425036489964,-0.448048838735
1554974650379423695,310,1554974650379138779,,1.98684763908,-0.421037137508,-0.399636267885
1554974650389866462,311,1554974650389347828,,1.98116898537,-0.416721820831,-0.35577626737
1554974650400186083,312,1554974650399720175,,1.97525477409,-0.412838429213,-0.305004920262
1554974650410551091,313,1554974650410051519,,1.96956586838,-0.408585339785,-0.256431233059
1554974650419901098,314,1554974650419430850,,1.96369671822,-0.404925614595,-0.206199412242
1554974650420053769,315,1554974650419467933,,1.95790076256,-0.401215910912,-0.159386105655
1554974650440102053,316,1554974650439825503,,1.95239543915,-0.396967053413,-0.120321071062
1554974650440258239,317,1554974650439842932,,1.94676339626,-0.393258154392,-0.0714435941782
1554974650449452353,318,1554974650448975952,,1.9410367012,-0.389302998781,-0.0216243259192
1554974650459506194,319,1554974650459213207,,1.93531942368,-0.385501414537,0.0208552917332
1554974650469996162,320,1554974650469535879,,1.93023455143,-0.381721407175,0.0654769620291
1554974650480331796,321,1554974650479842496,,1.92460644245,-0.377718359232,0.110544037306
1554974650480523692,322,1554974650479883941,,1.91904783249,-0.373684585094,0.15245016498
1554974650489613920,323,1554974650489190697,,1.91374218464,-0.369892507792,0.197064038591
1554974650500005394,324,1554974650499547320,,1.90824127197,-0.366286844015,0.24412763543
1554974650510381434,325,1554974650509898154,,1.9029661417,-0.36232867837,0.288209097986
1554974650519755463,326,1554974650519239104,,1.89759206772,-0.358579695225,0.333391802146
1554974650530034519,327,1554974650529557121,,1.89235818386,-0.355040282011,0.38073654221
1554974650549486518,328,1554974650549005325,,1.88696873188,-0.351336419582,0.431806151308
1554974650549650440,329,1554974650549059917,,1.87659811974,-0.344084829092,0.543070069849
1554974650559750596,330,1554974650559305886,,1.87154078484,-0.340308994055,0.593793741232
1554974650570188323,331,1554974650569641095,,1.86642515659,-0.336738675833,0.648676109266
1554974650570216645,332,1554974650569672456,,1.86113023758,-0.333548069,0.702766854388
1554974650580140196,333,1554974650579853103,,1.85614156723,-0.330219775438,0.76245760522
1554974650589556625,334,1554974650589081472,,1.85126411915,-0.326565653086,0.821075973566
1554974650599912184,335,1554974650599428244,,1.84651267529,-0.323174417019,0.877975141357
1554974650610234043,336,1554974650609763527,,1.84184038639,-0.319717019796,0.935607111636
1554974650619502261,337,1554974650619023282,,1.83676373959,-0.316475957632,1.00954308437
1554974650629892360,338,1554974650629414842,,1.83219611645,-0.312638550997,1.06613118518
1554974650650424179,339,1554974650650012447,,1.82721269131,-0.30982992053,1.14112782592
1554974650650571464,340,1554974650650048265,,1.82248866558,-0.306424230337,1.20895852294
1554974650650725525,341,1554974650650083175,,1.8180565834,-0.30276465416,1.26906625679
1554974650670048455,342,1554974650669554134,,1.81347966194,-0.29933899641,1.33984202347
1554974650680392432,343,1554974650679896069,,1.80917418003,-0.296197623014,1.40449289318
1554974650680553486,344,1554974650679938895,,1.80462062359,-0.292584270239,1.48074175667
1554974650680697253,345,1554974650679970066,,1.80037105083,-0.289191603661,1.54946731883
1554974650689811666,346,1554974650689339934,,1.79580235481,-0.285720586777,1.62725249038
1554974650700184835,347,1554974650699712448,,1.79153490067,-0.282391577959,1.70872585351
1554974650709438090,348,1554974650708977695,,1.78719031811,-0.278790026903,1.77841494967
1554974650719720403,349,1554974650719248551,,1.78288328648,-0.275152683258,1.85729105704
1554974650730131855,350,1554974650729606567,,1.77824556828,-0.271730452776,1.93198408085
1554974650749615446,351,1554974650749176037,,1.77413773537,-0.268435359001,2.00983735798
1554974650749760060,352,1554974650749216588,,1.76509785652,-0.261620491743,2.16823422247
1554974650759676649,353,1554974650759352691,,1.76078939438,-0.257848650217,2.24814235374
1554974650770136781,354,1554974650769659546,,1.75619983673,-0.254629909992,2.32851070966
1554974650770289905,355,1554974650769699708,,1.75179314613,-0.251098096371,2.40246233253
1554974650780142674,356,1554974650779881284,,1.74735605717,-0.247662425041,2.48567794176
1554974650789676803,357,1554974650789191979,,1.74304866791,-0.244182348251,2.56385144669
1554974650800036873,358,1554974650799537663,,1.73851776123,-0.240779459476,2.64347513667
1554974650810379979,359,1554974650809884397,,1.73414170742,-0.237343758345,2.73148895548
1554974650819755792,360,1554974650819156030,,1.72961366177,-0.234079942107,2.815969904
1554974650830008296,361,1554974650829511824,,1.72493731976,-0.230869546533,2.89549951876
1554974650830172965,362,1554974650829550581,,1.72053396702,-0.2280420959,2.97469851852
1554974650849420609,363,1554974650848963005,,1.71582663059,-0.224959179759,3.05380966721
1554974650849589314,364,1554974650848994732,,1.71164035797,-0.221300542355,3.14148858821
1554974650859750924,365,1554974650859293654,,1.70709633827,-0.218725800514,-3.05757602324
1554974650870053854,366,1554974650869584375,,1.70253407955,-0.215720757842,-2.97733493507
1554974650880402671,367,1554974650879910758,,1.69817817211,-0.213074252009,-2.89198366834
1554974650880588587,368,1554974650879954560,,1.69386851788,-0.209841489792,-2.80823187918
1554974650889831004,369,1554974650889347038,,1.68952870369,-0.20706872642,-2.72320575329
1554974650900178198,370,1554974650899727208,,1.68524885178,-0.20386493206,-2.64145981536
1554974650909451617,371,1554974650908976243,,1.68085765839,-0.201690688729,-2.55727505522
1554974650919776832,372,1554974650919298493,,1.67645895481,-0.198630958796,-2.47539858017
1554974650929797741,373,1554974650929483950,,1.67206096649,-0.195898622274,-2.39323091365
1554974650929966833,374,1554974650929500818,,1.66782772541,-0.193138197064,-2.30380798641
1554974650959556383,375,1554974650959067353,,1.66369664669,-0.190399244428,-2.21826783571
1554974650959730444,376,1554974650959109960,,1.65515828133,-0.184330299497,-2.04132781728
1554974650969701035,377,1554974650969285637,,1.65115833282,-0.181341722608,-1.95954896972
1554974650969726103,378,1554974650969302281,,1.64669406414,-0.178396224976,-1.86718795485
1554974650979737336,379,1554974650979487240,,1.64250183105,-0.175629243255,-1.775714625
1554974650989925283,380,1554974650989643456,,1.63804423809,-0.172669127584,-1.68442376218
1554974651000347208,381,1554974650999905448,,1.63385999203,-0.169365942478,-1.58788698017
1554974651009698389,382,1554974651009234586,,1.62967598438,-0.16639174521,-1.49625677626
1554974651020018433,383,1554974651019548112,,1.62520325184,-0.163531512022,-1.4058068128
1554974651020150354,384,1554974651019579545,,1.62103128433,-0.160327419639,-1.31125008601
1554974651030438755,385,1554974651029931145,,1.61674928665,-0.157394006848,-1.21854719989
1554974651060253025,386,1554974651059736651,,1.61233866215,-0.154195740819,-1.12520557113
1554974651060440610,387,1554974651059784217,,1.60335445404,-0.148258209229,-0.94003593622
1554974651069493626,388,1554974651068999543,,1.59888446331,-0.14558686316,-0.846671660332
1554974651079863268,389,1554974651079316012,,1.59444510937,-0.142308935523,-0.752953762128
1554974651080010011,390,1554974651079354279,,1.59000635147,-0.139699295163,-0.659407377598
1554974651090159202,391,1554974651089660080,,1.58518731594,-0.136506959796,-0.567491008343
1554974651100496565,392,1554974651099999143,,1.58047401905,-0.134227588773,-0.477451314992
1554974651109850077,393,1554974651109338653,,1.57619845867,-0.131811231375,-0.38437363195
1554974651120101541,394,1554974651119648640,,1.57156646252,-0.129228085279,-0.289533732281
1554974651120254009,395,1554974651119681036,,1.56703209877,-0.126733824611,-0.205629091117
1554974651130202468,396,1554974651129904756,,1.56264567375,-0.124519340694,-0.119499654538
1554974651139719802,397,1554974651139212884,,1.55809915066,-0.122032724321,-0.0348180239901
1554974651160263241,398,1554974651159775922,,1.55397260189,-0.119734928012,0.0510396092984
1554974651160458431,399,1554974651159810713,,1.54958987236,-0.117715887725,0.129433517979
1554974651169582164,400,1554974651169023045,,1.54567980766,-0.115193799138,0.206405444231
1554974651179822443,401,1554974651179321656,,1.54125332832,-0.113275915384,0.288734783645
1554974651180013890,402,1554974651179357810,,1.53717041016,-0.111058756709,0.364782466592
1554974651200429837,403,1554974651199955951,,1.53339266777,-0.109237320721,0.43927626427
1554974651200620259,404,1554974651199993435,,1.5291415453,-0.107069395483,0.516357921908
1554974651209561072,405,1554974651209235293,,1.52550983429,-0.104922607541,0.586012500261
1554974651220074791,406,1554974651219588655,,1.52119278908,-0.103037185967,0.667408003705
1554974651230428114,407,1554974651229951309,,1.51774835587,-0.100610151887,0.737640356001
1554974651230598565,408,1554974651229992814,,1.51390492916,-0.0985642746091,0.807499148267
1554974651239781152,409,1554974651239346372,,1.50997543335,-0.0967316329479,-0.725121345762
1554974651260375208,410,1554974651259901119,,1.50664699078,-0.0938099771738,0.950777508385
1554974651260535233,411,1554974651259940480,,1.50306391716,-0.0913970917463,1.01785876836
1554974651269439437,412,1554974651269160804,,1.499391675,-0.0890727415681,1.09461283933
1554974651279994045,413,1554974651279502182,,1.49528419971,-0.0872950330377,-1.00423930374
1554974651280152928,414,1554974651279543628,,1.49203157425,-0.0842191651464,1.22651425222
1554974651290041363,415,1554974651289763219,,1.48843443394,-0.081990070641,1.30733120563
1554974651300484797,416,1554974651300044034,,1.4850884676,-0.0790735855699,1.3701404769
1554974651309857198,417,1554974651309373599,,1.4811861515,-0.0765332654119,1.43665445474
1554974651320154192,418,1554974651319696054,,1.47764837742,-0.0739918574691,1.5035024893
1554974651320334428,419,1554974651319728862,,1.47424471378,-0.0712365582585,1.56180081256
1554974651330513007,420,1554974651330043027,,1.47099506855,-0.0683685466647,1.62665771769
1554974651339850949,421,1554974651339389655,,1.46755719185,-0.0654398649931,1.69527735067
1554974651370571978,422,1554974651370093580,,1.46447920799,-0.0627910345793,1.75520994607
1554974651370776275,423,1554974651370146080,,1.45468974113,-0.0540875047445,1.92717806811
1554974651379588833,424,1554974651379335859,,1.45187389851,-0.0509902313352,1.9864984837
1554974651390142634,425,1554974651389684850,,1.4489146471,-0.0483939088881,2.03614921139
1554974651400473912,426,1554974651400011891,,1.44585871696,-0.0451502501965,2.08803540314
1554974651409863177,427,1554974651409409325,,1.44300079346,-0.0422145053744,2.13953904987
1554974651420139354,428,1554974651419668827,,1.44021880627,-0.0388613045216,2.19198429778
1554974651420294723,429,1554974651419699945,,1.43744146824,-0.0356388241053,2.24602256346
1554974651430534819,430,1554974651430059230,,1.43467378616,-0.0322112999856,2.29800495264
1554974651439873421,431,1554974651439390089,,1.43184041977,-0.0293815247715,2.34746644731
1554974651469930397,432,1554974651469285986,,1.42919898033,-0.0255273096263,2.40957189402
1554974651469938885,433,1554974651469332262,,1.42411363125,-0.0191610455513,2.52133656632
1554974651479782014,434,1554974651479513508,,1.42154347897,-0.015723656863,2.58039774075
1554974651479948351,435,1554974651479544743,,1.41909658909,-0.0122652696446,2.63828723328
1554974651490333810,436,1554974651489866934,,1.41670823097,-0.0089323176071,2.69867103657
1554974651499610130,437,1554974651499156558,,1.41412317753,-0.00543101783842,2.75795815577
1554974651509915508,438,1554974651509451037,,1.41154539585,-0.00221431208774,2.81740562512
1554974651520287067,439,1554974651519816444,,1.4093773365,0.00169154652394,2.88339600495
1554974651520440562,440,1554974651519853290,,1.4067581892,0.00491812080145,2.94285326491
1554974651539788860,441,1554974651539296806,,1.40439891815,0.00830249022692,3.00296813214
1554974651539932248,442,1554974651539333974,,1.40203309059,0.0118202473968,3.06767145087
1554974651549815630,443,1554974651549546117,,1.39964723587,0.0154119040817,3.130924838
1554974651570455951,444,1554974651569987391,,1.39705610275,0.0185001641512,-3.09171316284
1554974651570615040,445,1554974651570036602,,1.39232075214,0.025044457987,-2.96845881634
1554974651579873473,446,1554974651579353960,,1.38987743855,0.0283051300794,-2.90558962962
1554974651589849574,447,1554974651589571160,,1.38742303848,0.0312439519912,-2.84576179411
1554974651600361832,448,1554974651599891388,,1.38521683216,0.0341161713004,-2.78590713651
1554974651609651597,449,1554974651609175939,,1.38282871246,0.0374632552266,-2.71889231016
1554974651619970924,450,1554974651619505636,,1.3804320097,0.0407032854855,-2.65982752734
1554974651620212188,451,1554974651619540645,,1.37795650959,0.0437820628285,-2.59174048389
1554974651630383171,452,1554974651629894519,,1.37556993961,0.0467727035284,-2.52965982779
1554974651639663634,453,1554974651639188060,,1.37311410904,0.0500382892787,-2.46865978905
1554974651650036758,454,1554974651649558324,,1.37064480782,0.0533927492797,-2.40623912456
1554974651670261397,455,1554974651669975363,,1.36817216873,0.0567521899939,-2.34527776077
1554974651670397539,456,1554974651670000539,,1.36287617683,0.0635686516762,-2.21683071947
1554974651679501254,457,1554974651679188369,,1.36021947861,0.0670526847243,-2.15477793358
1554974651690004747,458,1554974651689529359,,1.35744833946,0.0705295875669,-2.09451039134
1554974651700351381,459,1554974651699902091,,1.3544369936,0.0740182772279,-2.02684100278
1554974651709762636,460,1554974651709269194,,1.35168838501,0.0776426717639,-1.96107326554
1554974651720052121,461,1554974651719593075,,1.34884333611,0.0810411721468,-1.89965063746
1554974651720221990,462,1554974651719631789,,1.34587168694,0.0847579091787,-1.83452700315
1554974651730146664,463,1554974651729845519,,1.3426964283,0.0884501412511,-1.7686955944
1554974651739564563,464,1554974651739072978,,1.33973121643,0.0921405851841,-1.70535373632
1554974651749877984,465,1554974651749439560,,1.33671152592,0.0956268832088,-1.63791778003
1554974651779776295,466,1554974651779287020,,1.33350265026,0.0993988364935,-1.56862209403
1554974651779941958,467,1554974651779339296,,1.32408022881,0.109813824296,-1.35946437581
1554974651790078412,468,1554974651789620050,,1.32092428207,0.11341394484,-1.28828939431
1554974651800446880,469,1554974651799989933,,1.31769692898,0.116661906242,-1.21727383722
1554974651809745388,470,1554974651809248337,,1.31432151794,0.120120443404,-1.14387064269
1554974651820054329,471,1554974651819592891,,1.31093800068,0.123373031616,-1.07215647187
1554974651820187217,472,1554974651819625254,,1.30752718449,0.126614198089,-0.99776222622
1554974651830416813,473,1554974651829938625,,1.30405700207,0.129900217056,-0.924165318635
1554974651839697210,474,1554974651839232146,,1.30065786839,0.132985725999,-0.850808115136
1554974651849932767,475,1554974651849522451,,1.29703831673,0.13605363667,-0.779094712773
1554974651860281447,476,1554974651859793404,,1.29336047173,0.139026582241,-0.705554783931
1554974651879866616,477,1554974651879356209,,1.28982591629,0.141598671675,-0.633188284658
1554974651880014004,478,1554974651879400665,,1.28255033493,0.1470271945,-0.486694478054
1554974651890113601,479,1554974651889654248,,1.27887845039,0.14946089685,-0.41486632564
1554974651900409250,480,1554974651899964867,,1.2753765583,0.152022376657,-0.339558886988
1554974651909816323,481,1554974651909319075,,1.27171230316,0.15445971489,-0.266819717548
1554974651920180181,482,1554974651919673853,,1.26834869385,0.157019421458,-0.197974961199
1554974651920318430,483,1554974651919708488,,1.26472759247,0.159324601293,-0.126389890886
1554974651930180852,484,1554974651929876760,,1.26134371758,0.161655724049,-0.0531912153136
1554974651939701633,485,1554974651939216907,,1.25810015202,0.163957491517,0.0147991688881
1554974651949969078,486,1554974651949535649,,1.2547160387,0.166482999921,0.0838305971522
1554974651960378802,487,1554974651959866181,,1.25162065029,0.168857768178,0.154176620423
1554974651980020000,488,1554974651979502811,,1.24842238426,0.171210318804,0.22271693804
1554974651980174491,489,1554974651979551276,,1.24222528934,0.176191285253,0.362431127693
1554974651990078504,490,1554974651989787134,,1.23941469193,0.17858235538,0.423242637817
1554974651999453081,491,1554974651999010764,,1.23626577854,0.181176692247,0.493717454845
1554974652009866747,492,1554974652009369914,,1.23343682289,0.183623477817,0.556032831639
1554974652020192655,493,1554974652019679867,,1.23053479195,0.185782164335,0.620585672439
1554974652020415759,494,1554974652019717599,,1.22769916058,0.188278406858,0.685326420211
1554974652030456208,495,1554974652029988146,,1.22512245178,0.190632075071,0.746220838016
1554974652039760379,496,1554974652039300758,,1.22236537933,0.193232908845,0.808767668739
1554974652049974838,497,1554974652049525672,,1.21997177601,0.195380300283,0.866619651414
1554974652060044723,498,1554974652059742983,,1.21748554707,0.197749495506,0.920342516244
1554974652079720073,499,1554974652079237471,,1.21509563923,0.200058609247,0.976535582151
1554974652079937154,500,1554974652079280031,,1.2106436491,0.204750180244,1.08049876353
1554974652089895724,501,1554974652089463328,,1.20857322216,0.206936314702,1.13196272457
1554974652100189831,502,1554974652099766628,,1.20648026466,0.209257110953,1.1808614324
1554974652109455506,503,1554974652108985073,,1.20456504822,0.211465939879,1.22493327322
1554974652119919895,504,1554974652119370600,,1.20282912254,0.213599652052,1.26928530123
1554974652130435835,505,1554974652129753014,,1.20106554031,0.215801134706,1.31473770041
1554974652130443987,506,1554974652129790359,,1.19949281216,0.217907696962,1.35550065914
1554974652140222762,507,1554974652139979199,,1.19789946079,0.220224305987,1.3963931241
1554974652149401524,508,1554974652149174893,,1.19647312164,0.222264453769,1.43273238159
1554974652159988768,509,1554974652159494847,,1.19511818886,0.224434584379,1.46942859818
1554974652189823566,510,1554974652189339801,,1.19396448135,0.226566836238,1.5051338424
1554974652189969086,511,1554974652189404340,,1.19081127644,0.233043625951,1.59968379657
1554974652199813386,512,1554974652199595782,,1.19004178047,0.235261455178,1.62688309232
1554974652210084828,513,1554974652209844538,,1.18909585476,0.237347111106,1.65473232183
1554974652219204468,514,1554974652218993594,,1.18851149082,0.239435732365,1.67825202937
1554974652229478983,515,1554974652229188747,,1.18776249886,0.241587549448,1.70547897868
1554974652229637050,516,1554974652229216779,,1.18728888035,0.243680685759,1.72913641258
1554974652239657264,517,1554974652239411732,,1.18692791462,0.245739772916,1.74998919306
1554974652250039109,518,1554974652249628802,,1.18643319607,0.247940823436,1.77214945022
1554974652260451947,519,1554974652259973701,,1.18621468544,0.250090032816,1.78928439567
1554974652269535670,520,1554974652269219138,,1.18592584133,0.252264082432,1.80572880337
1554974652290382360,521,1554974652289873487,,1.18571853638,0.254540681839,1.82280606586
1554974652290549481,522,1554974652289918937,,1.18577742577,0.258752822876,1.8540114991
1554974652299712941,523,1554974652299190393,,1.18600130081,0.261036723852,1.86598534788
1554974652309946261,524,1554974652309455947,,1.18615376949,0.26309850812,1.87684137004
1554974652320238507,525,1554974652319708190,,1.1863399744,0.265356272459,1.8916254038
1554974652320391963,526,1554974652319740468,,1.18665981293,0.267561972141,1.89917561031
1554974652330527943,527,1554974652330043176,,1.18710434437,0.269768357277,1.90599468368
1554974652339848222,528,1554974652339375423,,1.1874448061,0.272021114826,1.91559454805
1554974652350145034,529,1554974652349701744,,1.18792128563,0.274256289005,1.91858072392
1554974652360494459,530,1554974652360018896,,1.18875396252,0.276626139879,1.92431137685
1554974652369815844,531,1554974652369345098,,1.18947684765,0.278906315565,1.92827176179
1554974652390805299,532,1554974652390077706,,1.19014751911,0.281252622604,1.92852574984
1554974652390814023,533,1554974652390123247,,1.19176447392,0.285680502653,1.93164779625
1554974652399813885,534,1554974652399345012,,1.19277441502,0.288028687239,1.93172315601
1554974652410134346,535,1554974652409647057,,1.19376254082,0.290393948555,1.93247960896
1554974652420426433,536,1554974652419979526,,1.19494044781,0.292771309614,1.93376071023
1554974652420586654,537,1554974652420018183,,1.19593882561,0.294916838408,1.93656193283
1554974652429441241,538,1554974652429215114,,1.19701969624,0.297155529261,1.9390924858
1554974652439989563,539,1554974652439550039,,1.19823610783,0.2996121943,1.94332329705
1554974652450246608,540,1554974652449855351,,1.19934916496,0.301873385906,1.94779965635
1554974652459621670,541,1554974652459208154,,1.20060133934,0.303947538137,1.95385714599
1554974652470053888,542,1554974652469593916,,1.20207285881,0.306413829327,1.96206622971
1554974652489553926,543,1554974652488989917,,1.20348274708,0.308484643698,1.97294334141
1554974652489723059,544,1554974652489023623,,1.20501685143,0.310884863138,1.98676129464
1554974652489899248,545,1554974652489053949,,1.20646774769,0.313071668148,1.99769237495
1554974652499630568,546,1554974652499313791,,1.20801496506,0.315440654755,2.00501163664
1554974652510135263,547,1554974652509647027,,1.20960128307,0.317843168974,2.01903219983
1554974652520529150,548,1554974652520010401,,1.211327672,0.320150226355,2.03245130078
1554974652520673343,549,1554974652520049280,,1.21311986446,0.322536081076,2.04213352152
1554974652529896573,550,1554974652529380037,,1.21502494812,0.324967592955,2.054529762
1554974652540012437,551,1554974652539661790,,1.21669602394,0.327250897884,2.06201687435
1554974652550252008,552,1554974652549869987,,1.21866381168,0.329810380936,2.07478327489
1554974652559712228,553,1554974652559265705,,1.22061467171,0.332346618176,2.08305414757
1554974652570126517,554,1554974652569633540,,1.22256708145,0.334685176611,2.08991147634
1554974652570277282,555,1554974652569669887,,1.22469639778,0.33729571104,2.09769998119
1554974652589778425,556,1554974652589264601,,1.22684419155,0.339776873589,2.10452877637
1554974652590008851,557,1554974652589300393,,1.22891628742,0.342291802168,2.10853381413
1554974652599714454,558,1554974652599477808,,1.23112642765,0.344814091921,2.11575161647
1554974652609943280,559,1554974652609672547,,1.23317289352,0.347584694624,2.12314776203
1554974652620399541,560,1554974652619951022,,1.2352694273,0.350066959858,2.12611415237
1554974652620534239,561,1554974652619985566,,1.23751294613,0.352630406618,2.13472169304
1554974652629544312,562,1554974652629175204,,1.23944497108,0.355104476213,2.13676410391
1554974652639974468,563,1554974652639496950,,1.24189424515,0.35787653923,2.14475778186
1554974652650136068,564,1554974652649757577,,1.24369120598,0.360262334347,2.14862320634
1554974652659482104,565,1554974652659024623,,1.24592733383,0.362999916077,2.15544470604
1554974652669969339,566,1554974652669405201,,1.24798607826,0.36533343792,2.15861418882
1554974652670167427,567,1554974652669501853,,1.25006663799,0.36794936657,2.16727709388
1554974652699740287,568,1554974652699236156,,1.25185656548,0.370234340429,2.16835459041
1554974652699895819,569,1554974652699286013,,1.25608026981,0.375477880239,2.17967818778
1554974652710162867,570,1554974652709596495,,1.25818777084,0.377908825874,2.18758376624
1554974652720316919,571,1554974652719850487,,1.26026189327,0.380437403917,2.19136756993
1554974652720464554,572,1554974652719882115,,1.26246750355,0.383182615042,2.19465599526
1554974652729821504,573,1554974652729219348,,1.26449763775,0.385742753744,2.19442898872
1554974652740096993,574,1554974652739550003,,1.26670944691,0.388353735209,2.19922931196
1554974652750210385,575,1554974652749803992,,1.26897978783,0.390999227762,2.19607007792
1554974652759525555,576,1554974652759035331,,1.27129662037,0.39396160841,2.19781507381
1554974652769595676,577,1554974652769235713,,1.27343964577,0.396620929241,2.19461386463
1554974652780005373,578,1554974652779513744,,1.27590477467,0.399407237768,2.19027414946
1554974652799550811,579,1554974652799030424,,1.27838790417,0.402261555195,2.18476099594
1554974652799733226,580,1554974652799078266,,1.28321802616,0.408149510622,2.17315014104
1554974652809570671,581,1554974652809260907,,1.28604245186,0.411115676165,2.16637741203
1554974652820116421,582,1554974652819550101,,1.28846335411,0.413986355066,2.15463785153
1554974652820320421,583,1554974652819581570,,1.29121887684,0.41722676158,2.14965818677
1554974652830344383,584,1554974652829845838,,1.29379808903,0.420145988464,2.13425564791
1554974652839518752,585,1554974652839048379,,1.29679656029,0.423481434584,2.12168772649
1554974652849772947,586,1554974652849330651,,1.29943096638,0.426514327526,2.10662262312
1554974652859886867,587,1554974652859553564,,1.3023737669,0.429741799831,2.09371503824
1554974652870296781,588,1554974652869830049,,1.30536198616,0.432968944311,2.08011733144
1554974652870469832,589,1554974652869861965,,1.30840086937,0.436109930277,2.06075086651
1554974652900250749,590,1554974652899662432,,1.31137263775,0.439554750919,2.04137308803
1554974652900424205,591,1554974652899710031,,1.31782209873,0.445921510458,2.0037286164
1554974652910578982,592,1554974652910078535,,1.32113850117,0.449427366257,1.98128706038
1554974652919964921,593,1554974652919442578,,1.32452046871,0.452662050724,1.96125970414
1554974652933538636,594,1554974652929802618,,1.32798469067,0.455859541893,1.93708746565
1554974652933545594,595,1554974652929843891,,1.33163928986,0.459320604801,1.91619067192
1554974652939553062,596,1554974652939076667,,1.33538126945,0.462586075068,1.89479002233
1554974652949815542,597,1554974652949383695,,1.33927369118,0.466104954481,1.87176617868
1554974652960243317,598,1554974652959748031,,1.34330642223,0.469425678253,1.84860655611
1554974652969521583,599,1554974652969000446,,1.34743201733,0.472721785307,1.82799417385
1554974652979829938,600,1554974652979322978,,1.35146474838,0.476334542036,1.80807584256
1554974652980079824,601,1554974652979360013,,1.35589408875,0.479542046785,1.78586780947
1554974653000405591,602,1554974652999927070,,1.36026060581,0.483065992594,1.76762570031
1554974653000583935,603,1554974652999967424,,1.36493885517,0.486274600029,1.74708043422
1554974653009803675,604,1554974653009315644,,1.36949563026,0.489672899246,1.72989977328
1554974653020164292,605,1554974653019672961,,1.37425911427,0.492789506912,1.71121253566
1554974653020322494,606,1554974653019712143,,1.37908995152,0.496115982533,1.6966211368
1554974653030465481,607,1554974653030004079,,1.38389790058,0.499419361353,1.68186011986
1554974653039851951,608,1554974653039367853,,1.38879334927,0.502637386322,1.66746210017
1554974653050027571,609,1554974653049660748,,1.39367485046,0.505537986755,1.65374937132
1554974653060423936,610,1554974653059959601,,1.39876246452,0.508819282055,1.64364086376
1554974653069749840,611,1554974653069272294,,1.40382099152,0.511873662472,1.63521074045
1554974653080157005,612,1554974653079596115,,1.40882694721,0.515205442905,1.62918799973
1554974653080330465,613,1554974653079633781,,1.41418778896,0.518104374409,1.62257399881
1554974653110108872,614,1554974653109586999,,1.41941249371,0.521076917648,1.61759937201
1554974653110262243,615,1554974653109632680,,1.4301006794,0.527073502541,1.6087538274
1554974653120230101,616,1554974653119817387,,1.43588984013,0.529970884323,1.6076748136
1554974653120259560,617,1554974653119834763,,1.44153106213,0.532966971397,1.60418659869
1554974653129198082,618,1554974653128943443,,1.44738388062,0.535951316357,1.60338457062
1554974653139445941,619,1554974653139129368,,1.4532147646,0.538871347904,1.60411716691
1554974653149869793,620,1554974653149442890,,1.45941138268,0.541668355465,1.5994658038
1554974653160020001,621,1554974653159708211,,1.46536064148,0.544371426105,1.60322181293
1554974653170439262,622,1554974653169974439,,1.47174143791,0.547368407249,1.60546866665
1554974653170599746,623,1554974653170006418,,1.47821211815,0.550181210041,1.60234786647
1554974653179461950,624,1554974653179159370,,1.48465633392,0.552933216095,1.5974267699
1554974653209449730,625,1554974653208994289,,1.49129426479,0.555641531944,1.60011926916
1554974653209608505,626,1554974653209041596,,1.50479519367,0.561213195324,1.60253885223
1554974653219420771,627,1554974653219195478,,1.51192712784,0.564040839672,1.60249104163
1554974653229995091,628,1554974653229480922,,1.51914155483,0.566714406013,1.60342455554
1554974653230162109,629,1554974653229520406,,1.52628600597,0.569464981556,1.60527637122
1554974653240001413,630,1554974653239710757,,1.53366112709,0.571892261505,1.60495765818
1554974653250372550,631,1554974653249908604,,1.54103255272,0.574738264084,1.60925791575
1554974653259740879,632,1554974653259285171,,1.54907691479,0.577232897282,1.60964512635
1554974653270237923,633,1554974653269624655,,1.55650532246,0.5799883008,1.6102514438
1554974653270244628,634,1554974653269656590,,1.56429982185,0.582679569721,1.61185950312
1554974653280172873,635,1554974653279876205,,1.57241904736,0.585108041763,1.6141513277
1554974653289697689,636,1554974653289204625,,1.58059024811,0.587551057339,1.61530505038
1554974653310345517,637,1554974653309854078,,1.58855044842,0.590193212032,1.62611456947
1554974653310486025,638,1554974653309891678,,1.59700524807,0.592658698559,1.62556447356
1554974653319739735,639,1554974653319228819,,1.60485208035,0.595162570477,1.63249761826
1554974653330093954,640,1554974653329577509,,1.61313545704,0.59750688076,1.63119393212
1554974653330255457,641,1554974653329615860,,1.62148845196,0.600011408329,1.64124587216
1554974653340377243,642,1554974653339909038,,1.62973809242,0.60256510973,1.64694035717
1554974653349569982,643,1554974653349192250,,1.63820135593,0.604692339897,1.65380208618
1554974653359714517,644,1554974653359434507,,1.64631724358,0.607013761997,1.66211811044
1554974653370196073,645,1554974653369738048,,1.65474164486,0.609397411346,1.67343108184
1554974653370373566,646,1554974653369768608,,1.66285049915,0.61164188385,1.6841616831
1554974653380195443,647,1554974653379921598,,1.67104411125,0.61387181282,1.69242664579
1554974653389681036,648,1554974653389216210,,1.67908513546,0.615997493267,1.7061205232
1554974653410344921,649,1554974653409830006,,1.68684649467,0.617999076843,1.70893139264
1554974653410515620,650,1554974653409866640,,1.69482696056,0.620136737823,1.72402112383
1554974653419542848,651,1554974653419078873,,1.70280301571,0.622605860233,1.73592238576
1554974653429574731,652,1554974653429297439,,1.71059679985,0.624715268612,1.74921725869
1554974653429729670,653,1554974653429314763,,1.71841430664,0.62685495615,1.76035143963
1554974653439712197,654,1554974653439487193,,1.72624897957,0.628808140755,1.77124479471
1554974653450059536,655,1554974653449716893,,1.73397517204,0.630677700043,1.78514176001
1554974653460390052,656,1554974653459950415,,1.74210751057,0.633059203625,1.79968775892
1554974653469423883,657,1554974653469160556,,1.74963259697,0.635265767574,1.81685151001
1554974653480070829,658,1554974653479522045,,1.75709152222,0.63701069355,1.83184991757
1554974653480279478,659,1554974653479563783,,1.7649834156,0.639370083809,1.84844424742
1554974653490297508,660,1554974653489852914,,1.77248132229,0.641371130943,1.86201862776
1554974653520222187,661,1554974653519746544,,1.77993237972,0.643339157104,1.8774928351
1554974653520359245,662,1554974653519794318,,1.80224359035,0.649640500546,1.92100047986
1554974653530323734,663,1554974653530035704,,1.80958366394,0.651569008827,1.93785477377
1554974653539849438,664,1554974653539379569,,1.81681632996,0.653840899467,1.95593637363
1554974653550141304,665,1554974653549685563,,1.82431304455,0.655877709389,1.97319604544
1554974653560465519,666,1554974653559985470,,1.83151304722,0.657945811749,1.99130357393
1554974653569838273,667,1554974653569343586,,1.83844995499,0.659957110882,2.00266592966
1554974653580280483,668,1554974653579743408,,1.84576833248,0.662272691727,2.02085812106
1554974653580423011,669,1554974653579781136,,1.85269272327,0.663930237293,2.03590337307
1554974653590248590,670,1554974653589985432,,1.85994052887,0.66590076685,2.05675562099
1554974653619501215,671,1554974653619019399,,1.86698126793,0.667921423912,2.06916054338
1554974653619653500,672,1554974653619065220,,1.88084232807,0.672137200832,2.10103382941
1554974653629845011,673,1554974653629358905,,1.88774359226,0.674108684063,2.11456935522
1554974653629996437,674,1554974653629415721,,1.8947404623,0.676185786724,2.12166007271
